$GPZDA,010756.00,24,12,2013,,*66
$GPGGA,010756.00,4003.52477,N,08256.20503,W,2,08,1.06,00245,M,-033,M,,*50
$GPGLL,4003.52477,N,08256.20503,W,010756.00,A,D*72
$GPVTG,093.6,T,100.3,M,033.13,N,061.35,K,D*2B
$GPGSA,A,3,25,01,31,32,14,20,16,22,,,,,1.92,1.06,1.60*0D
$GPGSV,3,1,09,25,35,053,47,01,14,271,44,31,78,340,51,32,58,289,51*73
$GPGSV,3,2,09,14,46,088,47,20,25,312,46,16,07,192,42,22,14,159,46*74
$GPGSV,3,3,09,46,42,203,44,,,,,,,,,,,,*45
$GPGST,010756.00,,011.74,011.44,071.2,003.42,003.39,003.56*47
$GPRMC,010756.00,A,4003.52477,N,08256.20503,W,033.13,093.6,241213,06.7,W,D*34
$PTNLRTF,V$GPZDA,010759.00,24,12,2013,,*69
$GPGGA,010759.00,4003.52300,N,08256.16857,W,2,08,1.06,00244,M,-033,M,,*50
$GPGLL,4003.52300,N,08256.16857,W,010759.00,A,D*73
$GPVTG,094.1,T,100.7,M,033.74,N,062.50,K,D*2E
$GPGSA,A,3,25,01,31,32,14,20,16,22,,,,,1.92,1.06,1.60*0D
$GPGSV,3,1,09,25,35,053,47,01,14,271,45,31,78,340,51,32,58,289,51*72
$GPGSV,3,2,09,14,46,088,47,20,25,312,47,16,07,192,31,22,14,159,47*70
$GPGSV,3,3,09,46,42,203,44,,,,,,,,,,,,*45
$GPGST,010759.00,,010.99,010.67,072.0,003.31,003.27,003.45*42
$GPRMC,010759.00,A,4003.52300,N,08256.16857,W,033.74,094.1,241213,06.7,W,D*34
$PTNLRTF,V,A,176895,08,3,4003.52300,N,08256.16857,W,00244,+017.316,-001.226,-000.348,0,1*50
$PTNLRBA,1,1*57
$GPZDA,010801.00,24,12,2013,,*6B
$GPGGA,010801.00,4003.52183,N,08256.14448,W,2,08,1.06,00244,M,-033,M,,*5B
$GPGLL,4003.52183,N,08256.14448,W,010801.00,A,D*78
$GPVTG,093.6,T,100.3,M,033.59,N,062.21,K,D*23
$GPGSA,A,3,25,01,31,32,14,20,16,22,,,,,1.92,1.06,1.60*0D
$GPGSV,3,1,09,25,35,053,48,01,14,271,45,31,78,340,51,32,58,289,51*7D
$GPGSV,3,2,09,14,46,088,47,20,25,312,46,16,07,192,43,22,14,159,47*74
$GPGSV,3,3,09,46,42,203,46,,,,,,,,,,,,*47
$GPGST,010801.00,,011.49,011.16,073.8,003.39,003.34,003.52*4E
$GPRMC,010801.00,A,4003.52183,N,08256.14448,W,033.59,093.6,241213,06.7,W,D*30
$PTNLRTF,V,A,176897,08,3,4003.52183,N,08256.14448,W,00244,+017.247,-001.096,-000.206,0,1*5C
$PTNLRBA,1,1*57
$GPZDA,010802.00,24,12,2013,,*68
$GPGGA,010802.00,4003.52126,N,08256.13226,W,2,08,1.06,00244,M,-033,M,,*5E
$GPGLL,4003.52126,N,08256.13226,W,010802.00,A,D*7D
$GPVTG,093.5,T,100.1,M,033.91,N,062.80,K,D*2D
$GPGSA,A,3,25,01,31,32,14,20,16,22,,,,,1.92,1.06,1.60*0D
$GPGSV,3,1,09,25,35,053,46,01,14,271,45,31,78,340,51,32,58,289,50*72
$GPGSV,3,2,09,14,46,088,47,20,25,312,47,16,07,192,44,22,14,159,47*72
$GPGSV,3,3,09,46,42,203,46,,,,,,,,,,,,*47
$GPGST,010802.00,,011.16,010.83,073.3,003.34,003.30,003.47*4C
$GPRMC,010802.00,A,4003.52126,N,08256.13226,W,033.91,093.5,241213,06.7,W,D*32
$PTNLRTF,V,A,176898,08,3,4003.52126,N,08256.13226,W,00244,+017.412,-001.054,-000.273,0,1*5F
$PTNLRBA,1,1*57
$GPZDA,010804.00,24,12,2013,,*6E
$GPGGA,010804.00,4003.52029,N,08256.10740,W,2,07,1.16,00243,M,-033,M,,*59
$GPGLL,4003.52029,N,08256.10740,W,010804.00,A,D*73
$GPVTG,092.8,T,099.4,M,034.53,N,063.95,K,D*29
$GPGSA,A,3,25,01,31,32,14,20,22,,,,,,2.00,1.16,1.63*00
$GPGSV,3,1,09,25,35,053,48,01,14,271,42,31,78,340,51,32,58,289,51*7A
$GPGSV,3,2,09,14,46,088,48,20,25,312,46,16,07,192,38,22,14,159,48*78
$GPGSV,3,3,09,46,42,203,44,,,,,,,,,,,,*45
$GPGST,010804.00,,010.68,010.33,073.6,003.26,003.22,003.40*4B
$GPRMC,010804.00,A,4003.52029,N,08256.10740,W,034.53,092.8,241213,06.7,W,D*39
$PTNLRTF,V,A,176900,07,3,4003.52029,N,08256.10740,W,00243,+017.744,-000.859,-000.123,0,1*5D
$PTNLRBA,1,1*57
$GPZDA,010805.00,24,12,2013,,*6F
$GPGGA,010805.00,4003.51979,N,08256.09489,W,2,08,1.06,00243,M,-033,M,,*57
$GPGLL,4003.51979,N,08256.09489,W,010805.00,A,D*73
$GPVTG,092.9,T,099.5,M,034.73,N,064.31,K,D*22
$GPGSA,A,3,25,01,31,32,14,20,16,22,,,,,1.92,1.06,1.60*0D
$GPGSV,3,1,09,25,35,053,46,01,14,271,43,31,78,340,50,32,58,289,51*74
$GPGSV,3,2,09,14,46,088,47,20,25,312,47,16,07,192,45,22,14,159,47*73
$GPGSV,3,3,09,46,42,203,44,,,,,,,,,,,,*45
$GPGST,010805.00,,010.84,010.49,073.5,003.29,003.24,003.43*4C
$GPRMC,010805.00,A,4003.51979,N,08256.09489,W,034.73,092.9,241213,06.7,W,D*3A
$PTNLRTF,V,A,176901,08,3,4003.51979,N,08256.09489,W,00243,+017.843,-000.892,-000.174,0,1*5F
$PTNLRBA,1,1*57
$GPZDA,010807.00,24,12,2013,,*6D
$GPGGA,010807.00,4003.51877,N,08256.06946,W,2,08,1.06,00243,M,-033,M,,*5B
$GPGLL,4003.51877,N,08256.06946,W,010807.00,A,D*7F
$GPVTG,093.3,T,100.0,M,035.40,N,065.56,K,D*2C
$GPGSA,A,3,25,01,31,32,14,20,16,22,,,,,1.92,1.06,1.60*0D
$GPGSV,3,1,09,25,35,053,48,01,14,271,45,31,78,340,50,32,58,289,51*7C
$GPGSV,3,2,09,14,46,088,48,20,25,312,47,16,07,192,43,22,14,159,46*7B
$GPGSV,3,3,09,46,42,203,45,,,,,,,,,,,,*44
$GPGST,010807.00,,012.27,011.92,073.4,003.50,003.46,003.63*4B
$GPRMC,010807.00,A,4003.51877,N,08256.06946,W,035.40,093.3,241213,06.7,W,D*3C
$PTNLRTF,V,A,176903,08,3,4003.51877,N,08256.06946,W,00243,+018.180,-001.058,-000.117,0,1*50
$PTNLRBA,1,1*57
$GPZDA,010808.00,24,12,2013,,*62
$GPGGA,010808.00,4003.51818,N,08256.05681,W,2,08,1.06,00243,M,-033,M,,*5A
$GPGLL,4003.51818,N,08256.05681,W,010808.00,A,D*7E
$GPVTG,093.6,T,100.3,M,035.11,N,065.03,K,D*2E
$GPGSA,A,3,25,01,31,32,14,20,16,22,,,,,1.92,1.06,1.60*0D
$GPGSV,3,1,09,25,35,053,46,01,14,271,44,31,78,340,51,32,58,289,51*72
$GPGSV,3,2,09,14,46,088,47,20,25,312,46,16,07,192,44,22,14,159,45*71
$GPGSV,3,3,09,46,42,203,45,,,,,,,,,,,,*44
$GPGST,010808.00,,012.60,012.24,073.4,003.55,003.50,003.67*4F
$GPRMC,010808.00,A,4003.51818,N,08256.05681,W,035.11,093.6,241213,06.7,W,D*3C
$PTNLRTF,V,A,176904,08,3,4003.51818,N,08256.05681,W,00243,+018.028,-001.133,-000.235,0,1*55
$PTNLRBA,1,1*57
$GPZDA,010810.00,24,12,2013,,*6B
$GPGGA,010810.00,4003.51712,N,08256.03211,W,2,08,1.06,00242,M,-033,M,,*5C
$GPGLL,4003.51712,N,08256.03211,W,010810.00,A,D*79
$GPVTG,093.0,T,099.7,M,034.03,N,063.03,K,D*29
$GPGSA,A,3,25,01,31,32,14,20,16,22,,,,,1.92,1.06,1.60*0D
$GPGSV,3,1,09,25,35,053,47,01,14,271,44,31,78,340,52,32,58,289,50*71
$GPGSV,3,2,09,14,46,088,47,20,25,312,47,16,07,192,38,22,14,159,47*79
$GPGSV,3,3,09,46,42,203,44,,,,,,,,,,,,*45
$GPGST,010810.00,,012.42,012.07,073.5,003.52,003.48,003.65*4A
$GPRMC,010810.00,A,4003.51712,N,08256.03211,W,034.03,093.0,241213,06.7,W,D*3F
$PTNLRTF,V,A,176906,08,3,4003.51712,N,08256.03211,W,00242,+017.484,-000.912,-000.358,0,1*55
$PTNLRBA,1,1*57
$GPZDA,010811.00,24,12,2013,,*6A
$GPGGA,010811.00,4003.51659,N,08256.01957,W,2,08,1.06,00242,M,-033,M,,*58
$GPGLL,4003.51659,N,08256.01957,W,010811.00,A,D*7D
$GPVTG,093.2,T,099.9,M,034.78,N,064.41,K,D*28
$GPGSA,A,3,25,01,31,32,14,20,16,22,,,,,1.92,1.06,1.60*0D
$GPGSV,3,1,09,25,35,053,47,01,14,271,44,31,78,340,50,32,58,289,50*73
$GPGSV,3,2,09,14,46,088,47,20,25,312,47,16,07,192,38,22,14,159,47*79
$GPGSV,3,3,09,46,42,203,44,,,,,,,,,,,,*45
$GPGST,010811.00,,012.37,012.03,073.2,003.51,003.47,003.64*47
$GPRMC,010811.00,A,4003.51659,N,08256.01957,W,034.78,093.2,241213,06.7,W,D*35
$PTNLRTF,V,A,176907,08,3,4003.51659,N,08256.01957,W,00242,+017.863,-001.000,-000.194,0,1*5D
$PTNLRBA,1,1*57
$GPZDA,010813.00,24,12,2013,,*68
$GPGGA,010813.00,4003.51532,N,08255.99354,W,2,08,1.06,00242,M,-033,M,,*5F
$GPGLL,4003.51532,N,08255.99354,W,010813.00,A,D*7A
$GPVTG,093.7,T,100.4,M,036.50,N,067.61,K,D*28
$GPGSA,A,3,25,01,31,32,14,20,16,22,,,,,1.92,1.06,1.60*0D
$GPGSV,3,1,09,25,35,053,47,01,14,271,44,31,78,340,51,32,58,289,50*72
$GPGSV,3,2,09,14,46,088,48,20,25,312,47,16,07,192,43,22,14,159,43*7E
$GPGSV,3,3,09,46,42,203,44,,,,,,,,,,,,*45
$GPGST,010813.00,,012.82,012.52,073.7,003.58,003.54,003.70*44
$GPRMC,010813.00,A,4003.51532,N,08255.99354,W,036.50,093.7,241213,06.7,W,D*3F
$PTNLRTF,V,A,176909,08,3,4003.51532,N,08255.99354,W,00242,+018.740,-001.217,-000.092,0,1*54
$PTNLRBA,1,1*57
$GPZDA,010814.00,24,12,2013,,*6F
$GPGGA,010814.00,4003.51462,N,08255.98007,W,2,08,1.06,00242,M,-033,M,,*58
$GPGLL,4003.51462,N,08255.98007,W,010814.00,A,D*7D
$GPVTG,093.8,T,100.5,M,037.38,N,069.22,K,D*20
$GPGSA,A,3,25,01,31,32,14,20,16,22,,,,,1.92,1.06,1.60*0D
$GPGSV,3,1,09,25,35,053,48,01,14,271,44,31,78,340,51,32,58,289,50*7D
$GPGSV,3,2,09,14,46,088,47,20,25,312,47,16,07,192,41,22,14,159,46*76
$GPGSV,3,3,09,46,42,203,44,,,,,,,,,,,,*45
$GPGST,010814.00,,012.67,012.38,073.5,003.56,003.52,003.68*47
$GPRMC,010814.00,A,4003.51462,N,08255.98007,W,037.38,093.8,241213,06.7,W,D*38
$PTNLRTF,V,A,176910,08,3,4003.51462,N,08255.98007,W,00242,+019.185,-001.279,-000.151,0,1*54
$PTNLRBA,1,1*57
$GPZDA,010816.00,24,12,2013,,*6D
$GPGGA,010816.00,4003.51322,N,08255.95306,W,2,07,1.16,00241,M,-033,M,,*5B
$GPGLL,4003.51322,N,08255.95306,W,010816.00,A,D*73
$GPVTG,094.0,T,100.6,M,037.19,N,068.87,K,D*21
$GPGSA,A,3,25,01,31,32,14,20,22,,,,,,2.00,1.16,1.63*00
$GPGSV,3,1,09,25,35,053,46,01,14,271,43,31,78,340,51,32,58,289,50*74
$GPGSV,3,2,09,14,46,088,47,20,25,312,46,16,07,192,39,22,14,159,46*78
$GPGSV,3,3,09,46,42,203,44,,,,,,,,,,,,*45
$GPGST,010816.00,,012.45,012.16,072.9,003.53,003.49,003.65*46
$GPRMC,010816.00,A,4003.51322,N,08255.95306,W,037.19,094.0,241213,06.7,W,D*3A
$PTNLRTF,V,A,176912,07,3,4003.51322,N,08255.95306,W,00241,+019.086,-001.321,-000.182,0,1*56
$PTNLRBA,1,1*57
$GPZDA,010817.00,24,12,2013,,*6C
$GPGGA,010817.00,4003.51260,N,08255.93994,W,2,08,1.06,00241,M,-033,M,,*54
$GPGLL,4003.51260,N,08255.93994,W,010817.00,A,D*72
$GPVTG,093.5,T,100.2,M,036.44,N,067.49,K,D*23
$GPGSA,A,3,25,01,31,32,14,20,16,22,,,,,1.92,1.06,1.60*0D
$GPGSV,3,1,09,25,35,053,48,01,14,271,44,31,78,340,51,32,58,289,51*7C
$GPGSV,3,2,09,14,46,088,47,20,25,312,47,16,07,192,36,22,14,159,46*76
$GPGSV,3,3,09,46,42,203,44,,,,,,,,,,,,*45
$GPGST,010817.00,,012.88,012.60,073.7,003.59,003.55,003.71*4A
$GPRMC,010817.00,A,4003.51260,N,08255.93994,W,036.44,093.5,241213,06.7,W,D*30
$PTNLRTF,V,A,176913,08,3,4003.51260,N,08255.93994,W,00241,+018.713,-001.148,-000.127,0,1*50
$PTNLRBA,1,1*57
$GPZDA,010819.00,24,12,2013,,*62
$GPGGA,010819.00,4003.51141,N,08255.91388,W,2,08,1.06,00241,M,-033,M,,*5F
$GPGLL,4003.51141,N,08255.91388,W,010819.00,A,D*79
$GPVTG,093.5,T,100.2,M,036.11,N,066.87,K,D*20
$GPGSA,A,3,25,01,31,32,14,20,16,22,,,,,1.92,1.06,1.60*0D
$GPGSV,3,1,09,25,35,053,48,01,14,271,44,31,78,340,52,32,58,289,50*7E
$GPGSV,3,2,09,14,46,088,46,20,25,312,46,16,07,192,39,22,14,159,47*78
$GPGSV,3,3,09,46,42,203,45,,,,,,,,,,,,*44
$GPGST,010819.00,,013.59,013.28,074.0,003.68,003.65,003.81*4A
$GPRMC,010819.00,A,4003.51141,N,08255.91388,W,036.11,093.5,241213,06.7,W,D*3B
$PTNLRTF,V,A,176915,08,3,4003.51141,N,08255.91388,W,00241,+018.541,-001.138,-000.292,0,1*5C
$PTNLRBA,1,1*57
$GPZDA,010821.00,24,12,2013,,*69
$GPGGA,010821.00,4003.51013,N,08255.88784,W,2,08,1.06,00240,M,-033,M,,*53
$GPGLL,4003.51013,N,08255.88784,W,010821.00,A,D*74
$GPVTG,093.9,T,100.6,M,036.16,N,066.97,K,D*2E
$GPGSA,A,3,25,01,31,32,14,20,16,22,,,,,1.92,1.06,1.60*0D
$GPGSV,3,1,09,25,35,053,48,01,14,271,44,31,78,340,51,32,58,289,50*7D
$GPGSV,3,2,09,14,46,088,47,20,25,312,47,16,07,192,40,22,14,159,46*77
$GPGSV,3,3,09,46,42,203,45,,,,,,,,,,,,*44
$GPGST,010821.00,,013.28,012.96,074.2,003.64,003.60,003.76*40
$GPRMC,010821.00,A,4003.51013,N,08255.88784,W,036.16,093.9,241213,06.7,W,D*3D
$PTNLRTF,V,A,176917,08,3,4003.51013,N,08255.88784,W,00240,+018.560,-001.263,-000.327,0,1*58
$PTNLRBA,1,1*57
$GPZDA,010822.00,24,12,2013,,*6A
$GPGGA,010822.00,4003.50953,N,08255.87489,W,2,08,1.06,00240,M,-033,M,,*5D
$GPGLL,4003.50953,N,08255.87489,W,010822.00,A,D*7A
$GPVTG,093.6,T,100.2,M,035.94,N,066.56,K,D*21
$GPGSA,A,3,25,01,31,32,14,20,16,22,,,,,1.92,1.06,1.60*0D
$GPGSV,3,1,09,25,35,053,47,01,14,271,45,31,78,340,51,32,58,289,49*7B
$GPGSV,3,2,09,14,46,088,47,20,25,312,46,16,07,192,33,22,14,159,45*71
$GPGSV,3,3,09,46,42,203,44,,,,,,,,,,,,*45
$GPGST,010822.00,,014.73,014.41,074.9,003.84,003.80,003.95*40
$GPRMC,010822.00,A,4003.50953,N,08255.87489,W,035.94,093.6,241213,06.7,W,D*35
$PTNLRTF,V,A,176918,08,3,4003.50953,N,08255.87489,W,00240,+018.453,-001.147,-000.265,0,1*59
$PTNLRBA,1,1*57
$GPZDA,010824.00,24,12,2013,,*6C
$GPGGA,010824.00,4003.50843,N,08255.84905,W,2,08,1.06,00239,M,-033,M,,*5F
$GPGLL,4003.50843,N,08255.84905,W,010824.00,A,D*76
$GPVTG,093.3,T,100.0,M,035.75,N,066.20,K,D*28
$GPGSA,A,3,25,01,31,32,14,20,16,22,,,,,1.92,1.06,1.60*0D
$GPGSV,3,1,09,25,35,053,49,01,14,271,43,31,78,340,51,32,58,289,51*7A
$GPGSV,3,2,09,14,46,088,47,20,25,312,47,16,07,192,38,22,14,159,42*7C
$GPGSV,3,3,09,46,42,203,43,,,,,,,,,,,,*42
$GPGST,010824.00,,013.91,013.56,076.3,003.73,003.68,003.85*4B
$GPRMC,010824.00,A,4003.50843,N,08255.84905,W,035.75,093.3,241213,06.7,W,D*33
$PTNLRTF,V,A,176920,08,3,4003.50843,N,08255.84905,W,00239,+018.359,-001.069,-000.453,0,1*55
$PTNLRBA,1,1*57
$GPZDA,010825.00,24,12,2013,,*6D
$GPGGA,010825.00,4003.50787,N,08255.83602,W,2,08,1.06,00239,M,-033,M,,*56
$GPGLL,4003.50787,N,08255.83602,W,010825.00,A,D*7F
$GPVTG,093.2,T,099.9,M,036.12,N,066.90,K,D*28
$GPGSA,A,3,25,01,31,32,14,20,16,22,,,,,1.92,1.06,1.60*0D
$GPGSV,3,1,09,25,35,053,47,01,14,271,44,31,78,340,51,32,58,289,51*73
$GPGSV,3,2,09,14,46,088,46,20,25,312,46,16,07,192,42,22,14,159,47*74
$GPGSV,3,3,09,46,42,203,44,,,,,,,,,,,,*45
$GPGST,010825.00,,013.66,013.30,076.1,003.69,003.65,003.81*42
$GPRMC,010825.00,A,4003.50787,N,08255.83602,W,036.12,093.2,241213,06.7,W,D*39
$PTNLRTF,V,A,176921,08,3,4003.50787,N,08255.83602,W,00239,+018.554,-001.046,-000.548,0,1*51
$PTNLRBA,1,1*57
$GPZDA,010827.00,24,12,2013,,*6F
$GPGGA,010827.00,4003.50665,N,08255.80898,W,2,08,1.06,00237,M,-033,M,,*59
$GPGLL,4003.50665,N,08255.80898,W,010827.00,A,D*7E
$GPVTG,093.3,T,100.0,M,037.94,N,070.26,K,D*24
$GPGSA,A,3,25,01,31,32,14,20,16,22,,,,,1.92,1.06,1.60*0D
$GPGSV,3,1,09,25,35,053,47,01,14,271,42,31,78,340,52,32,58,289,50*77
$GPGSV,3,2,09,14,46,088,47,20,25,312,46,16,07,192,38,22,14,159,47*78
$GPGSV,3,3,09,46,42,203,46,,,,,,,,,,,,*47
$GPGST,010827.00,,013.36,013.03,074.5,003.65,003.61,003.77*42
$GPRMC,010827.00,A,4003.50665,N,08255.80898,W,037.94,093.3,241213,06.7,W,D*36
$PTNLRTF,V,A,176923,08,3,4003.50665,N,08255.80898,W,00237,+019.486,-001.115,-000.668,0,1*57
$PTNLRBA,1,1*57
$GPZDA,010828.00,24,12,2013,,*60
$GPGGA,010828.00,4003.50591,N,08255.79511,W,2,08,1.06,00237,M,-033,M,,*54
$GPGLL,4003.50591,N,08255.79511,W,010828.00,A,D*73
$GPVTG,093.8,T,100.5,M,038.48,N,071.26,K,D*25
$GPGSA,A,3,25,01,31,32,14,20,16,22,,,,,1.92,1.06,1.60*0D
$GPGSV,3,1,09,25,35,053,46,01,14,271,40,31,78,340,52,32,58,289,51*75
$GPGSV,3,2,09,14,46,088,47,20,25,312,47,16,07,192,42,22,14,159,47*74
$GPGSV,3,3,09,46,42,203,45,,,,,,,,,,,,*44
$GPGST,010828.00,,014.06,013.72,075.5,003.75,003.71,003.86*40
$GPRMC,010828.00,A,4003.50591,N,08255.79511,W,038.48,093.8,241213,06.7,W,D*3E
$PTNLRTF,V,A,176924,08,3,4003.50591,N,08255.79511,W,00237,+019.750,-001.322,-000.684,0,1*5E
$PTNLRBA,1,1*57
$GPZDA,010830.00,24,12,2013,,*69
$GPGGA,010830.00,4003.50457,N,08255.76756,W,2,08,1.06,00236,M,-033,M,,*59
$GPGLL,4003.50457,N,08255.76756,W,010830.00,A,D*7F
$GPVTG,093.8,T,100.5,M,038.14,N,070.63,K,D*2C
$GPGSA,A,3,25,01,31,32,14,20,16,22,,,,,1.92,1.06,1.60*0D
$GPGSV,3,1,09,25,35,053,47,01,14,271,44,31,78,340,52,32,58,289,52*73
$GPGSV,3,2,09,14,46,088,46,20,25,312,46,16,07,192,42,22,14,159,46*75
$GPGSV,3,3,09,46,42,203,44,,,,,,,,,,,,*45
$GPGST,010830.00,,013.62,013.27,075.3,003.69,003.65,003.81*45
$GPRMC,010830.00,A,4003.50457,N,08255.76756,W,038.14,093.8,241213,06.7,W,D*3B
$PTNLRTF,V,A,176926,08,3,4003.50457,N,08255.76756,W,00236,+019.577,-001.298,-000.629,0,1*58
$PTNLRBA,1,1*57
$GPZDA,010831.00,24,12,2013,,*68
$GPGGA,010831.00,4003.50390,N,08255.75394,W,2,07,1.16,00235,M,-033,M,,*50
$GPGLL,4003.50390,N,08255.75394,W,010831.00,A,D*7B
$GPVTG,093.8,T,100.5,M,037.78,N,069.96,K,D*2B
$GPGSA,A,3,25,01,31,32,14,20,22,,,,,,2.00,1.16,1.63*00
$GPGSV,3,1,09,25,35,053,46,01,14,271,43,31,78,340,51,32,58,289,51*75
$GPGSV,3,2,09,14,46,088,47,20,25,312,46,16,07,192,39,22,14,159,44*7A
$GPGSV,3,3,09,46,42,203,43,,,,,,,,,,,,*42
$GPGST,010831.00,,013.42,013.07,075.6,003.66,003.62,003.78*4F
$GPRMC,010831.00,A,4003.50390,N,08255.75394,W,037.78,093.8,241213,06.7,W,D*3A
$PTNLRTF,V,A,176927,07,3,4003.50390,N,08255.75394,W,00235,+019.392,-001.284,-000.537,0,1*5C
$PTNLRBA,1,1*57
$GPZDA,010833.00,24,12,2013,,*6A
$GPGGA,010833.00,4003.50266,N,08255.72693,W,2,08,1.06,00234,M,-033,M,,*50
$GPGLL,4003.50266,N,08255.72693,W,010833.00,A,D*74
$GPVTG,093.4,T,100.1,M,037.51,N,069.47,K,D*24
$GPGSA,A,3,25,01,31,32,14,20,16,22,,,,,1.92,1.06,1.60*0D
$GPGSV,3,1,09,25,34,053,48,01,14,270,44,31,78,342,51,32,58,288,50*7E
$GPGSV,3,2,09,14,45,089,48,20,25,312,47,16,07,192,36,22,14,159,47*7A
$GPGSV,3,3,09,46,42,203,43,,,,,,,,,,,,*42
$GPGST,010833.00,,016.82,016.45,076.0,004.10,004.06,004.20*4B
$GPRMC,010833.00,A,4003.50266,N,08255.72693,W,037.51,093.4,241213,06.7,W,D*32
$PTNLRTF,V,A,176929,08,3,4003.50266,N,08255.72693,W,00234,+019.262,-001.148,-000.289,0,1*5E
$PTNLRBA,1,1*57
$GPZDA,010834.00,24,12,2013,,*6D
$GPGGA,010834.00,4003.50201,N,08255.71341,W,2,08,1.06,00234,M,-033,M,,*5F
$GPGLL,4003.50201,N,08255.71341,W,010834.00,A,D*7B
$GPVTG,093.6,T,100.3,M,037.51,N,069.46,K,D*25
$GPGSA,A,3,25,01,31,32,14,20,16,22,,,,,1.92,1.06,1.60*0D
$GPGSV,3,1,09,25,34,053,48,01,14,270,43,31,78,342,51,32,58,288,51*78
$GPGSV,3,2,09,14,45,089,47,20,25,312,47,16,07,192,34,22,14,159,44*74
$GPGSV,3,3,09,46,42,203,44,,,,,,,,,,,,*45
$GPGST,010834.00,,016.48,016.11,076.0,004.06,004.02,004.16*4D
$GPRMC,010834.00,A,4003.50201,N,08255.71341,W,037.51,093.6,241213,06.7,W,D*3F
$PTNLRTF,V,A,176930,08,3,4003.50201,N,08255.71341,W,00234,+019.257,-001.211,-000.195,0,1*59
$PTNLRBA,1,1*57
$GPZDA,010836.00,24,12,2013,,*6F
$GPGGA,010836.00,4003.50086,N,08255.68670,W,2,08,1.06,00234,M,-033,M,,*5F
$GPGLL,4003.50086,N,08255.68670,W,010836.00,A,D*7B
$GPVTG,092.7,T,099.4,M,036.63,N,067.84,K,D*23
$GPGSA,A,3,25,01,31,32,14,20,16,22,,,,,1.92,1.06,1.60*0D
$GPGSV,3,1,09,25,34,053,48,01,14,270,43,31,78,342,50,32,58,288,51*79
$GPGSV,3,2,09,14,45,089,47,20,25,312,48,16,07,192,35,22,14,159,47*79
$GPGSV,3,3,09,46,42,203,45,,,,,,,,,,,,*44
$GPGST,010836.00,,016.19,015.83,077.0,004.02,003.98,004.13*47
$GPRMC,010836.00,A,4003.50086,N,08255.68670,W,036.63,092.7,241213,06.7,W,D*3F
$PTNLRTF,V,A,176932,08,3,4003.50086,N,08255.68670,W,00234,+018.824,-000.897,-000.108,0,1*57
$PTNLRBA,1,1*57
$GPZDA,010837.00,24,12,2013,,*6E
$GPGGA,010837.00,4003.50034,N,08255.67379,W,2,07,1.16,00234,M,-033,M,,*5A
$GPGLL,4003.50034,N,08255.67379,W,010837.00,A,D*70
$GPVTG,093.0,T,099.7,M,035.80,N,066.31,K,D*27
$GPGSA,A,3,25,01,31,32,14,20,22,,,,,,2.00,1.16,1.62*01
$GPGSV,3,1,09,25,34,053,48,01,14,270,43,31,78,342,50,32,58,288,51*79
$GPGSV,3,2,09,14,45,089,46,20,25,312,48,16,07,192,41,22,14,159,47*7B
$GPGSV,3,3,09,46,42,203,44,,,,,,,,,,,,*45
$GPGST,010837.00,,015.91,015.56,075.7,003.99,003.95,004.10*43
$GPRMC,010837.00,A,4003.50034,N,08255.67379,W,035.80,093.0,241213,06.7,W,D*3C
$PTNLRTF,V,A,176933,07,3,4003.50034,N,08255.67379,W,00234,+018.394,-000.958,+000.151,0,1*5B
$PTNLRBA,1,1*57
$GPZDA,010839.00,24,12,2013,,*60
$GPGGA,010839.00,4003.49937,N,08255.64887,W,2,07,1.16,00234,M,-033,M,,*5F
$GPGLL,4003.49937,N,08255.64887,W,010839.00,A,D*75
$GPVTG,092.9,T,099.6,M,034.10,N,063.15,K,D*25
$GPGSA,A,3,25,01,31,32,14,20,22,,,,,,2.00,1.16,1.62*01
$GPGSV,3,1,09,25,34,053,48,01,14,270,44,31,78,342,51,32,58,288,50*7E
$GPGSV,3,2,09,14,45,089,47,20,25,312,48,16,07,192,42,22,14,159,46*78
$GPGSV,3,3,09,46,42,203,45,,,,,,,,,,,,*44
$GPGST,010839.00,,014.94,014.62,075.2,003.86,003.83,003.97*4B
$GPRMC,010839.00,A,4003.49937,N,08255.64887,W,034.10,092.9,241213,06.7,W,D*39
$PTNLRTF,V,A,176935,07,3,4003.49937,N,08255.64887,W,00234,+017.519,-000.886,+000.075,0,1*5F
$PTNLRBA,1,1*57
$GPZDA,010840.00,24,12,2013,,*6E
$GPGGA,010840.00,4003.49879,N,08255.63692,W,2,07,1.16,00234,M,-033,M,,*57
$GPGLL,4003.49879,N,08255.63692,W,010840.00,A,D*7D
$GPVTG,093.6,T,100.3,M,033.15,N,061.39,K,D*21
$GPGSA,A,3,25,01,31,32,14,20,22,,,,,,2.00,1.16,1.62*01
$GPGSV,3,1,09,25,34,053,47,01,14,270,43,31,78,342,51,32,58,288,51*77
$GPGSV,3,2,09,14,45,089,47,20,25,312,48,16,07,192,44,22,14,159,46*7E
$GPGSV,3,3,09,46,42,203,43,,,,,,,,,,,,*42
$GPGST,010840.00,,014.24,013.92,072.6,003.77,003.73,003.88*4A
$GPRMC,010840.00,A,4003.49879,N,08255.63692,W,033.15,093.6,241213,06.7,W,D*3D
$PTNLRTF,V,A,176936,07,3,4003.49879,N,08255.63692,W,00234,+017.020,-001.069,-000.030,0,1*5A
$PTNLRBA,1,1*57
$GPZDA,010842.00,24,12,2013,,*6C
$GPGGA,010842.00,4003.49761,N,08255.61374,W,2,08,1.06,00234,M,-033,M,,*52
$GPGLL,4003.49761,N,08255.61374,W,010842.00,A,D*76
$GPVTG,093.6,T,100.3,M,031.86,N,059.00,K,D*28
$GPGSA,A,3,25,01,31,32,14,20,16,22,,,,,1.92,1.06,1.60*0D
$GPGSV,3,1,09,25,34,053,48,01,14,270,42,31,78,342,51,32,58,288,50*78
$GPGSV,3,2,09,14,45,089,46,20,25,312,48,16,07,192,41,22,14,159,46*7A
$GPGSV,3,3,09,46,42,203,45,,,,,,,,,,,,*44
$GPGST,010842.00,,013.77,013.46,071.6,003.71,003.67,003.82*4A
$GPRMC,010842.00,A,4003.49761,N,08255.61374,W,031.86,093.6,241213,06.7,W,D*3E
$PTNLRTF,V,A,176938,08,3,4003.49761,N,08255.61374,W,00234,+016.355,-001.039,-000.143,0,1*52
$PTNLRBA,1,1*57
$GPZDA,010843.00,24,12,2013,,*6D
$GPGGA,010843.00,4003.49693,N,08255.60241,W,2,08,1.06,00234,M,-033,M,,*59
$GPGLL,4003.49693,N,08255.60241,W,010843.00,A,D*7D
$GPVTG,094.5,T,101.1,M,031.46,N,058.26,K,D*26
$GPGSA,A,3,25,01,31,32,14,20,16,22,,,,,1.92,1.06,1.60*0D
$GPGSV,3,1,09,25,34,053,48,01,14,270,43,31,78,342,51,32,58,288,51*78
$GPGSV,3,2,09,14,45,089,47,20,25,312,47,16,07,192,42,22,14,159,47*76
$GPGSV,3,3,09,46,42,203,44,,,,,,,,,,,,*45
$GPGST,010843.00,,013.47,013.15,071.0,003.67,003.63,003.78*4E
$GPRMC,010843.00,A,4003.49693,N,08255.60241,W,031.46,094.5,241213,06.7,W,D*3D
$PTNLRTF,V,A,176939,08,3,4003.49693,N,08255.60241,W,00234,+016.133,-001.256,-000.135,0,1*51
$PTNLRBA,1,1*57
$GPZDA,010845.00,24,12,2013,,*6B
$GPGGA,010845.00,4003.49533,N,08255.57990,W,2,08,1.06,00234,M,-033,M,,*55
$GPGLL,4003.49533,N,08255.57990,W,010845.00,A,D*71
$GPVTG,095.4,T,102.1,M,031.24,N,057.85,K,D*27
$GPGSA,A,3,25,01,31,32,14,20,16,22,,,,,1.92,1.06,1.60*0D
$GPGSV,3,1,09,25,34,053,47,01,14,270,43,31,78,342,51,32,58,288,52*74
$GPGSV,3,2,09,14,45,089,48,20,25,312,45,16,07,192,43,22,14,159,47*7A
$GPGSV,3,3,09,46,42,203,45,,,,,,,,,,,,*44
$GPGST,010845.00,,012.70,012.36,071.5,003.56,003.52,003.68*49
$GPRMC,010845.00,A,4003.49533,N,08255.57990,W,031.24,095.4,241213,06.7,W,D*35
$PTNLRTF,V,A,176941,08,3,4003.49533,N,08255.57990,W,00234,+015.997,-001.523,-000.057,0,1*51
$PTNLRBA,1,1*57
$GPZDA,010846.00,24,12,2013,,*68
$GPGGA,010846.00,4003.49440,N,08255.56890,W,2,08,1.06,00234,M,-033,M,,*53
$GPGLL,4003.49440,N,08255.56890,W,010846.00,A,D*77
$GPVTG,096.3,T,103.0,M,030.59,N,056.65,K,D*27
$GPGSA,A,3,25,01,31,32,14,20,16,22,,,,,1.92,1.06,1.60*0D
$GPGSV,3,1,09,25,34,053,47,01,14,270,43,31,78,342,51,32,58,288,49*7E
$GPGSV,3,2,09,14,45,089,47,20,25,312,46,16,07,192,44,22,14,159,48*7E
$GPGSV,3,3,09,46,42,203,45,,,,,,,,,,,,*44
$GPGST,010846.00,,012.53,012.19,070.1,003.53,003.50,003.66*4A
$GPRMC,010846.00,A,4003.49440,N,08255.56890,W,030.59,096.3,241213,06.7,W,D*3C
$PTNLRTF,V,A,176943,08,3,4003.49440,N,08255.56890,W,00234,+015.643,-001.722,+000.085,0,1*5A
$PTNLRBA,1,1*57
$GPZDA,010848.00,24,12,2013,,*66
$GPGGA,010848.00,4003.49307,N,08255.54727,W,2,08,1.06,00234,M,-033,M,,*58
$GPGLL,4003.49307,N,08255.54727,W,010848.00,A,D*7C
$GPVTG,093.9,T,100.6,M,029.68,N,054.97,K,D*28
$GPGSA,A,3,25,01,31,32,14,20,16,22,,,,,1.92,1.06,1.60*0D
$GPGSV,3,1,09,25,34,053,46,01,14,270,42,31,78,342,51,32,58,288,50*76
$GPGSV,3,2,09,14,45,089,47,20,25,312,47,16,07,192,41,22,14,159,47*75
$GPGSV,3,3,09,46,42,203,45,,,,,,,,,,,,*44
$GPGST,010848.00,,012.10,011.77,073.0,003.47,003.43,003.60*4B
$GPRMC,010848.00,A,4003.49307,N,08255.54727,W,029.68,093.9,241213,06.7,W,D*32
$PTNLRTF,V,A,176944,08,3,4003.49307,N,08255.54727,W,00234,+015.234,-001.046,+000.033,0,1*54
$PTNLRBA,1,1*57
$GPZDA,010850.00,24,12,2013,,*6F
$GPGGA,010850.00,4003.49204,N,08255.52528,W,2,08,1.06,00234,M,-033,M,,*58
$GPGLL,4003.49204,N,08255.52528,W,010850.00,A,D*7C
$GPVTG,093.4,T,100.1,M,030.78,N,057.01,K,D*27
$GPGSA,A,3,25,01,31,32,14,20,16,22,,,,,1.92,1.06,1.60*0D
$GPGSV,3,1,09,25,34,053,48,01,14,270,44,31,78,342,51,32,58,288,51*7F
$GPGSV,3,2,09,14,45,089,47,20,25,312,45,16,07,192,37,22,14,159,44*75
$GPGSV,3,3,09,46,42,203,45,,,,,,,,,,,,*44
$GPGST,010850.00,,011.24,010.92,071.8,003.35,003.31,003.48*4C
$GPRMC,010850.00,A,4003.49204,N,08255.52528,W,030.78,093.4,241213,06.7,W,D*36
$PTNLRTF,V,A,176946,08,3,4003.49204,N,08255.52528,W,00234,+015.806,-000.953,+000.060,0,1*5E
$PTNLRBA,1,1*57
$GPZDA,010851.00,24,12,2013,,*6E
$GPGGA,010851.00,4003.49155,N,08255.51394,W,2,08,1.06,00234,M,-033,M,,*5C
$GPGLL,4003.49155,N,08255.51394,W,010851.00,A,D*78
$GPVTG,093.3,T,099.9,M,031.37,N,058.11,K,D*2D
$GPGSA,A,3,25,01,31,32,14,20,16,22,,,,,1.92,1.06,1.60*0D
$GPGSV,3,1,09,25,34,053,48,01,14,270,42,31,78,342,49,32,58,288,51*70
$GPGSV,3,2,09,14,45,089,47,20,25,312,47,16,07,192,33,22,14,159,46*71
$GPGSV,3,3,09,46,42,203,45,,,,,,,,,,,,*44
$GPGST,010851.00,,011.02,010.69,071.2,003.31,003.27,003.44*48
$GPRMC,010851.00,A,4003.49155,N,08255.51394,W,031.37,093.3,241213,06.7,W,D*3F
$PTNLRTF,V,A,176947,08,3,4003.49155,N,08255.51394,W,00234,+016.114,-000.920,+000.105,0,1*55
$PTNLRBA,1,1*57
$GPZDA,010853.00,24,12,2013,,*6C
$GPGGA,010853.00,4003.49054,N,08255.49069,W,2,08,1.06,00234,M,-033,M,,*56
$GPGLL,4003.49054,N,08255.49069,W,010853.00,A,D*72
$GPVTG,093.2,T,099.9,M,032.41,N,060.03,K,D*26
$GPGSA,A,3,25,01,31,32,14,20,16,22,,,,,1.92,1.06,1.60*0D
$GPGSV,3,1,09,25,34,053,48,01,14,270,44,31,78,342,51,32,58,288,49*76
$GPGSV,3,2,09,14,45,089,47,20,25,312,48,16,07,192,33,22,14,159,43*7B
$GPGSV,3,3,09,46,42,203,45,,,,,,,,,,,,*44
$GPGST,010853.00,,010.43,010.10,071.6,003.22,003.18,003.36*4F
$GPRMC,010853.00,A,4003.49054,N,08255.49069,W,032.41,093.2,241213,06.7,W,D*36
$PTNLRTF,V,A,176949,08,3,4003.49054,N,08255.49069,W,00234,+016.650,-000.922,-000.128,0,1*5F
$PTNLRBA,1,1*57
$GPZDA,010854.00,24,12,2013,,*6B
$GPGGA,010854.00,4003.49003,N,08255.47877,W,2,08,1.06,00234,M,-033,M,,*5A
$GPGLL,4003.49003,N,08255.47877,W,010854.00,A,D*7E
$GPVTG,093.3,T,099.9,M,033.02,N,061.15,K,D*27
$GPGSA,A,3,25,01,31,32,14,20,16,22,,,,,1.92,1.06,1.60*0D
$GPGSV,3,1,09,25,34,053,48,01,14,270,43,31,78,342,52,32,58,288,51*7B
$GPGSV,3,2,09,14,45,089,48,20,25,312,48,16,07,192,32,22,14,159,43*75
$GPGSV,3,3,09,46,42,203,44,,,,,,,,,,,,*45
$GPGST,010854.00,,010.70,010.36,072.1,003.27,003.22,003.40*45
$GPRMC,010854.00,A,4003.49003,N,08255.47877,W,033.02,093.3,241213,06.7,W,D*3D
$PTNLRTF,V,A,176950,08,3,4003.49003,N,08255.47877,W,00234,+016.959,-000.966,+000.123,0,1*57
$PTNLRBA,1,1*57
$GPZDA,010856.00,24,12,2013,,*69
$GPGGA,010856.00,4003.48898,N,08255.45491,W,2,08,1.06,00235,M,-033,M,,*54
$GPGLL,4003.48898,N,08255.45491,W,010856.00,A,D*71
$GPVTG,093.2,T,099.9,M,032.71,N,060.57,K,D*24
$GPGSA,A,3,25,01,31,32,14,20,16,22,,,,,1.92,1.06,1.60*0D
$GPGSV,3,1,09,25,34,053,48,01,14,270,45,31,78,342,51,32,58,288,51*7E
$GPGSV,3,2,09,14,45,089,47,20,25,312,48,16,07,192,35,22,14,159,44*7A
$GPGSV,3,3,09,46,42,203,44,,,,,,,,,,,,*45
$GPGST,010856.00,,011.29,010.95,073.6,003.36,003.31,003.48*4F
$GPRMC,010856.00,A,4003.48898,N,08255.45491,W,032.71,093.2,241213,06.7,W,D*36
$PTNLRTF,V,A,176952,08,3,4003.48898,N,08255.45491,W,00235,+016.800,-000.945,+000.154,0,1*55
$PTNLRBA,1,1*57
$GPZDA,010857.00,24,12,2013,,*68
$GPGGA,010857.00,4003.48838,N,08255.44342,W,2,08,1.06,00235,M,-033,M,,*57
$GPGLL,4003.48838,N,08255.44342,W,010857.00,A,D*72
$GPVTG,094.1,T,100.8,M,031.83,N,058.95,K,D*2B
$GPGSA,A,3,25,01,31,32,14,20,16,22,,,,,1.92,1.06,1.60*0D
$GPGSV,3,1,09,25,34,053,47,01,14,270,45,31,78,342,51,32,58,288,51*71
$GPGSV,3,2,09,14,45,089,48,20,25,312,48,16,07,192,32,22,14,159,47*71
$GPGSV,3,3,09,46,42,203,44,,,,,,,,,,,,*45
$GPGST,010857.00,,014.59,014.26,072.0,003.82,003.78,003.93*43
$GPRMC,010857.00,A,4003.48838,N,08255.44342,W,031.83,094.1,241213,06.7,W,D*3F
$PTNLRTF,V,A,176953,08,3,4003.48838,N,08255.44342,W,00235,+016.333,-001.178,+000.261,0,1*5F
$PTNLRBA,1,1*57
$GPZDA,010859.00,24,12,2013,,*66
$GPGGA,010859.00,4003.48703,N,08255.42147,W,2,08,1.06,00235,M,-033,M,,*5F
$GPGLL,4003.48703,N,08255.42147,W,010859.00,A,D*7A
$GPVTG,095.2,T,101.9,M,030.01,N,055.58,K,D*2E
$GPGSA,A,3,25,01,31,32,14,20,16,22,,,,,1.92,1.06,1.60*0D
$GPGSV,3,1,09,25,34,053,48,01,14,270,44,31,78,342,50,32,58,288,50*7F
$GPGSV,3,2,09,14,45,089,47,20,25,312,47,16,07,192,38,22,14,159,46*7A
$GPGSV,3,3,09,46,42,203,45,,,,,,,,,,,,*44
$GPGST,010859.00,,013.45,013.11,070.4,003.66,003.63,003.78*47
$GPRMC,010859.00,A,4003.48703,N,08255.42147,W,030.01,095.2,241213,06.7,W,D*3E
$PTNLRTF,V,A,176955,08,3,4003.48703,N,08255.42147,W,00235,+015.375,-001.393,+000.165,0,1*5E
$PTNLRBA,1,1*57
$GPZDA,010900.00,24,12,2013,,*6B
$GPGGA,010900.00,4003.48617,N,08255.41090,W,2,08,1.06,00236,M,-033,M,,*5D
$GPGLL,4003.48617,N,08255.41090,W,010900.00,A,D*7B
$GPVTG,095.8,T,102.5,M,029.35,N,054.36,K,D*2D
$GPGSA,A,3,25,01,31,32,14,20,16,22,,,,,1.92,1.06,1.60*0D
$GPGSV,3,1,09,25,34,053,47,01,14,270,43,31,78,342,51,32,58,288,50*76
$GPGSV,3,2,09,14,45,089,47,20,25,312,47,16,07,192,41,22,14,159,46*74
$GPGSV,3,3,09,46,42,203,46,,,,,,,,,,,,*47
$GPGST,010900.00,,013.37,013.04,069.5,003.65,003.62,003.77*4F
$GPRMC,010900.00,A,4003.48617,N,08255.41090,W,029.35,095.8,241213,06.7,W,D*3A
$PTNLRTF,V,A,176956,08,3,4003.48617,N,08255.41090,W,00236,+015.022,-001.525,+000.221,0,1*5B
$PTNLRBA,1,1*57
$GPZDA,010902.00,24,12,2013,,*69
$GPGGA,010902.00,4003.48496,N,08255.38978,W,2,08,1.06,00236,M,-033,M,,*55
$GPGLL,4003.48496,N,08255.38978,W,010902.00,A,D*73
$GPVTG,093.5,T,100.1,M,029.24,N,054.15,K,D*21
$GPGSA,A,3,25,01,31,32,14,20,16,22,,,,,1.92,1.06,1.60*0D
$GPGSV,3,1,09,25,34,053,48,01,14,270,45,31,78,342,51,32,58,288,49*77
$GPGSV,3,2,09,14,45,089,47,20,25,312,47,16,07,192,42,22,14,159,47*76
$GPGSV,3,3,09,46,42,203,46,,,,,,,,,,,,*47
$GPGST,010902.00,,013.03,012.67,071.5,003.61,003.57,003.72*40
$GPRMC,010902.00,A,4003.48496,N,08255.38978,W,029.24,093.5,241213,06.7,W,D*39
$PTNLRTF,V,A,176958,08,3,4003.48496,N,08255.38978,W,00236,+015.015,-000.909,+000.277,0,1*5B
$PTNLRBA,1,1*57
$GPZDA,010903.00,24,12,2013,,*68
$GPGGA,010903.00,4003.48452,N,08255.37925,W,2,08,1.06,00237,M,-033,M,,*5A
$GPGLL,4003.48452,N,08255.37925,W,010903.00,A,D*7D
$GPVTG,093.1,T,099.7,M,029.13,N,053.95,K,D*29
$GPGSA,A,3,25,01,31,32,14,20,16,22,,,,,1.92,1.06,1.60*0D
$GPGSV,3,1,09,25,34,053,47,01,14,270,44,31,78,342,50,32,58,288,49*78
$GPGSV,3,2,09,14,45,089,47,20,25,312,48,16,07,192,43,22,14,159,47*78
$GPGSV,3,3,09,46,42,203,47,,,,,,,,,,,,*46
$GPGST,010903.00,,012.47,012.11,071.5,003.53,003.49,003.65*49
$GPRMC,010903.00,A,4003.48452,N,08255.37925,W,029.13,093.1,241213,06.7,W,D*37
$PTNLRTF,V,A,176959,08,3,4003.48452,N,08255.37925,W,00237,+014.964,-000.799,+000.416,0,1*5C
$PTNLRBA,1,1*57
$GPZDA,010905.00,24,12,2013,,*6E
$GPGGA,010905.00,4003.48373,N,08255.35788,W,2,08,1.06,00238,M,-033,M,,*5C
$GPGLL,4003.48373,N,08255.35788,W,010905.00,A,D*74
$GPVTG,092.4,T,099.1,M,029.75,N,055.09,K,D*28
$GPGSA,A,3,25,01,31,32,14,20,16,22,,,,,1.92,1.06,1.60*0D
$GPGSV,3,1,09,25,34,053,46,01,14,270,44,31,78,342,51,32,58,288,51*71
$GPGSV,3,2,09,14,45,089,46,20,25,312,49,16,07,192,42,22,14,159,45*7B
$GPGSV,3,3,09,46,42,203,45,,,,,,,,,,,,*44
$GPGST,010905.00,,012.22,011.87,071.2,003.49,003.45,003.61*44
$GPRMC,010905.00,A,4003.48373,N,08255.35788,W,029.75,092.4,241213,06.7,W,D*3A
$PTNLRTF,V,A,176961,08,3,4003.48373,N,08255.35788,W,00238,+015.289,-000.651,+000.520,0,1*5F
$PTNLRBA,1,1*57
$GPZDA,010906.00,24,12,2013,,*6D
$GPGGA,010906.00,4003.48326,N,08255.34704,W,2,08,1.06,00238,M,-033,M,,*5A
$GPGLL,4003.48326,N,08255.34704,W,010906.00,A,D*72
$GPVTG,093.3,T,100.0,M,030.04,N,055.63,K,D*2C
$GPGSA,A,3,25,01,31,32,14,20,16,22,,,,,1.92,1.06,1.60*0D
$GPGSV,3,1,09,25,34,053,46,01,14,270,45,31,78,342,51,32,58,288,51*70
$GPGSV,3,2,09,14,45,089,45,20,25,312,49,16,07,192,41,22,14,159,38*71
$GPGSV,3,3,09,46,42,203,47,,,,,,,,,,,,*46
$GPGST,010906.00,,012.18,011.82,072.2,003.49,003.44,003.61*49
$GPRMC,010906.00,A,4003.48326,N,08255.34704,W,030.04,093.3,241213,06.7,W,D*34
$PTNLRTF,V,A,176962,08,3,4003.48326,N,08255.34704,W,00238,+015.427,-000.887,+000.591,0,1*54
$PTNLRBA,1,1*57
$GPZDA,010908.00,24,12,2013,,*63
$GPGGA,010908.00,4003.48252,N,08255.32520,W,2,08,1.06,00240,M,-033,M,,*5B
$GPGLL,4003.48252,N,08255.32520,W,010908.00,A,D*7C
$GPVTG,092.5,T,099.2,M,030.32,N,056.15,K,D*2F
$GPGSA,A,3,25,01,31,32,14,20,16,22,,,,,1.92,1.06,1.60*0D
$GPGSV,3,1,09,25,34,052,46,01,14,270,45,31,78,343,50,32,58,288,50*70
$GPGSV,3,2,09,14,45,089,45,20,25,311,48,16,07,192,32,22,14,159,42*7A
$GPGSV,3,3,09,46,42,203,46,,,,,,,,,,,,*47
$GPGST,010908.00,,011.88,011.51,074.0,003.44,003.40,003.57*4B
$GPRMC,010908.00,A,4003.48252,N,08255.32520,W,030.32,092.5,241213,06.7,W,D*38
$PTNLRTF,V,A,176964,08,3,4003.48252,N,08255.32520,W,00240,+015.582,-000.690,+000.798,0,1*50
$PTNLRBA,1,1*57
$GPZDA,010910.00,24,12,2013,,*6A
$GPGGA,010909.00,4003.48217,N,08255.31409,W,2,08,1.06,00241,M,-033,M,,*53
$GPGLL,4003.48217,N,08255.31409,W,010909.00,A,D*75
$GPVTG,092.4,T,099.1,M,030.75,N,056.94,K,D*27
$GPGSA,A,3,25,01,31,32,14,20,16,22,,,,,1.92,1.06,1.60*0D
$GPGSV,3,1,09,25,34,052,46,01,14,270,45,31,78,343,51,32,58,288,51*70
$GPGSV,3,2,09,14,45,089,46,20,25,311,48,16,07,192,36,22,14,159,44*7B
$GPGSV,3,3,09,46,42,203,45,,,,,,,,,,,,*44
$GPGST,010909.00,,012.09,011.71,074.0,003.47,003.43,003.60*46
$GPRMC,010909.00,A,4003.48217,N,08255.31409,W,030.75,092.4,241213,06.7,W,D*33
$PTNLRTF,V,A,176966,08,3,4003.48217,N,08255.31409,W,00241,+015.802,-000.671,+000.882,0,1*55
$PTNLRBA,1,1*57
$GPZDA,010911.00,24,12,2013,,*6B
$GPGGA,010911.00,4003.48161,N,08255.29160,W,2,08,1.06,00242,M,-033,M,,*58
$GPGLL,4003.48161,N,08255.29160,W,010911.00,A,D*7D
$GPVTG,091.4,T,098.0,M,031.18,N,057.75,K,D*20
$GPGSA,A,3,25,01,31,32,14,20,16,22,,,,,1.92,1.06,1.60*0D
$GPGSV,3,1,09,25,34,052,46,01,14,270,46,31,78,343,51,32,58,288,51*73
$GPGSV,3,2,09,14,45,089,45,20,25,311,49,16,07,192,34,22,14,159,43*7C
$GPGSV,3,3,09,46,42,203,45,,,,,,,,,,,,*44
$GPGST,010911.00,,011.84,011.44,074.2,003.44,003.39,003.56*46
$GPRMC,010911.00,A,4003.48161,N,08255.29160,W,031.18,091.4,241213,06.7,W,D*32
$PTNLRTF,V,A,176967,08,3,4003.48161,N,08255.29160,W,00242,+016.037,-000.380,+000.791,0,1*5D
$PTNLRBA,1,1*57
$GPZDA,010913.00,24,12,2013,,*69
$GPGGA,010913.00,4003.48101,N,08255.26991,W,2,08,1.06,00244,M,-033,M,,*53
$GPGLL,4003.48101,N,08255.26991,W,010913.00,A,D*70
$GPVTG,092.5,T,099.1,M,029.65,N,054.91,K,D*28
$GPGSA,A,3,25,01,31,32,14,20,16,22,,,,,1.92,1.06,1.60*0D
$GPGSV,3,1,09,25,34,052,47,01,14,270,45,31,78,343,51,32,58,288,50*70
$GPGSV,3,2,09,14,45,089,46,20,25,311,48,16,07,192,32,22,14,159,41*7A
$GPGSV,3,3,09,46,42,203,45,,,,,,,,,,,,*44
$GPGST,010913.00,,011.31,010.89,074.6,003.36,003.30,003.48*4D
$GPRMC,010913.00,A,4003.48101,N,08255.26991,W,029.65,092.5,241213,06.7,W,D*3E
$PTNLRTF,V,A,176969,08,3,4003.48101,N,08255.26991,W,00244,+015.239,-000.655,+000.790,0,1*59
$PTNLRBA,1,1*57
$GPZDA,010914.00,24,12,2013,,*6E
$GPGGA,010914.00,4003.48055,N,08255.25944,W,2,08,1.06,00245,M,-033,M,,*5E
$GPGLL,4003.48055,N,08255.25944,W,010914.00,A,D*7C
$GPVTG,093.2,T,099.9,M,028.99,N,053.68,K,D*25
$GPGSA,A,3,25,01,31,32,14,20,16,22,,,,,1.92,1.06,1.60*0D
$GPGSV,3,1,09,25,34,052,46,01,14,270,46,31,78,343,51,32,58,288,51*73
$GPGSV,3,2,09,14,45,089,45,20,25,311,49,16,07,192,35,22,14,159,42*7C
$GPGSV,3,3,09,46,42,203,45,,,,,,,,,,,,*44
$GPGST,010914.00,,011.34,010.91,074.5,003.36,003.31,003.48*44
$GPRMC,010914.00,A,4003.48055,N,08255.25944,W,028.99,093.2,241213,06.7,W,D*36
$PTNLRTF,V,A,176970,08,3,4003.48055,N,08255.25944,W,00245,+014.888,-000.840,+000.844,0,1*56
$PTNLRBA,1,1*57
$GPZDA,010916.00,24,12,2013,,*6C
$GPGGA,010916.00,4003.47960,N,08255.23993,W,2,08,1.06,00246,M,-033,M,,*53
$GPGLL,4003.47960,N,08255.23993,W,010916.00,A,D*72
$GPVTG,094.0,T,100.7,M,026.37,N,048.83,K,D*2A
$GPGSA,A,3,25,01,31,32,14,20,16,22,,,,,1.92,1.06,1.60*0D
$GPGSV,3,1,09,25,34,052,47,01,14,270,45,31,78,343,51,32,58,288,50*70
$GPGSV,3,2,09,14,45,089,45,20,25,311,48,16,07,192,37,22,14,159,42*7F
$GPGSV,3,3,09,46,42,203,45,,,,,,,,,,,,*44
$GPGST,010916.00,,011.31,010.91,071.7,003.36,003.31,003.48*44
$GPRMC,010916.00,A,4003.47960,N,08255.23993,W,026.37,094.0,241213,06.7,W,D*37
$PTNLRTF,V,A,176972,08,3,4003.47960,N,08255.23993,W,00246,+013.530,-000.950,+000.635,0,1*5A
$PTNLRBA,1,1*57
$GPZDA,010917.00,24,12,2013,,*6D
$GPGGA,010917.00,4003.47920,N,08255.23015,W,2,08,1.06,00247,M,-033,M,,*50
$GPGLL,4003.47920,N,08255.23015,W,010917.00,A,D*70
$GPVTG,093.1,T,099.7,M,027.08,N,050.15,K,D*26
$GPGSA,A,3,25,01,31,32,14,20,16,22,,,,,1.92,1.06,1.60*0D
$GPGSV,3,1,09,25,34,052,47,01,14,270,45,31,78,343,51,32,58,288,50*70
$GPGSV,3,2,09,14,45,089,44,20,25,311,49,16,07,192,39,22,14,159,43*70
$GPGSV,3,3,09,46,42,203,47,,,,,,,,,,,,*46
$GPGST,010917.00,,011.48,011.08,071.1,003.38,003.34,003.50*4E
$GPRMC,010917.00,A,4003.47920,N,08255.23015,W,027.08,093.1,241213,06.7,W,D*3E
$PTNLRTF,V,A,176973,08,3,4003.47920,N,08255.23015,W,00247,+013.912,-000.742,+000.487,0,1*53
$PTNLRBA,1,1*57
$GPZDA,010919.00,24,12,2013,,*63
$GPGGA,010919.00,4003.47846,N,08255.20998,W,2,08,1.06,00248,M,-033,M,,*5F
$GPGLL,4003.47846,N,08255.20998,W,010919.00,A,D*70
$GPVTG,092.6,T,099.3,M,027.57,N,051.07,K,D*2C
$GPGSA,A,3,25,01,31,32,14,20,16,22,,,,,1.92,1.06,1.60*0D
$GPGSV,3,1,09,25,34,052,47,01,14,270,44,31,78,343,51,32,58,288,50*71
$GPGSV,3,2,09,14,45,089,46,20,25,311,46,16,07,192,41,22,14,159,38*7E
$GPGSV,3,3,09,46,42,203,46,,,,,,,,,,,,*47
$GPGST,010919.00,,011.07,010.69,071.5,003.32,003.28,003.44*4B
$GPRMC,010919.00,A,4003.47846,N,08255.20998,W,027.57,092.6,241213,06.7,W,D*32
$PTNLRTF,V,A,176975,08,3,4003.47846,N,08255.20998,W,00248,+014.170,-000.653,+000.547,0,1*53
$PTNLRBA,1,1*57
$GPZDA,010920.00,24,12,2013,,*69
$GPGGA,010920.00,4003.47808,N,08255.20017,W,2,07,1.16,00248,M,-033,M,,*5F
$GPGLL,4003.47808,N,08255.20017,W,010920.00,A,D*7E
$GPVTG,092.9,T,099.6,M,027.09,N,050.18,K,D*22
$GPGSA,A,3,25,01,31,32,14,20,22,,,,,,2.00,1.16,1.62*01
$GPGSV,3,1,09,25,34,052,47,01,14,270,43,31,78,343,51,32,58,288,50*76
$GPGSV,3,2,09,14,45,089,46,20,25,311,48,16,07,192,42,22,14,159,39*72
$GPGSV,3,3,09,46,42,203,45,,,,,,,,,,,,*44
$GPGST,010920.00,,010.96,010.55,073.2,003.30,003.25,003.42*4B
$GPRMC,010920.00,A,4003.47808,N,08255.20017,W,027.09,092.9,241213,06.7,W,D*38
$PTNLRTF,V,A,176976,07,3,4003.47808,N,08255.20017,W,00248,+013.920,-000.717,+000.506,0,1*55
$PTNLRBA,1,1*57
$GPZDA,010922.00,24,12,2013,,*6B
$GPGGA,010922.00,4003.47733,N,08255.17971,W,2,07,1.16,00249,M,-033,M,,*56
$GPGLL,4003.47733,N,08255.17971,W,010922.00,A,D*76
$GPVTG,092.8,T,099.5,M,028.92,N,053.55,K,D*27
$GPGSA,A,3,25,01,31,32,14,20,22,,,,,,2.00,1.16,1.62*01
$GPGSV,3,1,09,25,34,052,47,01,14,270,44,31,78,343,51,32,58,288,51*70
$GPGSV,3,2,09,14,45,089,46,20,25,311,46,16,07,192,38,22,14,159,43*7C
$GPGSV,3,3,09,46,42,203,45,,,,,,,,,,,,*44
$GPGST,010922.00,,013.68,013.31,073.1,003.69,003.65,003.80*4F
$GPRMC,010922.00,A,4003.47733,N,08255.17971,W,028.92,092.8,241213,06.7,W,D*3C
$PTNLRTF,V,A,176978,07,3,4003.47733,N,08255.17971,W,00249,+014.857,-000.731,+000.416,0,1*52
$PTNLRBA,1,1*57
$GPZDA,010923.00,24,12,2013,,*6A
$GPGGA,010923.00,4003.47676,N,08255.16893,W,2,08,1.06,00249,M,-033,M,,*55
$GPGLL,4003.47676,N,08255.16893,W,010923.00,A,D*7B
$GPVTG,093.9,T,100.6,M,029.83,N,055.25,K,D*25
$GPGSA,A,3,25,01,31,32,14,20,16,22,,,,,1.92,1.06,1.60*0D
$GPGSV,3,1,09,25,34,052,47,01,14,270,44,31,78,343,50,32,58,288,50*70
$GPGSV,3,2,09,14,45,089,46,20,25,311,47,16,07,192,39,22,14,159,40*7F
$GPGSV,3,3,09,46,42,203,45,,,,,,,,,,,,*44
$GPGST,010923.00,,013.67,013.31,075.5,003.69,003.65,003.80*43
$GPRMC,010923.00,A,4003.47676,N,08255.16893,W,029.83,093.9,241213,06.7,W,D*30
$PTNLRTF,V,A,176979,08,3,4003.47676,N,08255.16893,W,00249,+015.313,-001.043,+000.329,0,1*52
$PTNLRBA,1,1*57
$GPZDA,010925.00,24,12,2013,,*6C
$GPGGA,010925.00,4003.47594,N,08255.14753,W,2,08,1.06,00250,M,-033,M,,*55
$GPGLL,4003.47594,N,08255.14753,W,010925.00,A,D*73
$GPVTG,092.7,T,099.4,M,029.13,N,053.94,K,D*2C
$GPGSA,A,3,25,01,31,32,14,20,16,22,,,,,1.92,1.06,1.60*0D
$GPGSV,3,1,09,25,34,052,48,01,14,270,42,31,78,343,51,32,58,288,50*78
$GPGSV,3,2,09,14,45,089,46,20,25,311,47,16,07,192,38,22,14,159,43*7D
$GPGSV,3,3,09,46,42,203,47,,,,,,,,,,,,*46
$GPGST,010925.00,,013.29,012.92,076.3,003.64,003.60,003.75*40
$GPRMC,010925.00,A,4003.47594,N,08255.14753,W,029.13,092.7,241213,06.7,W,D*3E
$PTNLRTF,V,A,176981,08,3,4003.47594,N,08255.14753,W,00250,+014.967,-000.718,+000.212,0,1*5A
$PTNLRBA,1,1*57
$GPZDA,010926.00,24,12,2013,,*6F
$GPGGA,010926.00,4003.47546,N,08255.13719,W,2,08,1.06,00250,M,-033,M,,*50
$GPGLL,4003.47546,N,08255.13719,W,010926.00,A,D*76
$GPVTG,093.4,T,100.0,M,028.65,N,053.06,K,D*20
$GPGSA,A,3,25,01,31,32,14,20,16,22,,,,,1.92,1.06,1.60*0D
$GPGSV,3,1,09,25,34,052,48,01,14,270,43,31,78,343,50,32,58,288,51*79
$GPGSV,3,2,09,14,45,089,45,20,25,311,47,16,07,192,37,22,14,159,44*76
$GPGSV,3,3,09,46,42,203,46,,,,,,,,,,,,*47
$GPGST,010926.00,,012.80,012.42,075.8,003.57,003.53,003.69*49
$GPRMC,010926.00,A,4003.47546,N,08255.13719,W,028.65,093.4,241213,06.7,W,D*39
$PTNLRTF,V,A,176982,08,3,4003.47546,N,08255.13719,W,00250,+014.714,-000.865,+000.398,0,1*53
$PTNLRBA,1,1*57
$GPZDA,010928.00,24,12,2013,,*61
$GPGGA,010928.00,4003.47461,N,08255.11568,W,2,08,1.06,00251,M,-033,M,,*5D
$GPGLL,4003.47461,N,08255.11568,W,010928.00,A,D*7A
$GPVTG,093.2,T,099.9,M,030.01,N,055.58,K,D*28
$GPGSA,A,3,25,01,31,32,14,20,16,22,,,,,1.92,1.06,1.60*0D
$GPGSV,3,1,09,25,34,052,46,01,14,270,43,31,78,343,50,32,58,288,50*76
$GPGSV,3,2,09,14,45,089,47,20,25,311,48,16,07,192,39,22,14,159,45*74
$GPGSV,3,3,09,46,42,203,47,,,,,,,,,,,,*46
$GPGST,010928.00,,012.60,012.22,075.1,003.55,003.50,003.66*48
$GPRMC,010928.00,A,4003.47461,N,08255.11568,W,030.01,093.2,241213,06.7,W,D*38
$PTNLRTF,V,A,176984,08,3,4003.47461,N,08255.11568,W,00251,+015.416,-000.854,+000.201,0,1*55
$PTNLRBA,1,1*57
$GPZDA,010929.00,24,12,2013,,*60
$GPGGA,010929.00,4003.47400,N,08255.10491,W,2,08,1.06,00251,M,-033,M,,*5D
$GPGLL,4003.47400,N,08255.10491,W,010929.00,A,D*7A
$GPVTG,094.2,T,100.8,M,029.86,N,055.30,K,D*26
$GPGSA,A,3,25,01,31,32,14,20,16,22,,,,,1.92,1.06,1.60*0D
$GPGSV,3,1,09,25,34,052,47,01,14,270,43,31,78,343,51,32,58,288,51*77
$GPGSV,3,2,09,14,45,089,47,20,25,311,47,16,07,192,41,22,14,159,47*76
$GPGSV,3,3,09,46,42,203,46,,,,,,,,,,,,*47
$GPGST,010929.00,,012.31,011.92,074.9,003.51,003.46,003.62*4B
$GPRMC,010929.00,A,4003.47400,N,08255.10491,W,029.86,094.2,241213,06.7,W,D*38
$PTNLRTF,V,A,176985,08,3,4003.47400,N,08255.10491,W,00251,+015.322,-001.112,+000.318,0,1*56
$PTNLRBA,1,1*57
$GPZDA,010931.00,24,12,2013,,*69
$GPGGA,010931.00,4003.47293,N,08255.08376,W,2,08,1.06,00252,M,-033,M,,*5C
$GPGLL,4003.47293,N,08255.08376,W,010931.00,A,D*78
$GPVTG,093.6,T,100.3,M,029.15,N,053.99,K,D*21
$GPGSA,A,3,25,01,31,32,14,20,16,22,,,,,1.92,1.06,1.60*0D
$GPGSV,3,1,09,25,34,052,47,01,14,270,42,31,78,343,51,32,58,288,50*77
$GPGSV,3,2,09,14,45,089,46,20,25,311,47,16,07,192,45,22,14,159,47*73
$GPGSV,3,3,09,46,42,203,45,,,,,,,,,,,,*44
$GPGST,010931.00,,011.96,011.58,074.9,003.46,003.41,003.58*42
$GPRMC,010931.00,A,4003.47293,N,08255.08376,W,029.15,093.6,241213,06.7,W,D*33
$PTNLRTF,V,A,176987,08,3,4003.47293,N,08255.08376,W,00252,+014.968,-000.935,+000.334,0,1*5B
$PTNLRBA,1,1*57
$GPZDA,010932.00,24,12,2013,,*6A
$GPGGA,010932.00,4003.47242,N,08255.07308,W,2,08,1.06,00252,M,-033,M,,*55
$GPGLL,4003.47242,N,08255.07308,W,010932.00,A,D*71
$GPVTG,093.5,T,100.2,M,029.56,N,054.75,K,D*21
$GPGSA,A,3,25,01,31,32,14,20,16,22,,,,,1.92,1.06,1.60*0D
$GPGSV,3,1,09,25,34,052,47,01,14,270,43,31,78,343,52,32,58,288,50*75
$GPGSV,3,2,09,14,45,089,46,20,25,311,48,16,07,192,44,22,14,159,47*7D
$GPGSV,3,3,09,46,42,203,45,,,,,,,,,,,,*44
$GPGST,010932.00,,011.86,011.49,074.7,003.44,003.39,003.56*4D
$GPRMC,010932.00,A,4003.47242,N,08255.07308,W,029.56,093.5,241213,06.7,W,D*3E
$PTNLRTF,V,A,176988,08,3,4003.47242,N,08255.07308,W,00252,+015.181,-000.920,+000.247,0,1*51
$PTNLRBA,1,1*57
$GPZDA,010934.00,24,12,2013,,*6C
$GPGGA,010934.00,4003.47145,N,08255.05130,W,2,08,1.06,00253,M,-033,M,,*5D
$GPGLL,4003.47145,N,08255.05130,W,010934.00,A,D*78
$GPVTG,092.8,T,099.5,M,029.94,N,055.46,K,D*24
$GPGSA,A,3,25,01,31,32,14,20,16,22,,,,,1.92,1.06,1.60*0D
$GPGSV,3,1,09,25,34,052,48,01,14,270,44,31,78,343,51,32,58,288,49*76
$GPGSV,3,2,09,14,45,089,46,20,25,311,47,16,07,192,38,22,14,159,46*78
$GPGSV,3,3,09,46,42,203,46,,,,,,,,,,,,*47
$GPGST,010934.00,,011.80,011.45,074.2,003.43,003.39,003.56*43
$GPRMC,010934.00,A,4003.47145,N,08255.05130,W,029.94,092.8,241213,06.7,W,D*35
$PTNLRTF,V,A,176990,08,3,4003.47145,N,08255.05130,W,00253,+015.386,-000.765,+000.159,0,1*50
$PTNLRBA,1,1*57
$GPZDA,010935.00,24,12,2013,,*6D
$GPGGA,010935.00,4003.47105,N,08255.04082,W,2,08,1.06,00253,M,-033,M,,*51
$GPGLL,4003.47105,N,08255.04082,W,010935.00,A,D*74
$GPVTG,093.1,T,099.8,M,029.01,N,053.73,K,D*2D
$GPGSA,A,3,25,01,31,32,14,20,16,22,,,,,1.92,1.06,1.60*0D
$GPGSV,3,1,09,25,34,052,46,01,14,270,44,31,78,343,50,32,58,288,50*71
$GPGSV,3,2,09,14,45,089,45,20,25,311,48,16,07,192,29,22,14,159,46*74
$GPGSV,3,3,09,46,42,203,46,,,,,,,,,,,,*47
$GPGST,010935.00,,011.40,011.05,073.6,003.37,003.33,003.50*46
$GPRMC,010935.00,A,4003.47105,N,08255.04082,W,029.01,093.1,241213,06.7,W,D*3D
$PTNLRTF,V,A,176992,08,3,4003.47105,N,08255.04082,W,00253,+014.902,-000.812,+000.226,0,1*5C
$PTNLRBA,1,1*57
$GPZDA,010937.00,24,12,2013,,*6F
$GPGGA,010937.00,4003.47020,N,08255.02050,W,2,08,1.06,00253,M,-033,M,,*5C
$GPGLL,4003.47020,N,08255.02050,W,010937.00,A,D*79
$GPVTG,093.4,T,100.1,M,028.05,N,051.95,K,D*2F
$GPGSA,A,3,25,01,31,32,14,20,16,22,,,,,1.92,1.06,1.60*0D
$GPGSV,3,1,09,25,34,052,48,01,14,270,43,31,78,343,50,32,58,288,50*78
$GPGSV,3,2,09,14,45,089,47,20,25,311,47,16,07,192,40,22,14,159,44*74
$GPGSV,3,3,09,46,42,203,46,,,,,,,,,,,,*47
$GPGST,010937.00,,011.54,011.20,074.5,003.39,003.35,003.52*48
$GPRMC,010937.00,A,4003.47020,N,08255.02050,W,028.05,093.4,241213,06.7,W,D*30
$PTNLRTF,V,A,176993,08,3,4003.47020,N,08255.02050,W,00253,+014.405,-000.848,+000.296,0,1*5C
$PTNLRBA,1,1*57
$GPZDA,010939.00,24,12,2013,,*61
$GPGGA,010939.00,4003.46914,N,08254.99975,W,2,08,1.06,00254,M,-033,M,,*57
$GPGLL,4003.46914,N,08254.99975,W,010939.00,A,D*75
$GPVTG,093.7,T,100.4,M,028.95,N,053.62,K,D*2A
$GPGSA,A,3,25,01,31,32,14,20,16,22,,,,,1.92,1.06,1.60*0D
$GPGSV,3,1,09,25,34,052,48,01,14,270,44,31,78,343,51,32,58,288,51*7F
$GPGSV,3,2,09,14,45,089,47,20,25,311,45,16,07,192,44,22,14,159,45*73
$GPGSV,3,3,09,46,42,203,46,,,,,,,,,,,,*47
$GPGST,010939.00,,011.57,011.24,075.0,003.40,003.36,003.52*48
$GPRMC,010939.00,A,4003.46914,N,08254.99975,W,028.95,093.7,241213,06.7,W,D*36
$PTNLRTF,V,A,176995,08,3,4003.46914,N,08254.99975,W,00254,+014.863,-000.970,+000.143,0,1*52
$PTNLRBA,1,1*57
$GPZDA,010940.00,24,12,2013,,*6F
$GPGGA,010940.00,4003.46861,N,08254.98933,W,2,08,1.06,00254,M,-033,M,,*59
$GPGLL,4003.46861,N,08254.98933,W,010940.00,A,D*7B
$GPVTG,093.8,T,100.5,M,028.86,N,053.45,K,D*23
$GPGSA,A,3,25,01,31,32,14,20,16,22,,,,,1.92,1.06,1.60*0D
$GPGSV,3,1,09,25,34,052,48,01,14,270,44,31,78,343,50,32,58,288,51*7E
$GPGSV,3,2,09,14,45,089,47,20,25,311,46,16,07,192,42,22,14,159,45*76
$GPGSV,3,3,09,46,42,203,46,,,,,,,,,,,,*47
$GPGST,010940.00,,011.82,011.49,075.1,003.44,003.39,003.56*4B
$GPRMC,010940.00,A,4003.46861,N,08254.98933,W,028.86,093.8,241213,06.7,W,D*35
$PTNLRTF,V,A,176996,08,3,4003.46861,N,08254.98933,W,00254,+014.815,-000.975,+000.069,0,1*5C
$PTNLRBA,1,1*57
$GPZDA,010942.00,24,12,2013,,*6D
$GPGGA,010942.00,4003.46760,N,08254.96754,W,2,08,1.06,00254,M,-033,M,,*54
$GPGLL,4003.46760,N,08254.96754,W,010942.00,A,D*76
$GPVTG,093.1,T,099.8,M,030.63,N,056.72,K,D*25
$GPGSA,A,3,25,01,31,32,14,20,16,22,,,,,1.92,1.06,1.60*0D
$GPGSV,3,1,09,25,34,052,47,01,14,270,43,31,78,343,50,32,58,288,50*77
$GPGSV,3,2,09,14,45,089,47,20,25,311,46,16,07,192,44,22,14,159,47*72
$GPGSV,3,3,09,46,42,203,46,,,,,,,,,,,,*47
$GPGST,010942.00,,011.20,010.89,072.2,003.34,003.30,003.47*46
$GPRMC,010942.00,A,4003.46760,N,08254.96754,W,030.63,093.1,241213,06.7,W,D*33
$PTNLRTF,V,A,176998,08,3,4003.46760,N,08254.96754,W,00254,+015.734,-000.845,+000.256,0,1*5C
$PTNLRBA,1,1*57
$GPZDA,010943.00,24,12,2013,,*6C
$GPGGA,010943.00,4003.46711,N,08254.95679,W,2,08,1.06,00255,M,-033,M,,*5F
$GPGLL,4003.46711,N,08254.95679,W,010943.00,A,D*7C
$GPVTG,093.4,T,100.1,M,029.80,N,055.19,K,D*23
$GPGSA,A,3,25,01,31,32,14,20,16,22,,,,,1.92,1.06,1.60*0D
$GPGSV,3,1,09,25,34,052,48,01,14,270,44,31,78,343,50,32,58,288,50*7F
$GPGSV,3,2,09,14,45,089,46,20,25,311,46,16,07,192,45,22,14,159,48*7D
$GPGSV,3,3,09,46,42,203,45,,,,,,,,,,,,*44
$GPGST,010943.00,,011.05,010.75,071.1,003.32,003.28,003.45*4E
$GPRMC,010943.00,A,4003.46711,N,08254.95679,W,029.80,093.4,241213,06.7,W,D*39
$PTNLRTF,V,A,176999,08,3,4003.46711,N,08254.95679,W,00255,+015.305,-000.904,+000.370,0,1*50
$PTNLRBA,1,1*57
$GPZDA,010945.00,24,12,2013,,*6A
$GPGGA,010945.00,4003.46622,N,08254.93659,W,2,08,1.06,00256,M,-033,M,,*5F
$GPGLL,4003.46622,N,08254.93659,W,010945.00,A,D*7F
$GPVTG,093.2,T,099.9,M,027.17,N,050.31,K,D*23
$GPGSA,A,3,25,01,31,32,14,20,16,22,,,,,1.92,1.06,1.60*0D
$GPGSV,3,1,09,25,34,052,48,01,14,270,43,31,78,344,50,32,58,287,51*71
$GPGSV,3,2,09,14,45,089,46,20,25,311,48,16,08,192,44,22,14,159,47*72
$GPGSV,3,3,09,46,43,203,45,,,,,,,,,,,,*45
$GPGST,010945.00,,011.14,010.91,066.6,003.33,003.31,003.47*48
$GPRMC,010945.00,A,4003.46622,N,08254.93659,W,027.17,093.2,241213,06.7,W,D*3C
$PTNLRTF,V,A,177001,08,3,4003.46622,N,08254.93659,W,00256,+013.955,-000.776,+000.433,0,1*5D
$PTNLRBA,1,1*57
$GPZDA,010946.00,24,12,2013,,*69
$GPGGA,010946.00,4003.46577,N,08254.92735,W,2,08,1.06,00256,M,-033,M,,*55
$GPGLL,4003.46577,N,08254.92735,W,010946.00,A,D*75
$GPVTG,093.7,T,100.4,M,025.57,N,047.36,K,D*2D
$GPGSA,A,3,25,01,31,32,14,20,16,22,,,,,1.92,1.06,1.60*0D
$GPGSV,3,1,10,25,34,052,47,01,14,270,42,29,05,090,33,31,78,344,51*74
$GPGSV,3,2,10,32,58,287,48,14,45,089,47,20,25,311,47,16,08,192,44*72
$GPGSV,3,3,10,22,14,159,47,46,43,203,45,,,,,,,,*76
$GPGST,010946.00,,010.85,010.65,060.2,003.29,003.27,003.42*42
$GPRMC,010946.00,A,4003.46577,N,08254.92735,W,025.57,093.7,241213,06.7,W,D*35
$PTNLRTF,V,A,177002,08,3,4003.46577,N,08254.92735,W,00256,+013.127,-000.853,+000.309,0,1*5C
$PTNLRBA,1,1*57
$GPZDA,010948.00,24,12,2013,,*67
$GPGGA,010948.00,4003.46484,N,08254.91109,W,2,08,1.06,00256,M,-033,M,,*5C
$GPGLL,4003.46484,N,08254.91109,W,010948.00,A,D*7C
$GPVTG,093.9,T,100.6,M,021.45,N,039.73,K,D*2E
$GPGSA,A,3,25,01,31,32,14,20,16,22,,,,,1.92,1.06,1.60*0D
$GPGSV,3,1,10,25,34,052,47,01,14,270,43,29,05,090,33,31,78,344,49*7C
$GPGSV,3,2,10,32,58,287,51,14,45,089,47,20,25,311,48,16,08,192,45*74
$GPGSV,3,3,10,22,14,159,48,46,43,203,45,,,,,,,,*79
$GPGST,010948.00,,010.45,010.28,032.9,003.21,003.23,003.35*49
$GPRMC,010948.00,A,4003.46484,N,08254.91109,W,021.45,093.9,241213,06.7,W,D*35
$PTNLRTF,V,A,177004,08,3,4003.46484,N,08254.91109,W,00256,+011.010,-000.746,+000.145,0,1*5B
$PTNLRBA,1,1*57
$GPZDA,010949.00,24,12,2013,,*66
$GPGGA,010949.00,4003.46455,N,08254.90416,W,2,08,1.06,00257,M,-033,M,,*5A
$GPGLL,4003.46455,N,08254.90416,W,010949.00,A,D*7B
$GPVTG,093.1,T,099.7,M,019.15,N,035.47,K,D*23
$GPGSA,A,3,25,01,31,32,14,20,16,22,,,,,1.92,1.06,1.60*0D
$GPGSV,3,1,10,25,34,052,47,01,14,270,42,29,05,090,32,31,78,344,50*74
$GPGSV,3,2,10,32,58,287,50,14,45,089,47,20,25,311,48,16,08,192,45*75
$GPGSV,3,3,10,22,14,159,48,46,43,203,45,,,,,,,,*79
$GPGST,010949.00,,010.88,010.68,016.8,003.27,003.30,003.41*4D
$GPRMC,010949.00,A,4003.46455,N,08254.90416,W,019.15,093.1,241213,06.7,W,D*34
$PTNLRTF,V,A,177005,08,3,4003.46455,N,08254.90416,W,00257,+009.838,-000.525,+000.134,0,1*57
$PTNLRBA,1,1*57
$GPZDA,010951.00,24,12,2013,,*6F
$GPGGA,010951.00,4003.46421,N,08254.89298,W,2,08,1.06,00257,M,-033,M,,*58
$GPGLL,4003.46421,N,08254.89298,W,010951.00,A,D*79
$GPVTG,091.9,T,098.6,M,014.11,N,026.14,K,D*24
$GPGSA,A,3,25,01,31,32,14,20,16,22,,,,,1.92,1.06,1.60*0D
$GPGSV,3,1,10,25,34,052,47,01,14,270,43,29,05,090,33,31,78,344,50*74
$GPGSV,3,2,10,32,58,287,49,14,45,089,47,20,25,311,47,16,08,192,47*70
$GPGSV,3,3,10,22,14,159,47,46,43,203,44,,,,,,,,*77
$GPGST,010951.00,,011.23,010.85,003.5,003.29,003.35,003.43*47
$GPRMC,010951.00,A,4003.46421,N,08254.89298,W,014.11,091.9,241213,06.7,W,D*35
$PTNLRTF,V,A,177007,08,3,4003.46421,N,08254.89298,W,00257,+007.256,-000.242,+000.047,0,1*51
$PTNLRBA,1,1*57
$GPZDA,010952.00,24,12,2013,,*6C
$GPGGA,010952.00,4003.46406,N,08254.88936,W,2,08,1.06,00257,M,-033,M,,*50
$GPGLL,4003.46406,N,08254.88936,W,010952.00,A,D*71
$GPVTG,092.9,T,099.6,M,009.93,N,018.39,K,D*22
$GPGSA,A,3,25,01,31,32,14,20,16,22,,,,,1.92,1.06,1.60*0D
$GPGSV,3,1,10,25,34,052,47,01,14,270,44,29,05,090,37,31,78,344,51*76
$GPGSV,3,2,10,32,58,287,49,14,45,089,47,20,25,311,47,16,08,192,44*73
$GPGSV,3,3,10,22,14,159,48,46,43,203,44,,,,,,,,*78
$GPGST,010952.00,,011.70,010.95,002.7,003.31,003.42,003.44*4E
$GPRMC,010952.00,A,4003.46406,N,08254.88936,W,009.93,092.9,241213,06.7,W,D*38
$PTNLRTF,V,A,177008,08,3,4003.46406,N,08254.88936,W,00257,+005.102,-000.262,+000.091,0,1*5C
$PTNLRBA,1,1*57
$GPZDA,010954.00,24,12,2013,,*6A
$GPGGA,010954.00,4003.46384,N,08254.88586,W,2,08,1.06,00257,M,-033,M,,*5C
$GPGLL,4003.46384,N,08254.88586,W,010954.00,A,D*7D
$GPVTG,095.6,T,102.3,M,002.45,N,004.54,K,D*2A
$GPGSA,A,3,25,01,31,32,14,20,16,22,,,,,1.92,1.06,1.60*0D
$GPGSV,3,1,10,25,34,052,47,01,14,270,44,29,05,090,35,31,78,344,51*74
$GPGSV,3,2,10,32,58,287,51,14,45,089,46,20,25,311,48,16,08,192,44*74
$GPGSV,3,3,10,22,14,159,46,46,43,203,44,,,,,,,,*76
$GPGST,010954.00,,013.74,012.49,000.9,003.53,003.71,003.66*45
$GPRMC,010954.00,A,4003.46384,N,08254.88586,W,002.45,095.6,241213,06.7,W,D*3C
$PTNLRTF,V,A,177010,08,3,4003.46384,N,08254.88586,W,00257,+001.254,-000.123,-000.034,0,1*54
$PTNLRBA,1,1*57
$GPZDA,010956.00,24,12,2013,,*68
$GPGGA,010956.00,4003.46384,N,08254.88572,W,2,08,1.06,00257,M,-033,M,,*55
$GPGLL,4003.46384,N,08254.88572,W,010956.00,A,D*74
$GPVTG,000.0,T,006.7,M,000.00,N,000.00,K,D*27
$GPGSA,A,3,25,01,31,32,14,20,16,22,,,,,1.92,1.06,1.60*0D
$GPGSV,3,1,10,25,34,052,48,01,14,270,44,29,05,090,29,31,78,344,51*76
$GPGSV,3,2,10,32,58,287,50,14,45,089,46,20,25,311,45,16,08,192,45*79
$GPGSV,3,3,10,22,14,159,48,46,43,203,45,,,,,,,,*79
$GPGST,010956.00,,015.71,014.53,000.5,003.81,003.96,003.93*49
$GPRMC,010956.00,A,4003.46384,N,08254.88572,W,000.00,000.0,241213,06.7,W,D*3C
$PTNLRTF,V,A,177012,08,3,4003.46384,N,08254.88572,W,00257,+000.000,+000.000,+000.000,0,1*58
$PTNLRBA,1,1*57
$GPZDA,010957.00,24,12,2013,,*69
$GPGGA,010957.00,4003.46384,N,08254.88564,W,2,08,1.06,00257,M,-033,M,,*53
$GPGLL,4003.46384,N,08254.88564,W,010957.00,A,D*72
$GPVTG,000.0,T,006.7,M,000.00,N,000.00,K,D*27
$GPGSA,A,3,25,01,31,32,14,20,16,22,,,,,1.92,1.06,1.60*0D
$GPGSV,3,1,10,25,34,052,48,01,14,270,45,29,05,090,29,31,78,344,51*77
$GPGSV,3,2,10,32,58,287,49,14,45,089,47,20,25,311,45,16,08,192,45*70
$GPGSV,3,3,10,22,14,159,47,46,43,203,46,,,,,,,,*75
$GPGST,010957.00,,016.73,015.68,000.9,003.96,004.09,004.07*41
$GPRMC,010957.00,A,4003.46384,N,08254.88564,W,000.00,000.0,241213,06.7,W,D*3A
$PTNLRTF,V,A,177013,08,3,4003.46384,N,08254.88564,W,00257,+000.000,+000.000,+000.000,0,1*5E
$PTNLRBA,1,1*57
$GPZDA,010959.00,24,12,2013,,*67
$GPGGA,010958.00,4003.46381,N,08254.88557,W,2,08,1.06,00257,M,-033,M,,*59
$GPGLL,4003.46381,N,08254.88557,W,010958.00,A,D*78
$GPVTG,000.0,T,006.7,M,000.00,N,000.00,K,D*27
$GPGSA,A,3,25,01,31,32,14,20,16,22,,,,,1.92,1.06,1.60*0D
$GPGSV,3,1,10,25,34,052,47,01,14,270,44,29,05,090,28,31,78,344,51*78
$GPGSV,3,2,10,32,58,287,51,14,45,089,46,20,25,311,45,16,08,192,45*78
$GPGSV,3,3,10,22,14,159,46,46,43,203,45,,,,,,,,*77
$GPGST,010958.00,,017.44,016.52,001.3,004.06,004.18,004.17*45
$GPRMC,010958.00,A,4003.46381,N,08254.88557,W,000.00,000.0,241213,06.7,W,D*30
$PTNLRTF,V,A,177015,08,3,4003.46381,N,08254.88557,W,00257,+000.000,+000.000,+000.000,0,1*5D
$PTNLRBA,1,1*57
$GPZDA,011000.00,24,12,2013,,*63
$GPGGA,011000.00,4003.46381,N,08254.88543,W,2,08,1.06,00257,M,-033,M,,*59
$GPGLL,4003.46381,N,08254.88543,W,011000.00,A,D*78
$GPVTG,000.0,T,006.7,M,000.00,N,000.00,K,D*27
$GPGSA,A,3,25,01,31,32,14,20,16,22,,,,,1.92,1.06,1.60*0D
$GPGSV,3,1,10,25,34,052,48,01,14,270,45,29,05,090,27,31,78,344,51*79
$GPGSV,3,2,10,32,58,287,50,14,45,089,46,20,25,311,45,16,08,192,44*78
$GPGSV,3,3,10,22,14,159,47,46,43,203,45,,,,,,,,*76
$GPGST,011000.00,,018.67,017.96,002.4,004.24,004.32,004.34*4A
$GPRMC,011000.00,A,4003.46381,N,08254.88543,W,000.00,000.0,241213,06.7,W,D*30
$PTNLRTF,V,A,177016,08,3,4003.46381,N,08254.88543,W,00257,+000.000,+000.000,+000.000,0,1*5B
$PTNLRBA,1,1*57
$GPZDA,011002.00,24,12,2013,,*61
$GPGGA,011002.00,4003.46379,N,08254.88532,W,2,08,1.06,00258,M,-033,M,,*55
$GPGLL,4003.46379,N,08254.88532,W,011002.00,A,D*7B
$GPVTG,000.0,T,006.7,M,000.00,N,000.00,K,D*27
$GPGSA,A,3,25,01,31,32,14,20,16,22,,,,,1.92,1.06,1.60*0D
$GPGSV,3,1,10,25,34,052,47,01,14,270,44,29,05,090,26,31,78,344,51*76
$GPGSV,3,2,10,32,58,287,51,14,45,089,45,20,25,311,44,16,08,192,45*7A
$GPGSV,3,3,10,22,14,159,47,46,43,203,47,,,,,,,,*74
$GPGST,011002.00,,018.93,018.38,003.9,004.29,004.35,004.39*43
$GPRMC,011002.00,A,4003.46379,N,08254.88532,W,000.00,000.0,241213,06.7,W,D*33
$PTNLRTF,V,A,177018,08,3,4003.46379,N,08254.88532,W,00258,+000.000,+000.000,+000.000,0,1*5B
$PTNLRBA,1,1*57
$GPZDA,011003.00,24,12,2013,,*60
$GPGGA,011003.00,4003.46379,N,08254.88527,W,2,08,1.06,00258,M,-033,M,,*50
$GPGLL,4003.46379,N,08254.88527,W,011003.00,A,D*7E
$GPVTG,000.0,T,006.7,M,000.00,N,000.00,K,D*27
$GPGSA,A,3,25,01,31,32,14,20,16,22,,,,,1.92,1.06,1.60*0D
$GPGSV,3,1,10,25,34,052,47,01,14,270,44,29,05,090,27,31,78,344,51*77
$GPGSV,3,2,10,32,58,287,50,14,45,089,46,20,25,311,44,16,08,192,44*79
$GPGSV,3,3,10,22,14,159,47,46,43,203,46,,,,,,,,*75
$GPGST,011003.00,,018.98,018.50,004.8,004.30,004.36,004.40*44
$GPRMC,011003.00,A,4003.46379,N,08254.88527,W,000.00,000.0,241213,06.7,W,D*36
$PTNLRTF,V,A,177019,08,3,4003.46379,N,08254.88527,W,00258,+000.000,+000.000,+000.000,0,1*5E
$PTNLRBA,1,1*57
$GPZDA,011005.00,24,12,2013,,*66
$GPGGA,011005.00,4003.46379,N,08254.88517,W,2,08,1.06,00258,M,-033,M,,*55
$GPGLL,4003.46379,N,08254.88517,W,011005.00,A,D*7B
$GPVTG,000.0,T,006.7,M,000.00,N,000.00,K,D*27
$GPGSA,A,3,25,01,31,32,14,20,16,22,,,,,1.92,1.06,1.60*0D
$GPGSV,3,1,10,25,34,052,46,01,14,270,44,29,05,090,33,31,78,344,51*73
$GPGSV,3,2,10,32,58,287,50,14,45,089,46,20,25,311,44,16,08,192,45*78
$GPGSV,3,3,10,22,14,159,48,46,43,203,46,,,,,,,,*7A
$GPGST,011005.00,,019.28,018.92,007.2,004.35,004.39,004.44*41
$GPRMC,011005.00,A,4003.46379,N,08254.88517,W,000.00,000.0,241213,06.7,W,D*33
$PTNLRTF,V,A,177021,08,3,4003.46379,N,08254.88517,W,00258,+000.000,+000.000,+000.000,0,1*56
$PTNLRBA,1,1*57
$GPZDA,011006.00,24,12,2013,,*65
$GPGGA,011006.00,4003.46380,N,08254.88512,W,2,08,1.06,00258,M,-033,M,,*55
$GPGLL,4003.46380,N,08254.88512,W,011006.00,A,D*7B
$GPVTG,000.0,T,006.7,M,000.00,N,000.00,K,D*27
$GPGSA,A,3,25,01,31,32,14,20,16,22,,,,,1.92,1.06,1.60*0D
$GPGSV,3,1,10,25,34,052,48,01,14,270,44,29,05,090,32,31,78,344,51*7C
$GPGSV,3,2,10,32,58,287,51,14,45,089,46,20,25,311,46,16,08,192,44*7A
$GPGSV,3,3,10,22,14,159,47,46,43,203,46,,,,,,,,*75
$GPGST,011006.00,,018.90,018.59,008.8,004.31,004.35,004.41*4F
$GPRMC,011006.00,A,4003.46380,N,08254.88512,W,000.00,000.0,241213,06.7,W,D*33
$PTNLRTF,V,A,177022,08,3,4003.46380,N,08254.88512,W,00258,+000.000,+000.000,+000.000,0,1*56
$PTNLRBA,1,1*57
$GPZDA,011008.00,24,12,2013,,*6B
$GPGGA,011008.00,4003.46380,N,08254.88503,W,2,08,1.06,00258,M,-033,M,,*5B
$GPGLL,4003.46380,N,08254.88503,W,011008.00,A,D*75
$GPVTG,000.0,T,006.7,M,000.00,N,000.00,K,D*27
$GPGSA,A,3,25,01,31,32,14,20,16,22,,,,,1.92,1.06,1.60*0D
$GPGSV,3,1,10,25,34,052,48,01,14,270,44,29,05,090,34,31,78,344,50*7B
$GPGSV,3,2,10,32,58,287,50,14,45,089,44,20,25,311,45,16,08,192,44*7A
$GPGSV,3,3,10,22,14,159,46,46,43,203,46,,,,,,,,*74
$GPGST,011008.00,,018.79,018.56,012.9,004.31,004.33,004.40*44
$GPRMC,011008.00,A,4003.46380,N,08254.88503,W,000.00,000.0,241213,06.7,W,D*3D
$PTNLRTF,V,A,177024,08,3,4003.46380,N,08254.88503,W,00258,+000.000,+000.000,+000.000,0,1*50
$PTNLRBA,1,1*57
$GPZDA,011009.00,24,12,2013,,*6A
$GPGGA,011009.00,4003.46382,N,08254.88498,W,2,08,1.06,00258,M,-033,M,,*5B
$GPGLL,4003.46382,N,08254.88498,W,011009.00,A,D*75
$GPVTG,000.0,T,006.7,M,000.00,N,000.00,K,D*27
$GPGSA,A,3,25,01,31,32,14,20,16,22,,,,,1.92,1.06,1.60*0D
$GPGSV,3,1,10,25,34,052,47,01,14,270,42,29,05,090,32,31,78,344,49*7C
$GPGSV,3,2,10,32,58,287,50,14,45,089,45,20,25,311,45,16,08,192,43*7C
$GPGSV,3,3,10,22,14,159,46,46,43,203,46,,,,,,,,*74
$GPGST,011009.00,,018.43,018.23,015.6,004.27,004.29,004.36*4B
$GPRMC,011009.00,A,4003.46382,N,08254.88498,W,000.00,000.0,241213,06.7,W,D*3D
$PTNLRTF,V,A,177025,08,3,4003.46382,N,08254.88498,W,00258,+000.000,+000.000,+000.000,0,1*50
$PTNLRBA,1,1*57
