$GPZDA,014535.00,24,12,2013,,*65
$GPGGA,014535.00,4003.48378,N,08254.66609,W,2,09,0.87,00247,M,-033,M,,*52
$GPGLL,4003.48378,N,08254.66609,W,014535.00,A,D*7B
$GPVTG,000.0,T,006.7,M,000.00,N,000.00,K,D*27
$GPGSA,A,3,25,01,29,31,32,14,20,16,23,,,,1.51,0.87,1.23*07
$GPGSV,3,1,10,25,22,043,34,01,06,257,46,29,12,076,35,31,66,027,38*7B
$GPGSV,3,2,10,32,61,255,29,14,33,105,43,20,35,299,32,16,23,193,47*79
$GPGSV,3,3,10,46,43,203,45,23,12,302,47,,,,,,,,*7D
$GPGST,014535.00,,194.00,193.93,086.2,013.93,013.93,013.94*41
$GPRMC,014535.00,A,4003.48378,N,08254.66609,W,000.00,000.0,241213,06.7,W,D*33$GPZDA,014538.00,24,12,2013,,*68
$GPGGA,014538.00,4003.48376,N,08254.66607,W,2,09,0.87,00247,M,-033,M,,*5F
$GPGLL,4003.48376,N,08254.66607,W,014538.00,A,D*76
$GPVTG,000.0,T,006.7,M,000.00,N,000.00,K,D*27
$GPGSA,A,3,25,01,29,31,32,14,20,16,23,,,,1.51,0.87,1.23*07
$GPGSV,3,1,10,25,22,043,32,01,06,256,44,29,12,076,36,31,66,027,38*7D
$GPGSV,3,2,10,32,61,254,30,14,33,105,41,20,36,299,32,16,24,193,46*77
$GPGSV,3,3,10,46,43,203,45,23,12,302,47,,,,,,,,*7D
$GPGST,014538.00,,204.13,204.06,086.3,014.29,014.28,014.30*4C
$GPRMC,014538.00,A,4003.48376,N,08254.66607,W,000.00,000.0,241213,06.7,W,D*3E
$PTNLRTF,V,A,179154,09,3,4003.48376,N,08254.66607,W,00247,+000.000,+000.000,+000.000,0,1*57
$PTNLRBA,1,1*57
$GPZDA,014540.00,24,12,2013,,*67
$GPGGA,014540.00,4003.48373,N,08254.66606,W,2,09,0.87,00247,M,-033,M,,*54
$GPGLL,4003.48373,N,08254.66606,W,014540.00,A,D*7D
$GPVTG,000.0,T,006.7,M,000.00,N,000.00,K,D*27
$GPGSA,A,3,25,01,29,31,32,14,20,16,23,,,,1.51,0.87,1.23*07
$GPGSV,3,1,10,25,22,043,33,01,06,256,44,29,12,076,34,31,66,027,38*7E
$GPGSV,3,2,10,32,61,254,32,14,33,105,42,20,36,299,33,16,24,193,46*77
$GPGSV,3,3,10,46,43,203,44,23,12,302,48,,,,,,,,*73
$GPGST,014540.00,,208.37,208.31,086.3,014.44,014.43,014.45*45
$GPRMC,014540.00,A,4003.48373,N,08254.66606,W,000.00,000.0,241213,06.7,W,D*35
$PTNLRTF,V,A,179156,09,3,4003.48373,N,08254.66606,W,00247,+000.000,+000.000,+000.000,0,1*51
$PTNLRBA,1,1*57
$GPZDA,014541.00,24,12,2013,,*66
$GPGGA,014541.00,4003.48371,N,08254.66606,W,2,09,0.87,00247,M,-033,M,,*57
$GPGLL,4003.48371,N,08254.66606,W,014541.00,A,D*7E
$GPVTG,000.0,T,006.7,M,000.00,N,000.00,K,D*27
$GPGSA,A,3,25,01,29,31,32,14,20,16,23,,,,1.51,0.87,1.23*07
$GPGSV,3,1,10,25,22,043,31,01,06,256,44,29,12,076,34,31,66,027,38*7C
$GPGSV,3,2,10,32,61,254,32,14,33,105,42,20,36,299,33,16,24,193,44*75
$GPGSV,3,3,10,46,43,203,44,23,12,302,47,,,,,,,,*7C
$GPGST,014541.00,,204.33,204.26,086.4,014.29,014.29,014.31*45
$GPRMC,014541.00,A,4003.48371,N,08254.66606,W,000.00,000.0,241213,06.7,W,D*36
$PTNLRTF,V,A,179157,09,3,4003.48371,N,08254.66606,W,00247,+000.000,+000.000,+000.000,0,1*52
$PTNLRBA,1,1*57
$GPZDA,014543.00,24,12,2013,,*64
$GPGGA,014543.00,4003.48366,N,08254.66606,W,2,08,0.89,00247,M,-033,M,,*5C
$GPGLL,4003.48366,N,08254.66606,W,014543.00,A,D*7A
$GPVTG,000.0,T,006.7,M,000.00,N,000.00,K,D*27
$GPGSA,A,3,25,01,29,32,14,20,16,23,,,,,1.76,0.89,1.52*08
$GPGSV,3,1,10,25,22,043,32,01,06,256,44,29,12,076,34,31,66,027,38*7F
$GPGSV,3,2,10,32,61,254,31,14,33,105,42,20,36,299,34,16,24,193,44*71
$GPGSV,3,3,10,46,43,203,44,23,12,302,47,,,,,,,,*7C
$GPGST,014543.00,,200.92,200.85,086.5,014.17,014.17,014.19*4E
$GPRMC,014543.00,A,4003.48366,N,08254.66606,W,000.00,000.0,241213,06.7,W,D*32
$PTNLRTF,V,A,179159,08,3,4003.48366,N,08254.66606,W,00247,+000.000,+000.000,+000.000,0,1*5B
$PTNLRBA,1,1*57
$GPZDA,014544.00,24,12,2013,,*63
$GPGGA,014544.00,4003.48365,N,08254.66606,W,2,09,0.87,00247,M,-033,M,,*57
$GPGLL,4003.48365,N,08254.66606,W,014544.00,A,D*7E
$GPVTG,000.0,T,006.7,M,000.00,N,000.00,K,D*27
$GPGSA,A,3,25,01,29,31,32,14,20,16,23,,,,1.51,0.87,1.23*07
$GPGSV,3,1,10,25,22,043,34,01,06,256,45,29,12,076,34,31,66,027,38*78
$GPGSV,3,2,10,32,61,254,31,14,33,105,42,20,36,299,33,16,24,193,45*77
$GPGSV,3,3,10,46,43,203,45,23,12,302,47,,,,,,,,*7D
$GPGST,014544.00,,207.38,207.31,086.6,014.40,014.40,014.41*48
$GPRMC,014544.00,A,4003.48365,N,08254.66606,W,000.00,000.0,241213,06.7,W,D*36
$PTNLRTF,V,A,179160,09,3,4003.48365,N,08254.66606,W,00247,+000.000,+000.000,+000.000,0,1*53
$PTNLRBA,1,1*57
$GPZDA,014546.00,24,12,2013,,*61
$GPGGA,014546.00,4003.48364,N,08254.66604,W,2,09,0.87,00247,M,-033,M,,*56
$GPGLL,4003.48364,N,08254.66604,W,014546.00,A,D*7F
$GPVTG,000.0,T,006.7,M,000.00,N,000.00,K,D*27
$GPGSA,A,3,25,01,29,31,32,14,20,16,23,,,,1.51,0.87,1.23*07
$GPGSV,3,1,10,25,22,043,35,01,06,256,46,29,12,076,36,31,66,027,38*78
$GPGSV,3,2,10,32,61,254,30,14,33,105,41,20,36,299,32,16,24,193,46*77
$GPGSV,3,3,10,46,43,203,45,23,12,302,47,,,,,,,,*7D
$GPGST,014546.00,,206.28,206.22,086.5,014.36,014.36,014.37*4B
$GPRMC,014546.00,A,4003.48364,N,08254.66604,W,000.00,000.0,241213,06.7,W,D*37
$PTNLRTF,V,A,179162,09,3,4003.48364,N,08254.66604,W,00247,+000.000,+000.000,+000.000,0,1*52
$PTNLRBA,1,1*57
$GPZDA,014547.00,24,12,2013,,*60
$GPGGA,014547.00,4003.48363,N,08254.66603,W,2,09,0.87,00247,M,-033,M,,*57
$GPGLL,4003.48363,N,08254.66603,W,014547.00,A,D*7E
$GPVTG,000.0,T,006.7,M,000.00,N,000.00,K,D*27
$GPGSA,A,3,25,01,29,31,32,14,20,16,23,,,,1.51,0.87,1.23*07
$GPGSV,3,1,10,25,22,043,35,01,06,256,45,29,12,076,36,31,66,027,39*7A
$GPGSV,3,2,10,32,61,254,29,14,33,105,41,20,36,299,32,16,24,193,45*7C
$GPGSV,3,3,10,46,43,203,45,23,12,302,47,,,,,,,,*7D
$GPGST,014547.00,,205.24,205.17,086.5,014.33,014.32,014.34*42
$GPRMC,014547.00,A,4003.48363,N,08254.66603,W,000.00,000.0,241213,06.7,W,D*36
$PTNLRTF,V,A,179163,09,3,4003.48363,N,08254.66603,W,00247,+000.000,+000.000,+000.000,0,1*53
$PTNLRBA,1,1*57
$GPZDA,014549.00,24,12,2013,,*6E
$GPGGA,014549.00,4003.48362,N,08254.66604,W,2,09,0.87,00247,M,-033,M,,*5F
$GPGLL,4003.48362,N,08254.66604,W,014549.00,A,D*76
$GPVTG,000.0,T,006.7,M,000.00,N,000.00,K,D*27
$GPGSA,A,3,25,01,29,31,32,14,20,16,23,,,,1.51,0.87,1.23*07
$GPGSV,3,1,10,25,22,043,34,01,06,256,46,29,12,076,35,31,66,027,38*7A
$GPGSV,3,2,10,32,61,254,31,14,33,105,41,20,36,299,33,16,24,193,46*77
$GPGSV,3,3,10,46,43,203,44,23,12,302,46,,,,,,,,*7D
$GPGST,014549.00,,203.23,203.17,086.5,014.26,014.25,014.27*4B
$GPRMC,014549.00,A,4003.48362,N,08254.66604,W,000.00,000.0,241213,06.7,W,D*3E
$PTNLRTF,V,A,179165,09,3,4003.48362,N,08254.66604,W,00247,+000.000,+000.000,+000.000,0,1*53
$PTNLRBA,1,1*57
$GPZDA,014550.00,24,12,2013,,*66
$GPGGA,014550.00,4003.48362,N,08254.66604,W,2,09,0.87,00247,M,-033,M,,*57
$GPGLL,4003.48362,N,08254.66604,W,014550.00,A,D*7E
$GPVTG,000.0,T,006.7,M,000.00,N,000.00,K,D*27
$GPGSA,A,3,25,01,29,31,32,14,20,16,23,,,,1.51,0.87,1.23*07
$GPGSV,3,1,10,25,22,043,34,01,06,256,45,29,12,076,35,31,66,027,38*79
$GPGSV,3,2,10,32,61,254,32,14,33,105,41,20,36,299,32,16,24,193,45*76
$GPGSV,3,3,10,46,43,203,44,23,12,302,47,,,,,,,,*7C
$GPGST,014550.00,,206.64,206.58,086.5,014.38,014.37,014.39*48
$GPRMC,014550.00,A,4003.48362,N,08254.66604,W,000.00,000.0,241213,06.7,W,D*36
$PTNLRTF,V,A,179166,09,3,4003.48362,N,08254.66604,W,00247,+000.000,+000.000,+000.000,0,1*50
$PTNLRBA,1,1*57
$GPZDA,014552.00,24,12,2013,,*64
$GPGGA,014552.00,4003.48361,N,08254.66602,W,2,09,0.87,00247,M,-033,M,,*50
$GPGLL,4003.48361,N,08254.66602,W,014552.00,A,D*79
$GPVTG,000.0,T,006.7,M,000.00,N,000.00,K,D*27
$GPGSA,A,3,25,01,29,31,32,14,20,16,23,,,,1.51,0.87,1.23*07
$GPGSV,3,1,10,25,22,043,34,01,06,256,45,29,12,076,34,31,66,027,38*78
$GPGSV,3,2,10,32,61,254,33,14,33,105,41,20,36,299,34,16,24,193,46*72
$GPGSV,3,3,10,46,43,203,45,23,12,302,46,,,,,,,,*7C
$GPGST,014552.00,,211.91,211.84,086.6,014.56,014.55,014.57*46
$GPRMC,014552.00,A,4003.48361,N,08254.66602,W,000.00,000.0,241213,06.7,W,D*31
$PTNLRTF,V,A,179168,09,3,4003.48361,N,08254.66602,W,00247,+000.000,+000.000,+000.000,0,1*5B
$PTNLRBA,1,1*57
$GPZDA,014553.00,24,12,2013,,*65
$GPGGA,014553.00,4003.48360,N,08254.66602,W,2,09,0.87,00247,M,-033,M,,*50
$GPGLL,4003.48360,N,08254.66602,W,014553.00,A,D*79
$GPVTG,000.0,T,006.7,M,000.00,N,000.00,K,D*27
$GPGSA,A,3,25,01,29,31,32,14,20,16,23,,,,1.51,0.87,1.23*07
$GPGSV,3,1,10,25,22,043,34,01,06,256,46,29,12,076,34,31,66,027,38*7B
$GPGSV,3,2,10,32,61,254,33,14,33,105,41,20,36,299,33,16,24,193,45*76
$GPGSV,3,3,10,46,43,203,44,23,12,302,46,,,,,,,,*7D
$GPGST,014553.00,,209.37,209.30,086.6,014.47,014.47,014.48*49
$GPRMC,014553.00,A,4003.48360,N,08254.66602,W,000.00,000.0,241213,06.7,W,D*31
$PTNLRTF,V,A,179170,09,3,4003.48360,N,08254.66602,W,00247,+000.000,+000.000,+000.000,0,1*53
$PTNLRBA,1,1*57
$GPZDA,014555.00,24,12,2013,,*63
$GPGGA,014555.00,4003.48358,N,08254.66601,W,2,09,0.87,00247,M,-033,M,,*5E
$GPGLL,4003.48358,N,08254.66601,W,014555.00,A,D*77
$GPVTG,000.0,T,006.7,M,000.00,N,000.00,K,D*27
$GPGSA,A,3,25,01,29,31,32,14,20,16,23,,,,1.51,0.87,1.23*07
$GPGSV,3,1,10,25,22,043,34,01,06,256,45,29,12,076,33,31,66,027,40*70
$GPGSV,3,2,10,32,61,254,34,14,33,105,41,20,36,299,33,16,24,193,45*71
$GPGSV,3,3,10,46,43,203,45,23,12,302,47,,,,,,,,*7D
$GPGST,014555.00,,203.37,203.31,086.6,014.26,014.26,014.27*47
$GPRMC,014555.00,A,4003.48358,N,08254.66601,W,000.00,000.0,241213,06.7,W,D*3F
$PTNLRTF,V,A,179171,09,3,4003.48358,N,08254.66601,W,00247,+000.000,+000.000,+000.000,0,1*5A
$PTNLRBA,1,1*57
$GPZDA,014556.00,24,12,2013,,*60
$GPGGA,014556.00,4003.48353,N,08254.66606,W,2,09,0.87,00247,M,-033,M,,*51
$GPGLL,4003.48353,N,08254.66606,W,014556.00,A,D*78
$GPVTG,227.0,T,233.7,M,000.20,N,000.37,K,D*22
$GPGSA,A,3,25,01,29,31,32,14,20,16,23,,,,1.51,0.87,1.23*07
$GPGSV,3,1,10,25,22,043,34,01,06,256,44,29,12,076,33,31,66,027,38*7E
$GPGSV,3,2,10,32,61,254,32,14,33,105,41,20,36,299,32,16,24,193,45*76
$GPGSV,3,3,10,46,43,203,44,23,12,302,47,,,,,,,,*7C
$GPGST,014556.00,,197.03,196.97,088.7,014.04,014.03,014.05*46
$GPRMC,014556.00,A,4003.48353,N,08254.66606,W,000.20,227.0,241213,06.7,W,D*35
$PTNLRTF,V,A,179172,09,3,4003.48353,N,08254.66606,W,00247,-000.076,-000.071,+000.250,0,1*55
$PTNLRBA,1,1*57
$GPZDA,014558.00,24,12,2013,,*6E
$GPGGA,014558.00,4003.48350,N,08254.66605,W,2,09,0.87,00247,M,-033,M,,*5F
$GPGLL,4003.48350,N,08254.66605,W,014558.00,A,D*76
$GPVTG,000.0,T,006.7,M,000.00,N,000.00,K,D*27
$GPGSA,A,3,25,01,29,31,32,14,20,16,23,,,,1.51,0.87,1.23*07
$GPGSV,3,1,10,25,22,043,34,01,06,256,44,29,12,076,33,31,66,027,37*71
$GPGSV,3,2,10,32,61,254,34,14,33,105,41,20,36,299,33,16,24,193,45*71
$GPGSV,3,3,10,46,43,203,44,23,12,302,47,,,,,,,,*7C
$GPGST,014558.00,,193.53,193.47,088.9,013.91,013.91,013.92*41
$GPRMC,014558.00,A,4003.48350,N,08254.66605,W,000.00,000.0,241213,06.7,W,D*3E
$PTNLRTF,V,A,179174,09,3,4003.48350,N,08254.66605,W,00247,+000.000,+000.000,+000.000,0,1*53
$PTNLRBA,1,1*57
$GPZDA,014559.00,24,12,2013,,*6F
$GPGGA,014559.00,4003.48349,N,08254.66604,W,2,09,0.87,00247,M,-033,M,,*57
$GPGLL,4003.48349,N,08254.66604,W,014559.00,A,D*7E
$GPVTG,000.0,T,006.7,M,000.00,N,000.00,K,D*27
$GPGSA,A,3,25,01,29,31,32,14,20,16,23,,,,1.51,0.87,1.23*07
$GPGSV,3,1,10,25,22,043,34,01,06,256,44,29,12,076,34,31,66,027,38*79
$GPGSV,3,2,10,32,61,254,33,14,33,105,41,20,36,299,33,16,24,193,46*75
$GPGSV,3,3,10,46,43,203,45,23,12,302,47,,,,,,,,*7D
$GPGST,014559.00,,188.25,188.18,088.8,013.72,013.72,013.73*45
$GPRMC,014559.00,A,4003.48349,N,08254.66604,W,000.00,000.0,241213,06.7,W,D*36
$PTNLRTF,V,A,179175,09,3,4003.48349,N,08254.66604,W,00247,+000.000,+000.000,+000.000,0,1*5B
$PTNLRBA,1,1*57
