$GPZDA,,,,,,*48
$GPGGA,,3917.26161,N,08203.79979,W,7,00,,,,,,,*46
$GPGLL,3917.26161,N,08203.79979,W,,V,M*40
$GPVTG,,,,,,,,,M*33
$GPGSA,A,1,,,,,,,,,,,,,,,*1E
$GPGSV,1,1,00,,,,,,,,,,,,,,,,*79
$GPRMC,,V,3917.26161,N,08203.79979,W,,,,,,M*77
$PTNLRTF,V,A,,00,0,,,,,,,,,,*4D
$PTNLRBA,1,1*57
$GPZDA,,,,,,*48
$GPGGA,,3917.26161,N,08203.79979,W,7,00,,,,,,,*46
$GPGLL,3917.26161,N,08203.79979,W,,V,M*40
$GPVTG,,,,,,,,,M*33
$GPGSA,A,1,,,,,,,,,,,,,,,*1E
$GPGSV,1,1,00,,,,,,,,,,,,,,,,*79
$GPRMC,,V,3917.26161,N,08203.79979,W,,,,,,M*77
$PTNLRTF,V,A,,00,0,,,,,,,,,,*4D
$PTNLRBA,1,1*57
$GPZDA,,,,,,*48
$GPGGA,,3917.26161,N,08203.79979,W,7,00,,,,,,,*46
$GPGLL,3917.26161,N,08203.79979,W,,V,M*40
$GPVTG,,,,,,,,,M*33
$GPGSA,A,1,,,,,,,,,,,,,,,*1E
$GPGSV,1,1,04,23,,000,38,06,,000,46,20,,000,39,13,,000,39*73
$GPRMC,,V,3917.26161,N,08203.79979,W,,,,,,M*77
$PTNLRTF,V,A,,00,0,,,,,,,,,,*4D
$PTNLRBA,1,1*57
$GPZDA,,,,,,*48
$GPGGA,,3917.26161,N,08203.79979,W,7,00,,,,,,,*46
$GPGLL,3917.26161,N,08203.79979,W,,V,M*40
$GPVTG,,,,,,,,,M*33
$GPGSA,A,1,,,,,,,,,,,,,,,*1E
$GPGSV,2,1,06,23,,000,40,06,,000,47,20,,000,39,13,,000,34*71
$GPGSV,2,2,06,27,,000,39,03,,000,36,,,,,,,,*76
$GPRMC,,V,3917.26161,N,08203.79979,W,,,,,,M*77
$PTNLRTF,V,A,,00,0,,,,,,,,,,*4D
$PTNLRBA,1,1*57
$GPZDA,,,,,,*48
$GPGGA,,3917.26161,N,08203.79979,W,7,00,,,,,,,*46
$GPGLL,3917.26161,N,08203.79979,W,,V,M*40
$GPVTG,,,,,,,,,M*33
$GPGSA,A,1,,,,,,,,,,,,,,,*1E
$GPGSV,2,1,06,23,,000,40,06,,000,46,20,,000,39,13,,000,34*70
$GPGSV,2,2,06,27,,000,39,03,,000,39,,,,,,,,*79
$GPRMC,,V,3917.26161,N,08203.79979,W,,,,,,M*77
$PTNLRTF,V,A,,00,0,,,,,,,,,,*4D
$PTNLRBA,1,1*57
$GPZDA,,,,,,*48
$GPGGA,,3917.26161,N,08203.79979,W,7,00,,,,,,,*46
$GPGLL,3917.26161,N,08203.79979,W,,V,M*40
$GPVTG,,,,,,,,,M*33
$GPGSA,A,1,,,,,,,,,,,,,,,*1E
$GPGSV,2,1,06,23,,000,40,06,,000,46,20,,000,39,13,,000,37*73
$GPGSV,2,2,06,27,,000,38,03,,000,40,,,,,,,,*76
$GPRMC,,V,3917.26161,N,08203.79979,W,,,,,,M*77
$PTNLRTF,V,A,587498,00,0,,,,,,,,,,*42
$PTNLRBA,1,1*57
$GPZDA,,,,,,*48
$GPGGA,,3917.26161,N,08203.79979,W,7,00,,,,,,,*46
$GPGLL,3917.26161,N,08203.79979,W,,V,M*40
$GPVTG,,,,,,,,,M*33
$GPGSA,A,1,,,,,,,,,,,,,,,*1E
$GPGSV,2,1,06,23,49,311,39,06,22,156,46,20,34,247,38,13,15,312,35*70
$GPGSV,2,2,06,27,14,162,37,03,07,180,40,,,,,,,,*77
$GPRMC,,V,3917.26161,N,08203.79979,W,,,,,,M*77
$PTNLRTF,V,A,587499,00,0,,,,,,,,,,*43
$PTNLRBA,1,1*57
$GPZDA,,,,,,*48
$GPGGA,,3917.26161,N,08203.79979,W,7,00,,,,,,,*46
$GPGLL,3917.26161,N,08203.79979,W,,V,M*40
$GPVTG,,,,,,,,,M*33
$GPGSA,A,1,,,,,,,,,,,,,,,*1E
$GPGSV,2,1,07,23,49,311,40,06,22,156,46,20,34,247,38,13,15,312,35*7F
$GPGSV,2,2,07,27,14,162,37,03,07,180,40,16,67,204,36,,,,*43
$GPRMC,,V,3917.26161,N,08203.79979,W,,,,,,M*77
$PTNLRTF,V,A,587500,00,0,,,,,,,,,,*42
$PTNLRBA,1,1*57
$GPZDA,,,,,,*48
$GPGGA,,3917.26161,N,08203.79979,W,7,00,,,,,,,*46
$GPGLL,3917.26161,N,08203.79979,W,,V,M*40
$GPVTG,,,,,,,,,M*33
$GPGSA,A,1,,,,,,,,,,,,,,,*1E
$GPGSV,2,1,07,23,49,311,40,06,22,156,45,20,34,247,37,13,15,312,36*70
$GPGSV,2,2,07,27,14,162,37,03,07,180,41,16,67,204,37,,,,*43
$GPRMC,,V,3917.26161,N,08203.79979,W,,,,,,M*77
$PTNLRTF,V,A,587501,00,0,,,,,,,,,,*43
$PTNLRBA,1,1*57
$GPZDA,,,,,,*48
$GPGGA,,3917.26161,N,08203.79979,W,7,00,,,,,,,*46
$GPGLL,3917.26161,N,08203.79979,W,,V,M*40
$GPVTG,,,,,,,,,M*33
$GPGSA,A,1,,,,,,,,,,,,,,,*1E
$GPGSV,2,1,08,23,49,311,40,06,22,156,45,20,34,247,38,13,15,312,35*73
$GPGSV,2,2,08,27,14,162,38,03,07,180,41,16,67,204,36,31,43,062,33*73
$GPRMC,,V,3917.26161,N,08203.79979,W,,,,,,M*77
$PTNLRTF,V,A,587502,00,0,,,,,,,,,,*40
$PTNLRBA,1,1*57
$GPZDA,,,,,,*48
$GPGGA,,3917.26161,N,08203.79979,W,7,00,,,,,,,*46
$GPGLL,3917.26161,N,08203.79979,W,,V,M*40
$GPVTG,,,,,,,,,M*33
$GPGSA,A,1,,,,,,,,,,,,,,,*1E
$GPGSV,3,1,09,23,49,311,40,06,22,156,45,20,34,247,38,13,15,312,35*73
$GPGSV,3,2,09,27,14,162,39,03,07,180,42,16,67,204,36,31,43,062,34*76
$GPGSV,3,3,09,32,29,203,29,,,,,,,,,,,,*40
$GPRMC,,V,3917.26161,N,08203.79979,W,,,,,,M*77
$PTNLRTF,V,A,587503,00,0,,,,,,,,,,*41
$PTNLRBA,1,1*57
$GPZDA,,,,,,*48
$GPGGA,,3917.26161,N,08203.79979,W,7,00,,,,,,,*46
$GPGLL,3917.26161,N,08203.79979,W,,V,M*40
$GPVTG,,,,,,,,,M*33
$GPGSA,A,1,,,,,,,,,,,,,,,*1E
$GPGSV,3,1,09,23,49,311,41,06,22,156,45,20,34,247,38,13,15,312,35*72
$GPGSV,3,2,09,27,14,162,40,03,07,180,41,16,67,204,36,31,43,062,36*79
$GPGSV,3,3,09,32,29,203,25,,,,,,,,,,,,*4C
$GPRMC,,V,3917.26161,N,08203.79979,W,,,,,,M*77
$PTNLRTF,V,A,587504,00,0,,,,,,,,,,*46
$PTNLRBA,1,1*57
$GPZDA,,,,,,*48
$GPGGA,,3917.26161,N,08203.79979,W,7,00,,,,,,,*46
$GPGLL,3917.26161,N,08203.79979,W,,V,M*40
$GPVTG,,,,,,,,,M*33
$GPGSA,A,1,,,,,,,,,,,,,,,*1E
$GPGSV,3,1,09,23,49,311,41,06,22,156,45,20,34,247,38,13,15,312,37*70
$GPGSV,3,2,09,27,14,162,40,03,07,180,41,16,67,204,35,31,43,062,36*7A
$GPGSV,3,3,09,32,29,203,22,,,,,,,,,,,,*4B
$GPRMC,,V,3917.26161,N,08203.79979,W,,,,,,M*77
$PTNLRTF,V,A,587505,00,0,,,,,,,,,,*47
$PTNLRBA,1,1*57
$GPZDA,,,,,,*48
$GPGGA,,3917.26161,N,08203.79979,W,7,00,,,,,,,*46
$GPGLL,3917.26161,N,08203.79979,W,,V,M*40
$GPVTG,,,,,,,,,M*33
$GPGSA,A,1,,,,,,,,,,,,,,,*1E
$GPGSV,3,1,09,23,49,311,41,06,22,156,45,20,34,247,39,13,15,312,36*70
$GPGSV,3,2,09,27,14,162,40,03,07,180,42,16,67,204,36,31,43,062,34*78
$GPGSV,3,3,09,32,29,203,25,,,,,,,,,,,,*4C
$GPRMC,,V,3917.26161,N,08203.79979,W,,,,,,M*77
$PTNLRTF,V,A,587506,00,0,,,,,,,,,,*44
$PTNLRBA,1,1*57
$GPZDA,,,,,,*48
$GPGGA,,3917.26161,N,08203.79979,W,7,00,,,,,,,*46
$GPGLL,3917.26161,N,08203.79979,W,,V,M*40
$GPVTG,,,,,,,,,M*33
$GPGSA,A,1,,,,,,,,,,,,,,,*1E
$GPGSV,3,1,09,23,49,311,41,06,22,156,45,20,34,247,38,13,15,312,34*73
$GPGSV,3,2,09,27,14,162,40,03,07,180,42,16,67,204,36,31,43,062,33*7F
$GPGSV,3,3,09,32,29,203,24,,,,,,,,,,,,*4D
$GPRMC,,V,3917.26161,N,08203.79979,W,,,,,,M*77
$PTNLRTF,V,A,587507,00,0,,,,,,,,,,*45
$PTNLRBA,1,1*57
$GPZDA,,,,,,*48
$GPGGA,,3917.26161,N,08203.79979,W,7,00,,,,,,,*46
$GPGLL,3917.26161,N,08203.79979,W,,V,M*40
$GPVTG,,,,,,,,,M*33
$GPGSA,A,1,,,,,,,,,,,,,,,*1E
$GPGSV,3,1,09,23,49,311,42,06,22,156,45,20,34,247,38,13,15,312,35*71
$GPGSV,3,2,09,27,14,162,40,03,07,180,42,16,67,204,34,31,43,062,34*7A
$GPGSV,3,3,09,32,29,203,26,,,,,,,,,,,,*4F
$GPRMC,,V,3917.26161,N,08203.79979,W,,,,,,M*77
$PTNLRTF,V,A,587508,00,0,,,,,,,,,,*4A
$PTNLRBA,1,1*57
$GPZDA,,,,,,*48
$GPGGA,,3917.26161,N,08203.79979,W,7,00,,,,,,,*46
$GPGLL,3917.26161,N,08203.79979,W,,V,M*40
$GPVTG,,,,,,,,,M*33
$GPGSA,A,1,,,,,,,,,,,,,,,*1E
$GPGSV,3,1,09,23,49,311,41,06,22,156,45,20,34,247,39,13,15,312,34*72
$GPGSV,3,2,09,27,14,162,40,03,07,180,42,16,67,204,34,31,43,062,33*7D
$GPGSV,3,3,09,32,29,203,26,,,,,,,,,,,,*4F
$GPRMC,,V,3917.26161,N,08203.79979,W,,,,,,M*77
$PTNLRTF,V,A,587509,00,0,,,,,,,,,,*4B
$PTNLRBA,1,1*57
$GPZDA,,,,,,*48
$GPGGA,,3917.26161,N,08203.79979,W,7,00,,,,,,,*46
$GPGLL,3917.26161,N,08203.79979,W,,V,M*40
$GPVTG,,,,,,,,,M*33
$GPGSA,A,1,,,,,,,,,,,,,,,*1E
$GPGSV,3,1,09,23,49,311,43,06,22,156,45,20,34,247,39,13,15,312,35*71
$GPGSV,3,2,09,27,14,162,40,03,07,180,42,16,67,204,36,31,43,062,35*79
$GPGSV,3,3,09,32,29,203,26,,,,,,,,,,,,*4F
$GPRMC,,V,3917.26161,N,08203.79979,W,,,,,,M*77
$PTNLRTF,V,A,587510,00,0,,,,,,,,,,*43
$PTNLRBA,1,1*57
$GPZDA,,,,,,*48
$GPGGA,,3917.26161,N,08203.79979,W,7,00,,,,,,,*46
$GPGLL,3917.26161,N,08203.79979,W,,V,M*40
$GPVTG,,,,,,,,,M*33
$GPGSA,A,1,,,,,,,,,,,,,,,*1E
$GPGSV,3,1,09,23,49,311,42,06,22,156,45,20,34,247,39,13,15,312,33*76
$GPGSV,3,2,09,27,14,162,41,03,07,180,41,16,67,204,37,31,43,062,33*7C
$GPGSV,3,3,09,32,29,203,26,,,,,,,,,,,,*4F
$GPRMC,,V,3917.26161,N,08203.79979,W,,,,,,M*77
$PTNLRTF,V,A,587511,00,0,,,,,,,,,,*42
$PTNLRBA,1,1*57
$GPZDA,,,,,,*48
$GPGGA,,3917.26161,N,08203.79979,W,7,00,,,,,,,*46
$GPGLL,3917.26161,N,08203.79979,W,,V,M*40
$GPVTG,,,,,,,,,M*33
$GPGSA,A,1,,,,,,,,,,,,,,,*1E
$GPGSV,3,1,09,23,49,311,41,06,22,156,45,20,34,247,39,13,15,312,31*77
$GPGSV,3,2,09,27,14,162,40,03,07,180,39,16,67,204,35,31,43,062,34*77
$GPGSV,3,3,09,32,29,203,14,,,,,,,,,,,,*4E
$GPRMC,,V,3917.26161,N,08203.79979,W,,,,,,M*77
$PTNLRTF,V,A,587512,00,0,,,,,,,,,,*41
$PTNLRBA,1,1*57
$GPZDA,,,,,,*48
$GPGGA,,3917.26161,N,08203.79979,W,7,00,,,,,,,*46
$GPGLL,3917.26161,N,08203.79979,W,,V,M*40
$GPVTG,,,,,,,,,M*33
$GPGSA,A,1,,,,,,,,,,,,,,,*1E
$GPGSV,3,1,10,23,49,311,41,06,22,156,45,20,34,247,39,13,15,312,29*76
$GPGSV,3,2,10,27,14,162,40,03,07,180,39,16,67,204,33,31,43,062,31*7C
$GPGSV,3,3,10,32,29,203,13,29,13,044,29,,,,,,,,*73
$GPRMC,,V,3917.26161,N,08203.79979,W,,,,,,M*77
$PTNLRTF,V,A,587513,00,0,,,,,,,,,,*40
$PTNLRBA,1,1*57
$GPZDA,,,,,,*48
$GPGGA,,3917.26161,N,08203.79979,W,7,00,,,,,,,*46
$GPGLL,3917.26161,N,08203.79979,W,,V,M*40
$GPVTG,,,,,,,,,M*33
$GPGSA,A,1,,,,,,,,,,,,,,,*1E
$GPGSV,3,1,10,23,49,311,41,06,22,156,45,20,34,247,39,13,15,312,31*7F
$GPGSV,3,2,10,27,14,162,40,03,07,180,39,16,67,204,33,31,43,063,30*7C
$GPGSV,3,3,10,32,29,203,16,29,13,044,23,,,,,,,,*7C
$GPRMC,,V,3917.26161,N,08203.79979,W,,,,,,M*77
$PTNLRTF,V,A,587514,00,0,,,,,,,,,,*47
$PTNLRBA,1,1*57
$GPZDA,,,,,,*48
$GPGGA,,3917.26161,N,08203.79979,W,7,00,,,,,,,*46
$GPGLL,3917.26161,N,08203.79979,W,,V,M*40
$GPVTG,,,,,,,,,M*33
$GPGSA,A,1,,,,,,,,,,,,,,,*1E
$GPGSV,3,1,10,23,49,311,41,06,22,156,45,20,34,247,39,13,15,312,31*7F
$GPGSV,3,2,10,27,14,162,40,03,07,180,39,16,67,204,34,31,43,063,31*7A
$GPGSV,3,3,10,32,29,203,25,29,13,044,23,,,,,,,,*7C
$GPRMC,,V,3917.26161,N,08203.79979,W,,,,,,M*77
$PTNLRTF,V,A,587515,00,0,,,,,,,,,,*46
$PTNLRBA,1,1*57
$GPZDA,,,,,,*48
$GPGGA,,3917.26161,N,08203.79979,W,7,00,,,,,,,*46
$GPGLL,3917.26161,N,08203.79979,W,,V,M*40
$GPVTG,,,,,,,,,M*33
$GPGSA,A,1,,,,,,,,,,,,,,,*1E
$GPGSV,3,1,10,23,49,311,41,06,22,156,45,20,34,247,39,13,15,312,30*7E
$GPGSV,3,2,10,27,14,162,40,03,07,180,40,16,67,204,35,31,43,063,31*75
$GPGSV,3,3,10,32,29,203,24,29,13,044,27,,,,,,,,*79
$GPRMC,,V,3917.26161,N,08203.79979,W,,,,,,M*77
$PTNLRTF,V,A,587516,00,0,,,,,,,,,,*45
$PTNLRBA,1,1*57
$GPZDA,,,,,,*48
$GPGGA,,3917.26161,N,08203.79979,W,7,00,,,,,,,*46
$GPGLL,3917.26161,N,08203.79979,W,,V,M*40
$GPVTG,,,,,,,,,M*33
$GPGSA,A,1,,,,,,,,,,,,,,,*1E
$GPGSV,3,1,10,23,49,311,42,06,22,156,45,20,34,247,39,13,15,312,31*7C
$GPGSV,3,2,10,27,14,162,39,03,07,180,40,16,67,204,34,31,43,063,31*7A
$GPGSV,3,3,10,32,29,203,24,29,13,044,24,,,,,,,,*7A
$GPRMC,,V,3917.26161,N,08203.79979,W,,,,,,M*77
$PTNLRTF,V,A,587517,00,0,,,,,,,,,,*44
$PTNLRBA,1,1*57
$GPZDA,,,,,,*48
$GPGGA,,3917.26161,N,08203.79979,W,7,00,,,,,,,*46
$GPGLL,3917.26161,N,08203.79979,W,,V,M*40
$GPVTG,,,,,,,,,M*33
$GPGSA,A,1,,,,,,,,,,,,,,,*1E
$GPGSV,3,1,10,23,49,311,41,06,22,156,45,20,34,247,38,13,15,312,34*7B
$GPGSV,3,2,10,27,14,162,38,03,07,180,40,16,67,204,33,31,43,063,31*7C
$GPGSV,3,3,10,32,29,203,25,29,13,044,25,,,,,,,,*7A
$GPRMC,,V,3917.26161,N,08203.79979,W,,,,,,M*77
$PTNLRTF,V,A,587518,00,0,,,,,,,,,,*4B
$PTNLRBA,1,1*57
$GPZDA,,,,,,*48
$GPGGA,,3917.26161,N,08203.79979,W,7,00,,,,,,,*46
$GPGLL,3917.26161,N,08203.79979,W,,V,M*40
$GPVTG,,,,,,,,,M*33
$GPGSA,A,1,,,,,,,,,,,,,,,*1E
$GPGSV,3,1,10,23,49,311,42,06,22,156,45,20,34,247,39,13,15,312,34*79
$GPGSV,3,2,10,27,14,162,39,03,07,180,40,16,67,204,32,31,43,063,33*7E
$GPGSV,3,3,10,32,29,203,25,29,13,044,26,,,,,,,,*79
$GPRMC,,V,3917.26161,N,08203.79979,W,,,,,,M*77
$PTNLRTF,V,A,587519,00,0,,,,,,,,,,*4A
$PTNLRBA,1,1*57
$GPZDA,,,,,,*48
$GPGGA,,3917.26161,N,08203.79979,W,7,00,,,,,,,*46
$GPGLL,3917.26161,N,08203.79979,W,,V,M*40
$GPVTG,,,,,,,,,M*33
$GPGSA,A,1,,,,,,,,,,,,,,,*1E
$GPGSV,3,1,10,23,49,311,42,06,22,156,46,20,34,247,39,13,15,312,33*7D
$GPGSV,3,2,10,27,14,162,38,03,07,180,40,16,67,204,33,31,43,063,33*7E
$GPGSV,3,3,10,32,29,203,24,29,13,044,30,,,,,,,,*7F
$GPRMC,,V,3917.26161,N,08203.79979,W,,,,,,M*77
$PTNLRTF,V,A,587520,00,0,,,,,,,,,,*40
$PTNLRBA,1,1*57
$GPZDA,,,,,,*48
$GPGGA,,3917.26161,N,08203.79979,W,7,00,,,,,,,*46
$GPGLL,3917.26161,N,08203.79979,W,,V,M*40
$GPVTG,,,,,,,,,M*33
$GPGSA,A,1,,,,,,,,,,,,,,,*1E
$GPGSV,3,1,10,23,49,311,43,06,22,156,45,20,34,247,39,13,15,312,33*7F
$GPGSV,3,2,10,27,14,162,39,03,07,180,40,16,67,204,33,31,43,063,33*7F
$GPGSV,3,3,10,32,29,203,26,29,13,044,31,,,,,,,,*7C
$GPRMC,,V,3917.26161,N,08203.79979,W,,,,,,M*77
$PTNLRTF,V,A,587521,00,0,,,,,,,,,,*41
$PTNLRBA,1,1*57
$GPZDA,,,,,,*48
$GPGGA,,3917.26161,N,08203.79979,W,7,00,,,,,,,*46
$GPGLL,3917.26161,N,08203.79979,W,,V,M*40
$GPVTG,,,,,,,,,M*33
$GPGSA,A,1,,,,,,,,,,,,,,,*1E
$GPGSV,3,1,10,23,49,311,43,06,22,156,44,20,34,247,39,13,15,312,30*7D
$GPGSV,3,2,10,27,14,162,39,03,07,180,40,16,67,204,31,31,43,063,32*7C
$GPGSV,3,3,10,32,29,203,26,29,13,044,30,,,,,,,,*7D
$GPRMC,,V,3917.26161,N,08203.79979,W,,,,,,M*77
$PTNLRTF,V,A,587522,00,0,,,,,,,,,,*42
$PTNLRBA,1,1*57
$GPZDA,,,,,,*48
$GPGGA,,3917.26161,N,08203.79979,W,7,00,,,,,,,*46
$GPGLL,3917.26161,N,08203.79979,W,,V,M*40
$GPVTG,,,,,,,,,M*33
$GPGSA,A,1,,,,,,,,,,,,,,,*1E
$GPGSV,3,1,10,23,49,311,43,06,22,156,45,20,34,247,39,13,15,312,31*7D
$GPGSV,3,2,10,27,14,162,39,03,07,180,40,16,67,204,32,31,43,063,32*7F
$GPGSV,3,3,10,32,29,203,25,29,13,044,30,,,,,,,,*7E
$GPRMC,,V,3917.26161,N,08203.79979,W,,,,,,M*77
$PTNLRTF,V,A,587523,00,0,,,,,,,,,,*43
$PTNLRBA,1,1*57
$GPZDA,,,,,,*48
$GPGGA,,3917.26161,N,08203.79979,W,7,00,,,,,,,*46
$GPGLL,3917.26161,N,08203.79979,W,,V,M*40
$GPVTG,,,,,,,,,M*33
$GPGSA,A,1,,,,,,,,,,,,,,,*1E
$GPGSV,3,1,10,23,49,311,44,06,22,156,45,20,34,247,39,13,15,312,30*7B
$GPGSV,3,2,10,27,14,162,40,03,07,180,40,16,67,204,31,31,43,063,32*72
$GPGSV,3,3,10,32,29,203,27,29,13,044,31,,,,,,,,*7D
$GPRMC,,V,3917.26161,N,08203.79979,W,,,,,,M*77
$PTNLRTF,V,A,587524,00,0,,,,,,,,,,*44
$PTNLRBA,1,1*57
$GPZDA,,,,,,*48
$GPGGA,,3917.26161,N,08203.79979,W,7,00,,,,,,,*46
$GPGLL,3917.26161,N,08203.79979,W,,V,M*40
$GPVTG,,,,,,,,,M*33
$GPGSA,A,1,,,,,,,,,,,,,,,*1E
$GPGSV,3,1,10,23,49,311,44,06,22,156,44,20,34,247,39,13,15,312,30*7A
$GPGSV,3,2,10,27,14,162,39,03,07,180,40,16,67,204,30,31,43,063,33*7C
$GPGSV,3,3,10,32,29,203,24,29,13,044,30,,,,,,,,*7F
$GPRMC,,V,3917.26161,N,08203.79979,W,,,,,,M*77
$PTNLRTF,V,A,587525,00,0,,,,,,,,,,*45
$PTNLRBA,1,1*57
$GPZDA,,,,,,*48
$GPGGA,,3917.26161,N,08203.79979,W,7,00,,,,,,,*46
$GPGLL,3917.26161,N,08203.79979,W,,V,M*40
$GPVTG,,,,,,,,,M*33
$GPGSA,A,1,,,,,,,,,,,,,,,*1E
$GPGSV,3,1,10,23,49,311,43,06,22,156,44,20,34,247,39,13,15,312,28*74
$GPGSV,3,2,10,27,14,162,39,03,07,180,40,16,67,204,30,31,43,063,33*7C
$GPGSV,3,3,10,32,29,203,24,29,13,044,30,,,,,,,,*7F
$GPRMC,,V,3917.26161,N,08203.79979,W,,,,,,M*77
$PTNLRTF,V,A,587526,00,0,,,,,,,,,,*46
$PTNLRBA,1,1*57
$GPZDA,191151.00,26,04,2014,,*6D
$GPGGA,,3917.26161,N,08203.79979,W,7,01,,,,,,,*47
$GPGLL,3917.26161,N,08203.79979,W,,V,M*40
$GPVTG,,,,,,,,,M*33
$GPGSA,A,1,23,,,,,,,,,,,,,,*1F
$GPGSV,3,1,10,23,49,311,44,06,34,148,44,20,34,247,39,13,27,314,28*7C
$GPGSV,3,2,10,27,14,162,39,03,19,177,40,16,82,216,30,31,43,063,32*72
$GPGSV,3,3,10,32,29,203,25,29,13,044,30,,,,,,,,*7E
$GPRMC,191151.00,V,3917.26161,N,08203.79979,W,,,,,,M*55
$PTNLRTF,V,A,587527,01,0,,,,,,,,,,*46
$PTNLRBA,1,1*57
$GPZDA,191152.00,26,04,2014,,*6E
$GPGGA,,3917.26161,N,08203.79979,W,7,01,,,,,,,*47
$GPGLL,3917.26161,N,08203.79979,W,,V,M*40
$GPVTG,,,,,,,,,M*33
$GPGSA,A,1,23,,,,,,,,,,,,,,*1F
$GPGSV,3,1,10,23,62,304,44,06,34,148,44,20,26,235,39,13,27,314,27*78
$GPGSV,3,2,10,27,26,156,39,03,19,177,41,16,82,216,31,31,33,075,31*77
$GPGSV,3,3,10,32,18,198,26,29,08,035,29,,,,,,,,*7A
$GPRMC,191152.00,V,3917.26161,N,08203.79979,W,,,,,,M*56
$PTNLRTF,V,A,587528,01,0,,,,,,,,,,*49
$PTNLRBA,1,1*57
$GPZDA,191153.00,26,04,2014,,*6F
$GPGGA,,3917.26161,N,08203.79979,W,7,01,,,,,,,*47
$GPGLL,3917.26161,N,08203.79979,W,,V,M*40
$GPVTG,,,,,,,,,M*33
$GPGSA,A,1,23,,,,,,,,,,,,,,*1F
$GPGSV,3,1,10,23,62,304,44,06,34,148,44,20,26,235,39,13,27,314,27*78
$GPGSV,3,2,10,27,26,156,40,03,19,177,40,16,82,216,32,31,33,075,31*7B
$GPGSV,3,3,10,32,18,198,25,29,08,035,31,,,,,,,,*70
$GPRMC,191153.00,V,3917.26161,N,08203.79979,W,,,,,,M*57
$PTNLRTF,V,A,587529,01,0,,,,,,,,,,*48
$PTNLRBA,1,1*57
$GPZDA,191154.00,26,04,2014,,*68
$GPGGA,,3917.26161,N,08203.79979,W,7,01,,,,,,,*47
$GPGLL,3917.26161,N,08203.79979,W,,V,M*40
$GPVTG,,,,,,,,,M*33
$GPGSA,A,1,23,,,,,,,,,,,,,,*1F
$GPGSV,3,1,10,23,62,304,43,06,34,148,44,20,26,235,39,13,27,314,25*7D
$GPGSV,3,2,10,27,26,156,40,03,19,177,40,16,82,216,32,31,33,075,31*7B
$GPGSV,3,3,10,32,18,198,28,29,08,035,28,,,,,,,,*75
$GPRMC,191154.00,V,3917.26161,N,08203.79979,W,,,,,,M*50
$PTNLRTF,V,A,587530,01,0,,,,,,,,,,*40
$PTNLRBA,1,1*57
$GPZDA,191155.00,26,04,2014,,*69
$GPGGA,,3917.26161,N,08203.79979,W,7,01,,,,,,,*47
$GPGLL,3917.26161,N,08203.79979,W,,V,M*40
$GPVTG,,,,,,,,,M*33
$GPGSA,A,1,23,,,,,,,,,,,,,,*1F
$GPGSV,3,1,10,23,62,304,43,06,34,148,45,20,26,235,39,13,27,314,24*7D
$GPGSV,3,2,10,27,26,156,40,03,19,177,40,16,82,216,31,31,33,075,32*7B
$GPGSV,3,3,10,32,18,198,28,29,08,035,28,,,,,,,,*75
$GPRMC,191155.00,V,3917.26161,N,08203.79979,W,,,,,,M*51
$PTNLRTF,V,A,587531,01,0,,,,,,,,,,*41
$PTNLRBA,1,1*57
$GPZDA,191156.00,26,04,2014,,*6A
$GPGGA,,3917.26161,N,08203.79979,W,7,01,,,,,,,*47
$GPGLL,3917.26161,N,08203.79979,W,,V,M*40
$GPVTG,,,,,,,,,M*33
$GPGSA,A,1,23,,,,,,,,,,,,,,*1F
$GPGSV,3,1,10,23,62,304,43,06,34,148,45,20,26,235,39,13,27,314,23*7A
$GPGSV,3,2,10,27,26,156,40,03,19,177,40,16,82,216,32,31,33,075,32*78
$GPGSV,3,3,10,32,18,198,29,29,08,035,29,,,,,,,,*75
$GPRMC,191156.00,V,3917.26161,N,08203.79979,W,,,,,,M*52
$PTNLRTF,V,A,587532,01,0,,,,,,,,,,*42
$PTNLRBA,1,1*57
$GPZDA,191157.00,26,04,2014,,*6B
$GPGGA,191157.00,3917.25954,N,08203.79490,W,1,06,1.82,00295,M,-033,M,,*53
$GPGLL,3917.25954,N,08203.79490,W,191157.00,A,A*78
$GPVTG,051.5,T,058.7,M,000.2,N,000.4,K,A*2E
$GPGSA,A,3,23,20,13,27,03,16,,,,,,,2.69,1.82,1.98*04
$GPGSV,3,1,10,23,62,304,43,06,34,148,45,20,26,235,39,13,27,314,24*7D
$GPGSV,3,2,10,27,26,156,40,03,19,177,40,16,82,216,31,31,33,075,32*7B
$GPGSV,3,3,10,32,18,198,28,29,08,035,31,,,,,,,,*7D
$GPGST,191157.00,,603.92,083.15,067.9,023.03,012.52,042.25*4D
$GPRMC,191157.00,A,3917.25954,N,08203.79490,W,000.2,051.5,260414,07.2,W,A*05
$PTNLRTF,V,A,587533,06,3,3917.25954,N,08203.79490,W,00295,+000.080,+000.064,+000.000,0,1*57
$PTNLRBA,1,1*57
$GPZDA,191158.00,26,04,2014,,*64
$GPGGA,191158.00,3917.26047,N,08203.79357,W,1,06,1.82,00293,M,-033,M,,*5E
$GPGLL,3917.26047,N,08203.79357,W,191158.00,A,A*73
$GPVTG,265.4,T,272.6,M,000.3,N,000.5,K,A*21
$GPGSA,A,3,23,20,13,27,03,16,,,,,,,2.69,1.82,1.98*04
$GPGSV,3,1,10,23,62,304,44,06,34,148,44,20,26,235,40,13,27,314,24*75
$GPGSV,3,2,10,27,26,156,40,03,19,177,40,16,82,216,32,31,33,075,33*79
$GPGSV,3,3,10,32,18,198,28,29,08,035,30,,,,,,,,*7C
$GPGST,191158.00,,291.72,045.20,066.6,015.90,009.17,028.70*49
$GPRMC,191158.00,A,3917.26047,N,08203.79357,W,000.3,265.4,260414,07.2,W,A*0B
$PTNLRTF,V,A,587534,06,3,3917.26047,N,08203.79357,W,00293,-000.148,-000.012,-000.000,0,1*50
$PTNLRBA,1,1*57
$GPZDA,191159.00,26,04,2014,,*65
$GPGGA,191159.00,3917.26225,N,08203.79300,W,1,06,1.82,00288,M,-033,M,,*51
$GPGLL,3917.26225,N,08203.79300,W,191159.00,A,A*76
$GPVTG,222.1,T,229.4,M,000.0,N,000.0,K,A*2D
$GPGSA,A,3,23,20,13,27,03,16,,,,,,,2.69,1.82,1.98*04
$GPGSV,3,1,10,23,62,304,44,06,34,148,44,20,26,235,40,13,27,314,19*7B
$GPGSV,3,2,10,27,26,156,40,03,19,177,40,16,82,216,32,31,33,075,33*79
$GPGSV,3,3,10,32,18,198,28,29,07,035,30,,,,,,,,*73
$GPGST,191159.00,,231.94,034.98,067.3,014.23,008.02,025.36*48
$GPRMC,191159.00,A,3917.26225,N,08203.79300,W,000.0,222.1,260414,07.2,W,A*0B
$PTNLRTF,V,A,587535,06,3,3917.26225,N,08203.79300,W,00288,-000.006,-000.007,+000.006,0,1*50
$PTNLRBA,1,1*57
$GPZDA,191200.00,26,04,2014,,*6A
$GPGGA,191200.00,3917.26182,N,08203.79374,W,1,06,1.82,00290,M,-033,M,,*5A
$GPGLL,3917.26182,N,08203.79374,W,191200.00,A,A*74
$GPVTG,294.9,T,302.1,M,000.2,N,000.3,K,A*24
$GPGSA,A,3,23,20,13,27,03,16,,,,,,,2.69,1.82,1.98*04
$GPGSV,3,1,10,23,62,304,44,06,34,148,45,20,26,235,40,13,27,314,15*76
$GPGSV,3,2,10,27,26,156,41,03,19,177,40,16,82,216,32,31,33,075,33*78
$GPGSV,3,3,10,32,18,198,28,29,07,035,30,,,,,,,,*73
$GPGST,191200.00,,216.76,047.05,068.0,013.89,008.42,023.80*4A
$GPRMC,191200.00,A,3917.26182,N,08203.79374,W,000.2,294.9,260414,07.2,W,A*0E
$PTNLRTF,V,A,587536,06,3,3917.26182,N,08203.79374,W,00290,-000.076,+000.035,+000.009,0,1*58
$PTNLRBA,1,1*57
$GPZDA,191202.00,26,04,2014,,*68
$GPGGA,191202.00,3917.26110,N,08203.79430,W,1,06,1.82,00292,M,-033,M,,*56
$GPGLL,3917.26110,N,08203.79430,W,191202.00,A,A*7A
$GPVTG,354.2,T,001.4,M,000.3,N,000.6,K,A*23
$GPGSA,A,3,23,20,13,27,03,16,,,,,,,2.69,1.82,1.98*04
$GPGSV,3,1,10,23,62,304,43,06,34,148,44,20,26,235,40,13,27,314,17*72
$GPGSV,3,2,10,27,26,156,40,03,19,177,40,16,82,216,31,31,33,075,33*7A
$GPGSV,3,3,10,32,18,198,26,29,07,035,28,,,,,,,,*74
$GPGST,191202.00,,235.41,101.04,069.0,014.77,010.87,022.61*46
$GPRMC,191202.00,A,3917.26110,N,08203.79430,W,000.3,354.2,260414,07.2,W,A*07
$PTNLRTF,V,A,587538,06,3,3917.26110,N,08203.79430,W,00292,-000.017,+000.166,+000.014,0,1*54
$PTNLRBA,1,1*57
$GPZDA,191203.00,26,04,2014,,*69
$GPGGA,191203.00,3917.26058,N,08203.79524,W,1,08,0.91,00292,M,-033,M,,*53
$GPGLL,3917.26058,N,08203.79524,W,191203.00,A,A*72
$GPVTG,112.4,T,119.6,M,000.0,N,000.0,K,A*2A
$GPGSA,A,3,23,20,13,27,03,16,31,29,,,,,1.66,0.91,1.39*09
$GPGSV,3,1,10,23,62,304,43,06,34,148,44,20,26,235,40,13,27,314,13*76
$GPGSV,3,2,10,27,26,156,40,03,19,177,40,16,82,216,31,31,33,075,33*7A
$GPGSV,3,3,10,32,18,198,26,29,07,035,30,,,,,,,,*7D
$GPGST,191203.00,,140.84,111.87,069.6,011.72,010.74,015.28*46
$GPRMC,191203.00,A,3917.26058,N,08203.79524,W,000.0,112.4,260414,07.2,W,A*0A
$PTNLRTF,V,A,587539,08,3,3917.26058,N,08203.79524,W,00292,+000.011,-000.005,+000.038,0,1*5E
$PTNLRBA,1,1*57
$GPZDA,191205.00,26,04,2014,,*6F
$GPGGA,191205.00,3917.26033,N,08203.79589,W,1,08,0.88,00291,M,-033,M,,*54
$GPGLL,3917.26033,N,08203.79589,W,191205.00,A,A*7E
$GPVTG,000.0,T,007.2,M,000.0,N,000.0,K,A*26
$GPGSA,A,3,23,20,13,27,03,31,32,29,,,,,2.02,0.88,1.82*06
$GPGSV,3,1,10,23,62,304,44,06,34,148,44,20,26,235,40,13,27,314,18*7A
$GPGSV,3,2,10,27,26,156,40,03,19,177,40,16,82,216,30,31,33,075,33*7B
$GPGSV,3,3,10,32,18,198,26,29,07,035,31,,,,,,,,*7C
$GPGST,191205.00,,148.74,138.87,071.2,012.15,011.83,014.17*47
$GPRMC,191205.00,A,3917.26033,N,08203.79589,W,000.0,000.0,260414,07.2,W,A*00
$PTNLRTF,V,A,587541,08,3,3917.26033,N,08203.79589,W,00291,+000.000,+000.000,+000.000,0,1*50
$PTNLRBA,1,1*57
$GPZDA,191206.00,26,04,2014,,*6C
$GPGGA,191206.00,3917.26060,N,08203.79572,W,1,09,0.87,00291,M,-033,M,,*5B
$GPGLL,3917.26060,N,08203.79572,W,191206.00,A,A*7F
$GPVTG,000.0,T,007.2,M,000.0,N,000.0,K,A*26
$GPGSA,A,3,23,20,13,27,03,16,31,32,29,,,,1.59,0.87,1.33*09
$GPGSV,3,1,10,23,62,304,44,06,34,148,44,20,26,235,39,13,27,314,15*79
$GPGSV,3,2,10,27,26,156,40,03,19,177,40,16,82,216,31,31,33,075,33*7A
$GPGSV,3,3,10,32,18,198,26,29,07,035,30,,,,,,,,*7D
$GPGST,191206.00,,149.84,142.27,071.9,012.21,011.96,013.94*49
$GPRMC,191206.00,A,3917.26060,N,08203.79572,W,000.0,000.0,260414,07.2,W,A*01
$PTNLRTF,V,A,587542,09,3,3917.26060,N,08203.79572,W,00291,+000.000,+000.000,+000.000,0,1*50
$PTNLRBA,1,1*57
$GPZDA,191208.00,26,04,2014,,*62
$GPGGA,191208.00,3917.26139,N,08203.79462,W,1,09,0.87,00291,M,-033,M,,*58
$GPGLL,3917.26139,N,08203.79462,W,191208.00,A,A*7C
$GPVTG,000.0,T,007.2,M,000.0,N,000.0,K,A*26
$GPGSA,A,3,23,20,13,27,03,16,31,32,29,,,,1.59,0.87,1.33*09
$GPGSV,3,1,10,23,62,304,43,06,34,148,44,20,26,235,40,13,27,314,15*70
$GPGSV,3,2,10,27,26,156,39,03,19,177,40,16,82,216,29,31,33,075,30*7E
$GPGSV,3,3,10,32,18,198,23,29,07,035,30,,,,,,,,*78
$GPGST,191208.00,,148.33,143.41,071.1,012.16,012.00,013.51*42
$GPRMC,191208.00,A,3917.26139,N,08203.79462,W,000.0,000.0,260414,07.2,W,A*02
$PTNLRTF,V,A,587544,09,3,3917.26139,N,08203.79462,W,00291,+000.000,+000.000,+000.000,0,1*5B
$PTNLRBA,1,1*57
$GPZDA,191210.00,26,04,2014,,*6B
$GPGGA,191210.00,3917.26174,N,08203.79450,W,1,09,0.87,00291,M,-033,M,,*59
$GPGLL,3917.26174,N,08203.79450,W,191210.00,A,A*7D
$GPVTG,000.0,T,007.2,M,000.0,N,000.0,K,A*26
$GPGSA,A,3,23,20,13,27,03,16,31,32,29,,,,1.59,0.87,1.33*09
$GPGSV,3,1,10,23,62,304,44,06,34,148,44,20,26,235,40,13,27,314,15*77
$GPGSV,3,2,10,27,26,155,40,03,19,177,40,16,82,217,29,31,33,075,30*72
$GPGSV,3,3,10,32,17,197,22,29,07,035,30,,,,,,,,*79
$GPGST,191210.00,,139.74,136.20,071.8,011.81,011.69,012.95*4A
$GPRMC,191210.00,A,3917.26174,N,08203.79450,W,000.0,000.0,260414,07.2,W,A*03
$PTNLRTF,V,A,587546,09,3,3917.26174,N,08203.79450,W,00291,+000.000,+000.000,+000.000,0,1*51
$PTNLRBA,1,1*57
$GPZDA,191211.00,26,04,2014,,*6A
$GPGGA,191211.00,3917.26193,N,08203.79452,W,1,07,1.11,00290,M,-033,M,,*52
$GPGLL,3917.26193,N,08203.79452,W,191211.00,A,A*77
$GPVTG,000.0,T,007.2,M,000.0,N,000.0,K,A*26
$GPGSA,A,3,23,20,27,03,16,31,29,,,,,,1.84,1.11,1.47*07
$GPGSV,3,1,10,23,62,304,44,06,34,148,43,20,26,235,39,13,27,314,15*7E
$GPGSV,3,2,10,27,26,155,40,03,19,177,40,16,82,217,29,31,33,075,31*73
$GPGSV,3,3,10,32,17,197,21,29,07,035,30,,,,,,,,*7A
$GPGST,191211.00,,129.11,126.12,071.8,011.35,011.24,012.44*43
$GPRMC,191211.00,A,3917.26193,N,08203.79452,W,000.0,000.0,260414,07.2,W,A*09
$PTNLRTF,V,A,587547,07,3,3917.26193,N,08203.79452,W,00290,+000.000,+000.000,+000.000,0,1*54
$PTNLRBA,1,1*57
$GPZDA,191213.00,26,04,2014,,*68
$GPGGA,191213.00,3917.26188,N,08203.79457,W,1,08,1.07,00291,M,-033,M,,*56
$GPGLL,3917.26188,N,08203.79457,W,191213.00,A,A*7A
$GPVTG,158.7,T,166.0,M,000.4,N,000.7,K,A*2A
$GPGSA,A,3,23,20,27,03,16,31,32,29,,,,,1.76,1.07,1.39*05
$GPGSV,3,1,10,23,62,304,43,06,34,148,43,20,26,235,39,13,27,314,22*7D
$GPGSV,3,2,10,27,26,155,40,03,19,177,40,16,82,217,30,31,33,075,31*7B
$GPGSV,3,3,10,32,17,197,19,29,07,035,31,,,,,,,,*70
$GPGST,191213.00,,142.72,140.62,071.8,011.94,011.87,012.82*46
$GPRMC,191213.00,A,3917.26188,N,08203.79457,W,000.4,158.7,260414,07.2,W,A*0B
$PTNLRTF,V,A,587549,08,3,3917.26188,N,08203.79457,W,00291,+000.070,-000.180,+000.045,0,1*52
$PTNLRBA,1,1*57
$GPZDA,191214.00,26,04,2014,,*6F
$GPGGA,191214.00,3917.26191,N,08203.79441,W,1,09,0.87,00291,M,-033,M,,*56
$GPGLL,3917.26191,N,08203.79441,W,191214.00,A,A*72
$GPVTG,074.0,T,081.2,M,000.2,N,000.4,K,A*2D
$GPGSA,A,3,23,20,13,27,03,16,31,32,29,,,,1.59,0.87,1.33*09
$GPGSV,3,1,10,23,62,304,44,06,34,148,43,20,26,235,39,13,27,314,16*7D
$GPGSV,3,2,10,27,26,155,40,03,19,177,40,16,82,217,27,31,33,075,31*7D
$GPGSV,3,3,10,32,17,197,19,29,07,035,31,,,,,,,,*70
$GPGST,191214.00,,136.04,134.27,072.0,011.66,011.60,012.49*49
$GPRMC,191214.00,A,3917.26191,N,08203.79441,W,000.2,074.0,260414,07.2,W,A*0D
$PTNLRTF,V,A,587550,09,3,3917.26191,N,08203.79441,W,00291,+000.115,+000.033,+000.031,0,1*5A
$PTNLRBA,1,1*57
$GPZDA,191216.00,26,04,2014,,*6D
$GPGGA,191216.00,3917.26173,N,08203.79478,W,1,08,0.91,00292,M,-033,M,,*57
$GPGLL,3917.26173,N,08203.79478,W,191216.00,A,A*76
$GPVTG,000.0,T,007.2,M,000.0,N,000.0,K,A*26
$GPGSA,A,3,23,20,13,27,03,16,31,29,,,,,1.66,0.91,1.39*09
$GPGSV,3,1,10,23,62,304,44,06,34,148,44,20,26,235,39,13,27,314,22*7D
$GPGSV,3,2,10,27,26,155,40,03,19,177,40,16,82,217,27,31,33,075,33*7F
$GPGSV,3,3,10,32,17,197,19,29,07,035,31,,,,,,,,*70
$GPGST,191216.00,,118.64,117.40,072.8,010.89,010.84,011.67*4D
$GPRMC,191216.00,A,3917.26173,N,08203.79478,W,000.0,000.0,260414,07.2,W,A*08
$PTNLRTF,V,A,587552,08,3,3917.26173,N,08203.79478,W,00292,+000.000,+000.000,+000.000,0,1*5B
$PTNLRBA,1,1*57
$GPZDA,191217.00,26,04,2014,,*6C
$GPGGA,191217.00,3917.26156,N,08203.79492,W,1,08,0.91,00293,M,-033,M,,*54
$GPGLL,3917.26156,N,08203.79492,W,191217.00,A,A*74
$GPVTG,000.0,T,007.2,M,000.0,N,000.0,K,A*26
$GPGSA,A,3,23,20,13,27,03,16,31,29,,,,,1.66,0.91,1.39*09
$GPGSV,3,1,10,23,62,304,44,06,34,148,43,20,26,235,39,13,27,314,19*72
$GPGSV,3,2,10,27,26,155,40,03,19,177,40,16,82,217,27,31,33,075,32*7E
$GPGSV,3,3,10,32,17,197,22,29,07,035,32,,,,,,,,*7B
$GPGST,191217.00,,111.65,110.60,072.7,010.56,010.52,011.32*47
$GPRMC,191217.00,A,3917.26156,N,08203.79492,W,000.0,000.0,260414,07.2,W,A*0A
$PTNLRTF,V,A,587553,08,3,3917.26156,N,08203.79492,W,00293,+000.000,+000.000,+000.000,0,1*58
$PTNLRBA,1,1*57
$GPZDA,191219.00,26,04,2014,,*62
$GPGGA,191219.00,3917.26128,N,08203.79479,W,1,09,0.87,00294,M,-033,M,,*57
$GPGLL,3917.26128,N,08203.79479,W,191219.00,A,A*76
$GPVTG,000.0,T,007.2,M,000.0,N,000.0,K,A*26
$GPGSA,A,3,23,20,13,27,03,16,31,32,29,,,,1.59,0.87,1.33*09
$GPGSV,3,1,10,23,62,304,43,06,34,148,43,20,26,235,39,13,27,314,21*7E
$GPGSV,3,2,10,27,26,155,41,03,19,177,40,16,82,217,28,31,33,075,32*70
$GPGSV,3,3,10,32,17,197,25,29,07,035,32,,,,,,,,*7C
$GPGST,191219.00,,111.91,111.13,074.6,010.58,010.54,011.26*4D
$GPRMC,191219.00,A,3917.26128,N,08203.79479,W,000.0,000.0,260414,07.2,W,A*08
$PTNLRTF,V,A,587555,09,3,3917.26128,N,08203.79479,W,00294,+000.000,+000.000,+000.000,0,1*54
$PTNLRBA,1,1*57
$GPZDA,191220.00,26,04,2014,,*68
$GPGGA,191220.00,3917.26110,N,08203.79470,W,1,09,0.87,00295,M,-033,M,,*5E
$GPGLL,3917.26110,N,08203.79470,W,191220.00,A,A*7E
$GPVTG,000.0,T,007.2,M,000.0,N,000.0,K,A*26
$GPGSA,A,3,23,20,13,27,03,16,31,32,29,,,,1.59,0.87,1.33*09
$GPGSV,3,1,10,23,62,304,44,06,34,148,43,20,26,235,39,13,27,314,23*7B
$GPGSV,3,2,10,27,26,155,41,03,19,177,40,16,82,217,28,31,33,075,31*73
$GPGSV,3,3,10,32,17,197,26,29,07,035,33,,,,,,,,*7E
$GPGST,191220.00,,112.45,111.80,075.3,010.60,010.58,011.24*46
$GPRMC,191220.00,A,3917.26110,N,08203.79470,W,000.0,000.0,260414,07.2,W,A*00
$PTNLRTF,V,A,587556,09,3,3917.26110,N,08203.79470,W,00295,+000.000,+000.000,+000.000,0,1*54
$PTNLRBA,1,1*57
$GPZDA,191222.00,26,04,2014,,*6A
$GPGGA,191222.00,3917.26097,N,08203.79458,W,1,09,0.87,00295,M,-033,M,,*58
$GPGLL,3917.26097,N,08203.79458,W,191222.00,A,A*78
$GPVTG,000.0,T,007.2,M,000.0,N,000.0,K,A*26
$GPGSA,A,3,23,20,13,27,03,16,31,32,29,,,,1.59,0.87,1.33*09
$GPGSV,3,1,10,23,62,304,45,06,34,148,44,20,26,235,40,13,27,314,25*75
$GPGSV,3,2,10,27,26,155,42,03,19,177,40,16,82,217,31,31,33,075,31*78
$GPGSV,3,3,10,32,17,197,27,29,07,035,33,,,,,,,,*7F
$GPGST,191222.00,,124.44,124.04,075.5,011.15,011.14,011.70*47
$GPRMC,191222.00,A,3917.26097,N,08203.79458,W,000.0,000.0,260414,07.2,W,A*06
$PTNLRTF,V,A,587558,09,3,3917.26097,N,08203.79458,W,00295,+000.000,+000.000,+000.000,0,1*5E
$PTNLRBA,1,1*57
$GPZDA,191224.00,26,04,2014,,*6C
$GPGGA,191223.00,3917.26092,N,08203.79456,W,1,08,0.91,00295,M,-033,M,,*54
$GPGLL,3917.26092,N,08203.79456,W,191223.00,A,A*72
$GPVTG,000.0,T,007.2,M,000.0,N,000.0,K,A*26
$GPGSA,A,3,23,20,13,27,03,16,31,32,29,,,,1.59,0.87,1.33*09
$GPGSV,3,1,10,23,62,304,44,06,34,148,43,20,26,235,41,13,27,314,28*7F
$GPGSV,3,2,10,27,26,155,41,03,19,177,39,16,82,217,30,31,33,075,29*7D
$GPGSV,3,3,10,32,17,197,28,29,07,035,33,,,,,,,,*70
$GPGST,191223.00,,116.77,116.43,075.2,010.80,010.79,011.33*42
$GPRMC,191223.00,A,3917.26092,N,08203.79456,W,000.0,000.0,260414,07.2,W,A*0C
$PTNLRTF,V,A,587560,09,3,3917.26092,N,08203.79456,W,00295,+000.000,+000.000,+000.000,0,1*5E
$PTNLRBA,1,1*57
$GPZDA,191225.00,26,04,2014,,*6D
$GPGGA,191225.00,3917.26087,N,08203.79440,W,1,09,0.87,00296,M,-033,M,,*54
$GPGLL,3917.26087,N,08203.79440,W,191225.00,A,A*77
$GPVTG,000.0,T,007.2,M,000.0,N,000.0,K,A*26
$GPGSA,A,3,23,20,13,27,03,16,31,32,29,,,,1.59,0.87,1.33*09
$GPGSV,3,1,10,23,62,304,44,06,34,148,43,20,26,235,41,13,27,314,27*70
$GPGSV,3,2,10,27,26,155,41,03,19,177,40,16,82,217,31,31,33,075,30*7A
$GPGSV,3,3,10,32,17,197,28,29,07,035,31,,,,,,,,*72
$GPGST,191225.00,,146.51,146.30,075.7,012.10,012.10,012.54*45
$GPRMC,191225.00,A,3917.26087,N,08203.79440,W,000.0,000.0,260414,07.2,W,A*09
$PTNLRTF,V,A,587561,09,3,3917.26087,N,08203.79440,W,00296,+000.000,+000.000,+000.000,0,1*5F
$PTNLRBA,1,1*57
$GPZDA,191227.00,26,04,2014,,*6F
$GPGGA,191227.00,3917.26109,N,08203.79413,W,1,09,0.87,00296,M,-033,M,,*57
$GPGLL,3917.26109,N,08203.79413,W,191227.00,A,A*74
$GPVTG,000.0,T,007.2,M,000.0,N,000.0,K,A*26
$GPGSA,A,3,23,20,13,27,03,16,31,32,29,,,,1.59,0.87,1.33*09
$GPGSV,3,1,10,23,62,304,44,06,34,148,43,20,26,235,41,13,27,314,28*7F
$GPGSV,3,2,10,27,26,155,41,03,19,177,39,16,82,217,31,31,33,075,29*7C
$GPGSV,3,3,10,32,17,197,28,29,07,035,33,,,,,,,,*70
$GPGST,191227.00,,157.93,157.81,069.6,012.57,012.56,012.95*43
$GPRMC,191227.00,A,3917.26109,N,08203.79413,W,000.0,000.0,260414,07.2,W,A*0A
$PTNLRTF,V,A,587563,09,3,3917.26109,N,08203.79413,W,00296,+000.000,+000.000,+000.000,0,1*5C
$PTNLRBA,1,1*57
$GPZDA,191228.00,26,04,2014,,*60
$GPGGA,191228.00,3917.26117,N,08203.79411,W,1,09,0.87,00295,M,-033,M,,*56
$GPGLL,3917.26117,N,08203.79411,W,191228.00,A,A*76
$GPVTG,000.0,T,007.2,M,000.0,N,000.0,K,A*26
$GPGSA,A,3,23,20,13,27,03,16,31,32,29,,,,1.59,0.87,1.33*09
$GPGSV,3,1,10,23,62,304,43,06,34,148,42,20,26,235,41,13,27,314,29*78
$GPGSV,3,2,10,27,26,155,40,03,19,177,39,16,82,217,32,31,33,075,31*77
$GPGSV,3,3,10,32,17,197,25,29,07,035,32,,,,,,,,*7C
$GPGST,191228.00,,162.11,162.00,068.1,012.73,012.73,013.09*4C
$GPRMC,191228.00,A,3917.26117,N,08203.79411,W,000.0,000.0,260414,07.2,W,A*08
$PTNLRTF,V,A,587564,09,3,3917.26117,N,08203.79411,W,00295,+000.000,+000.000,+000.000,0,1*55
$PTNLRBA,1,1*57
$GPZDA,191230.00,26,04,2014,,*69
$GPGGA,191230.00,3917.26104,N,08203.79405,W,1,09,0.87,00296,M,-033,M,,*5B
$GPGLL,3917.26104,N,08203.79405,W,191230.00,A,A*78
$GPVTG,000.0,T,007.2,M,000.0,N,000.0,K,A*26
$GPGSA,A,3,23,20,13,27,03,16,31,32,29,,,,1.59,0.87,1.33*09
$GPGSV,3,1,10,23,62,304,44,06,34,148,43,20,26,235,41,13,27,314,31*77
$GPGSV,3,2,10,27,26,155,40,03,19,177,40,16,82,217,32,31,33,075,31*79
$GPGSV,3,3,10,32,17,197,26,29,07,035,35,,,,,,,,*78
$GPGST,191230.00,,145.94,145.85,001.2,012.08,012.08,012.41*44
$GPRMC,191230.00,A,3917.26104,N,08203.79405,W,000.0,000.0,260414,07.2,W,A*06
$PTNLRTF,V,A,587566,09,3,3917.26104,N,08203.79405,W,00296,+000.000,+000.000,+000.000,0,1*53
$PTNLRBA,1,1*57
$GPZDA,191231.00,26,04,2014,,*68
$GPGGA,191231.00,3917.26108,N,08203.79396,W,1,09,0.87,00296,M,-033,M,,*5B
$GPGLL,3917.26108,N,08203.79396,W,191231.00,A,A*78
$GPVTG,000.0,T,007.2,M,000.0,N,000.0,K,A*26
$GPGSA,A,3,23,20,13,27,03,16,31,32,29,,,,1.59,0.87,1.33*09
$GPGSV,3,1,10,23,62,304,43,06,34,148,42,20,26,235,40,13,27,314,31*70
$GPGSV,3,2,10,27,26,155,40,03,19,177,40,16,82,217,31,31,33,075,29*73
$GPGSV,3,3,10,32,17,197,24,29,07,035,34,,,,,,,,*7B
$GPGST,191231.00,,148.69,148.57,002.8,012.19,012.19,012.51*40
$GPRMC,191231.00,A,3917.26108,N,08203.79396,W,000.0,000.0,260414,07.2,W,A*06
$PTNLRTF,V,A,587567,09,3,3917.26108,N,08203.79396,W,00296,+000.000,+000.000,+000.000,0,1*53
$PTNLRBA,1,1*57
$GPZDA,191233.00,26,04,2014,,*6A
$GPGGA,191233.00,3917.26109,N,08203.79371,W,1,09,0.87,00296,M,-033,M,,*51
$GPGLL,3917.26109,N,08203.79371,W,191233.00,A,A*72
$GPVTG,000.0,T,007.2,M,000.0,N,000.0,K,A*26
$GPGSA,A,3,23,20,13,27,03,16,31,32,29,,,,1.59,0.87,1.33*09
$GPGSV,3,1,10,23,62,304,43,06,34,148,43,20,26,235,41,13,27,314,31*70
$GPGSV,3,2,10,27,26,155,40,03,19,177,39,16,82,217,33,31,33,075,30*77
$GPGSV,3,3,10,32,17,197,18,29,07,035,34,,,,,,,,*74
$GPGST,191233.00,,142.94,142.77,004.3,011.95,011.96,012.25*4F
$GPRMC,191233.00,A,3917.26109,N,08203.79371,W,000.0,000.0,260414,07.2,W,A*0C
$PTNLRTF,V,A,587569,09,3,3917.26109,N,08203.79371,W,00296,+000.000,+000.000,+000.000,0,1*55
$PTNLRBA,1,1*57
$GPZDA,191234.00,26,04,2014,,*6D
$GPGGA,191234.00,3917.26105,N,08203.79369,W,1,09,0.87,00296,M,-033,M,,*53
$GPGLL,3917.26105,N,08203.79369,W,191234.00,A,A*70
$GPVTG,000.0,T,007.2,M,000.0,N,000.0,K,A*26
$GPGSA,A,3,23,20,13,27,03,16,31,32,29,,,,1.59,0.87,1.33*09
$GPGSV,3,1,10,23,62,304,44,06,34,148,43,20,26,235,41,13,27,314,32*74
$GPGSV,3,2,10,27,26,155,40,03,19,177,40,16,82,217,33,31,33,075,27*7F
$GPGSV,3,3,10,32,17,197,20,29,07,035,34,,,,,,,,*7F
$GPGST,191234.00,,151.53,151.34,004.4,012.30,012.31,012.58*4B
$GPRMC,191234.00,A,3917.26105,N,08203.79369,W,000.0,000.0,260414,07.2,W,A*0E
$PTNLRTF,V,A,587570,09,3,3917.26105,N,08203.79369,W,00296,+000.000,+000.000,+000.000,0,1*58
$PTNLRBA,1,1*57
$GPZDA,191236.00,26,04,2014,,*6F
$GPGGA,191236.00,3917.26096,N,08203.79343,W,1,09,0.87,00296,M,-033,M,,*52
$GPGLL,3917.26096,N,08203.79343,W,191236.00,A,A*71
$GPVTG,000.0,T,007.2,M,000.0,N,000.0,K,A*26
$GPGSA,A,3,23,20,13,27,03,16,31,32,29,,,,1.59,0.87,1.33*09
$GPGSV,3,1,10,23,62,304,43,06,34,148,43,20,26,235,40,13,27,314,31*71
$GPGSV,3,2,10,27,26,155,40,03,19,177,39,16,82,217,32,31,33,075,28*7F
$GPGSV,3,3,10,32,17,197,20,29,07,035,33,,,,,,,,*78
$GPGST,191236.00,,171.78,171.57,005.0,013.10,013.11,013.34*4B
$GPRMC,191236.00,A,3917.26096,N,08203.79343,W,000.0,000.0,260414,07.2,W,A*0F
$PTNLRTF,V,A,587572,09,3,3917.26096,N,08203.79343,W,00296,+000.000,+000.000,+000.000,0,1*59
$PTNLRBA,1,1*57
$GPZDA,191237.00,26,04,2014,,*6E
$GPGGA,191237.00,3917.26095,N,08203.79326,W,1,08,0.91,00296,M,-033,M,,*55
$GPGLL,3917.26095,N,08203.79326,W,191237.00,A,A*70
$GPVTG,000.0,T,007.2,M,000.0,N,000.0,K,A*26
$GPGSA,A,3,23,20,13,27,03,16,31,29,,,,,1.66,0.91,1.39*09
$GPGSV,3,1,10,23,62,304,44,06,34,148,42,20,26,235,41,13,27,314,30*77
$GPGSV,3,2,10,27,26,155,40,03,19,177,39,16,82,217,33,31,33,075,28*7E
$GPGSV,3,3,10,32,17,197,18,29,07,035,33,,,,,,,,*73
$GPGST,191237.00,,171.58,171.37,004.8,013.09,013.10,013.33*49
$GPRMC,191237.00,A,3917.26095,N,08203.79326,W,000.0,000.0,260414,07.2,W,A*0E
$PTNLRTF,V,A,587574,09,3,3917.26095,N,08203.79326,W,00296,+000.000,+000.000,+000.000,0,1*5F
$PTNLRBA,1,1*57
$GPZDA,191239.00,26,04,2014,,*60
$GPGGA,191239.00,3917.26084,N,08203.79313,W,1,09,0.87,00296,M,-033,M,,*5B
$GPGLL,3917.26084,N,08203.79313,W,191239.00,A,A*78
$GPVTG,000.0,T,007.2,M,000.0,N,000.0,K,A*26
$GPGSA,A,3,23,20,13,27,03,16,31,32,29,,,,1.59,0.87,1.33*09
$GPGSV,3,1,10,23,62,304,44,06,34,148,43,20,26,235,40,13,27,314,31*76
$GPGSV,3,2,10,27,26,155,41,03,19,177,39,16,82,217,32,31,33,075,31*76
$GPGSV,3,3,10,32,17,197,21,29,07,035,34,,,,,,,,*7E
$GPGST,191239.00,,171.05,170.83,006.5,013.07,013.08,013.29*42
$GPRMC,191239.00,A,3917.26084,N,08203.79313,W,000.0,000.0,260414,07.2,W,A*06
$PTNLRTF,V,A,587575,09,3,3917.26084,N,08203.79313,W,00296,+000.000,+000.000,+000.000,0,1*58
$PTNLRBA,1,1*57
$GPZDA,191241.00,26,04,2014,,*6F
$GPGGA,191241.00,3917.26075,N,08203.79307,W,1,09,0.87,00296,M,-033,M,,*5F
$GPGLL,3917.26075,N,08203.79307,W,191241.00,A,A*7C
$GPVTG,000.0,T,007.2,M,000.0,N,000.0,K,A*26
$GPGSA,A,3,23,20,13,27,03,16,31,32,29,,,,1.59,0.87,1.32*08
$GPGSV,3,1,10,23,62,304,44,06,34,148,42,20,26,235,40,13,27,314,31*77
$GPGSV,3,2,10,27,26,155,40,03,19,177,40,16,82,217,32,31,33,075,32*7A
$GPGSV,3,3,10,32,17,197,25,29,07,035,31,,,,,,,,*7F
$GPGST,191241.00,,147.33,147.11,007.1,012.13,012.14,012.35*43
$GPRMC,191241.00,A,3917.26075,N,08203.79307,W,000.0,000.0,260414,07.2,W,A*02
$PTNLRTF,V,A,587577,09,3,3917.26075,N,08203.79307,W,00296,+000.000,+000.000,+000.000,0,1*51
$PTNLRBA,1,1*57
$GPZDA,191242.00,26,04,2014,,*6C
$GPGGA,191242.00,3917.26073,N,08203.79294,W,1,09,0.87,00296,M,-033,M,,*51
$GPGLL,3917.26073,N,08203.79294,W,191242.00,A,A*72
$GPVTG,000.0,T,007.2,M,000.0,N,000.0,K,A*26
$GPGSA,A,3,23,20,13,27,03,16,31,32,29,,,,1.59,0.87,1.32*08
$GPGSV,3,1,10,23,62,304,44,06,34,148,43,20,26,235,41,13,27,314,31*77
$GPGSV,3,2,10,27,26,155,40,03,19,177,39,16,82,217,31,31,33,075,33*76
$GPGSV,3,3,10,32,17,197,26,29,07,035,31,,,,,,,,*7C
$GPGST,191242.00,,139.08,138.86,007.0,011.78,011.79,012.01*47
$GPRMC,191242.00,A,3917.26073,N,08203.79294,W,000.0,000.0,260414,07.2,W,A*0C
$PTNLRTF,V,A,587578,09,3,3917.26073,N,08203.79294,W,00296,+000.000,+000.000,+000.000,0,1*53
$PTNLRBA,1,1*57
$GPZDA,191244.00,26,04,2014,,*6A
$GPGGA,191244.00,3917.26044,N,08203.79284,W,1,09,0.87,00296,M,-033,M,,*52
$GPGLL,3917.26044,N,08203.79284,W,191244.00,A,A*71
$GPVTG,208.4,T,215.6,M,000.6,N,001.1,K,A*2B
$GPGSA,A,3,23,20,13,27,03,16,31,32,29,,,,1.59,0.87,1.32*08
$GPGSV,3,1,10,23,62,304,43,06,34,148,43,20,26,235,40,13,27,314,31*71
$GPGSV,3,2,10,27,26,155,41,03,19,177,39,16,82,217,31,31,33,075,32*76
$GPGSV,3,3,10,32,17,197,22,29,07,035,29,,,,,,,,*71
$GPGST,191244.00,,125.58,125.38,006.1,011.20,011.21,011.42*44
$GPRMC,191244.00,A,3917.26044,N,08203.79284,W,000.6,208.4,260414,07.2,W,A*07
$PTNLRTF,V,A,587580,09,3,3917.26044,N,08203.79284,W,00296,-000.151,-000.279,+000.005,0,1*5D
$PTNLRBA,1,1*57
$GPZDA,191245.00,26,04,2014,,*6B
$GPGGA,191245.00,3917.26039,N,08203.79278,W,1,09,0.87,00297,M,-033,M,,*5B
$GPGLL,3917.26039,N,08203.79278,W,191245.00,A,A*79
$GPVTG,250.1,T,257.3,M,000.1,N,000.2,K,A*25
$GPGSA,A,3,23,20,13,27,03,16,31,32,29,,,,1.59,0.87,1.32*08
$GPGSV,3,1,10,23,62,304,43,06,35,148,43,20,26,235,40,13,27,314,31*70
$GPGSV,3,2,10,27,26,155,40,03,19,177,39,16,83,217,31,31,33,075,32*76
$GPGSV,3,3,10,32,17,197,23,29,07,035,28,,,,,,,,*71
$GPGST,191245.00,,118.87,118.67,003.6,010.89,010.90,011.12*43
$GPRMC,191245.00,A,3917.26039,N,08203.79278,W,000.1,250.1,260414,07.2,W,A*00
$PTNLRTF,V,A,587581,09,3,3917.26039,N,08203.79278,W,00297,-000.041,-000.015,+000.039,0,1*53
$PTNLRBA,1,1*57
$GPZDA,191247.00,26,04,2014,,*69
$GPGGA,191247.00,3917.26030,N,08203.79266,W,1,09,0.87,00297,M,-033,M,,*5F
$GPGLL,3917.26030,N,08203.79266,W,191247.00,A,A*7D
$GPVTG,000.0,T,007.2,M,000.0,N,000.0,K,A*26
$GPGSA,A,3,23,20,13,27,03,16,31,32,29,,,,1.59,0.87,1.32*08
$GPGSV,3,1,10,23,62,304,43,06,35,148,43,20,26,235,40,13,27,314,32*73
$GPGSV,3,2,10,27,26,155,40,03,19,177,39,16,83,217,32,31,33,075,33*74
$GPGSV,3,3,10,32,17,197,23,29,07,035,25,,,,,,,,*7C
$GPGST,191247.00,,113.26,113.08,003.8,010.63,010.64,010.86*4E
$GPRMC,191247.00,A,3917.26030,N,08203.79266,W,000.0,000.0,260414,07.2,W,A*03
$PTNLRTF,V,A,587583,09,3,3917.26030,N,08203.79266,W,00297,+000.000,+000.000,+000.000,0,1*5C
$PTNLRBA,1,1*57
$GPZDA,191248.00,26,04,2014,,*66
$GPGGA,191248.00,3917.26025,N,08203.79264,W,1,09,0.87,00297,M,-033,M,,*56
$GPGLL,3917.26025,N,08203.79264,W,191248.00,A,A*74
$GPVTG,000.0,T,007.2,M,000.0,N,000.0,K,A*26
$GPGSA,A,3,23,20,13,27,03,16,31,32,29,,,,1.59,0.87,1.32*08
$GPGSV,3,1,10,23,62,304,43,06,35,148,43,20,26,235,40,13,27,314,31*70
$GPGSV,3,2,10,27,26,155,41,03,19,177,39,16,83,217,32,31,33,075,31*77
$GPGSV,3,3,10,32,17,197,19,29,07,035,27,,,,,,,,*77
$GPGST,191248.00,,111.25,111.07,003.1,010.54,010.55,010.76*4D
$GPRMC,191248.00,A,3917.26025,N,08203.79264,W,000.0,000.0,260414,07.2,W,A*0A
$PTNLRTF,V,A,587584,09,3,3917.26025,N,08203.79264,W,00297,+000.000,+000.000,+000.000,0,1*5D
$PTNLRBA,1,1*57
$GPZDA,191250.00,26,04,2014,,*6F
$GPGGA,191250.00,3917.26027,N,08203.79278,W,1,08,0.91,00297,M,-033,M,,*56
$GPGLL,3917.26027,N,08203.79278,W,191250.00,A,A*72
$GPVTG,000.0,T,007.2,M,000.0,N,000.0,K,A*26
$GPGSA,A,3,23,20,13,27,03,16,31,29,,,,,1.66,0.91,1.39*09
$GPGSV,3,1,10,23,62,304,43,06,35,148,45,20,26,235,39,13,27,314,32*7B
$GPGSV,3,2,10,27,26,155,40,03,19,177,39,16,83,217,33,31,33,075,32*74
$GPGSV,3,3,10,32,17,197,25,29,07,035,29,,,,,,,,*76
$GPGST,191250.00,,115.65,115.48,002.9,010.75,010.75,010.96*4D
$GPRMC,191250.00,A,3917.26027,N,08203.79278,W,000.0,000.0,260414,07.2,W,A*0C
$PTNLRTF,V,A,587586,08,3,3917.26027,N,08203.79278,W,00297,+000.000,+000.000,+000.000,0,1*51
$PTNLRBA,1,1*57
$GPZDA,191251.00,26,04,2014,,*6E
$GPGGA,191251.00,3917.26027,N,08203.79279,W,1,09,0.87,00297,M,-033,M,,*50
$GPGLL,3917.26027,N,08203.79279,W,191251.00,A,A*72
$GPVTG,000.0,T,007.2,M,000.0,N,000.0,K,A*26
$GPGSA,A,3,23,20,13,27,03,16,31,32,29,,,,1.58,0.87,1.32*09
$GPGSV,3,1,10,23,62,304,43,06,35,148,44,20,26,235,39,13,27,314,32*7A
$GPGSV,3,2,10,27,26,155,40,03,19,177,39,16,83,217,33,31,33,075,32*74
$GPGSV,3,3,10,32,17,197,25,29,07,035,29,,,,,,,,*76
$GPGST,191251.00,,116.35,116.19,002.5,010.78,010.79,010.98*4E
$GPRMC,191251.00,A,3917.26027,N,08203.79279,W,000.0,000.0,260414,07.2,W,A*0C
$PTNLRTF,V,A,587588,09,3,3917.26027,N,08203.79279,W,00297,+000.000,+000.000,+000.000,0,1*5F
$PTNLRBA,1,1*57
$GPZDA,191253.00,26,04,2014,,*6C
$GPGGA,191253.00,3917.26025,N,08203.79283,W,1,09,0.87,00297,M,-033,M,,*55
$GPGLL,3917.26025,N,08203.79283,W,191253.00,A,A*77
$GPVTG,173.4,T,180.6,M,000.4,N,000.7,K,A*2E
$GPGSA,A,3,23,20,13,27,03,16,31,32,29,,,,1.58,0.87,1.32*09
$GPGSV,3,1,10,23,62,304,43,06,35,148,44,20,26,235,39,13,27,314,31*79
$GPGSV,3,2,10,27,26,155,38,03,19,177,39,16,83,217,31,31,33,075,34*7F
$GPGSV,3,3,10,32,17,197,22,29,07,035,32,,,,,,,,*7B
$GPGST,191253.00,,127.78,127.62,002.5,011.30,011.30,011.49*45
$GPRMC,191253.00,A,3917.26025,N,08203.79283,W,000.4,173.4,260414,07.2,W,A*0C
$PTNLRTF,V,A,587589,09,3,3917.26025,N,08203.79283,W,00297,+000.021,-000.182,+000.033,0,1*57
$PTNLRBA,1,1*57
$GPZDA,191255.00,26,04,2014,,*6A
$GPGGA,191255.00,3917.26038,N,08203.79289,W,1,09,0.87,00297,M,-033,M,,*55
$GPGLL,3917.26038,N,08203.79289,W,191255.00,A,A*77
$GPVTG,000.0,T,007.2,M,000.0,N,000.0,K,A*26
$GPGSA,A,3,23,20,13,27,03,16,31,32,29,,,,1.58,0.87,1.32*09
$GPGSV,3,1,10,23,62,304,43,06,35,148,44,20,26,235,38,13,27,314,33*7A
$GPGSV,3,2,10,27,26,155,39,03,19,177,40,16,83,217,33,31,33,075,33*75
$GPGSV,3,3,10,32,17,197,25,29,07,035,28,,,,,,,,*77
$GPGST,191255.00,,128.70,128.56,002.9,011.34,011.34,011.52*4A
$GPRMC,191255.00,A,3917.26038,N,08203.79289,W,000.0,000.0,260414,07.2,W,A*09
$PTNLRTF,V,A,587591,09,3,3917.26038,N,08203.79289,W,00297,+000.000,+000.000,+000.000,0,1*56
$PTNLRBA,1,1*57
$GPZDA,191256.00,26,04,2014,,*69
$GPGGA,191256.00,3917.26049,N,08203.79288,W,1,09,0.87,00296,M,-033,M,,*50
$GPGLL,3917.26049,N,08203.79288,W,191256.00,A,A*73
$GPVTG,000.0,T,007.2,M,000.0,N,000.0,K,A*26
$GPGSA,A,3,23,20,13,27,03,16,31,32,29,,,,1.58,0.87,1.32*09
$GPGSV,3,1,10,23,62,304,43,06,35,148,44,20,26,235,39,13,27,314,33*7B
$GPGSV,3,2,10,27,26,155,40,03,19,177,39,16,83,217,32,31,33,075,32*75
$GPGSV,3,3,10,32,17,197,23,29,07,035,31,,,,,,,,*79
$GPGST,191256.00,,139.78,139.65,002.3,011.82,011.82,011.99*4C
$GPRMC,191256.00,A,3917.26049,N,08203.79288,W,000.0,000.0,260414,07.2,W,A*0D
$PTNLRTF,V,A,587592,09,3,3917.26049,N,08203.79288,W,00296,+000.000,+000.000,+000.000,0,1*53
$PTNLRBA,1,1*57
$GPZDA,191258.00,26,04,2014,,*67
$GPGGA,191258.00,3917.26068,N,08203.79280,W,1,08,0.91,00296,M,-033,M,,*53
$GPGLL,3917.26068,N,08203.79280,W,191258.00,A,A*76
$GPVTG,000.0,T,007.2,M,000.0,N,000.0,K,A*26
$GPGSA,A,3,23,20,13,27,03,16,31,29,,,,,1.66,0.91,1.39*09
$GPGSV,3,1,10,23,62,304,44,06,35,148,44,20,26,235,39,13,27,314,33*7C
$GPGSV,3,2,10,27,26,155,39,03,19,177,39,16,83,217,34,31,33,075,31*7E
$GPGSV,3,3,10,32,17,197,22,29,07,035,30,,,,,,,,*79
$GPGST,191258.00,,154.16,154.03,000.4,012.41,012.42,012.57*4D
$GPRMC,191258.00,A,3917.26068,N,08203.79280,W,000.0,000.0,260414,07.2,W,A*08
$PTNLRTF,V,A,587594,08,3,3917.26068,N,08203.79280,W,00296,+000.000,+000.000,+000.000,0,1*5F
$PTNLRBA,1,1*57
$GPZDA,191259.00,26,04,2014,,*66
$GPGGA,191259.00,3917.26076,N,08203.79280,W,1,09,0.87,00295,M,-033,M,,*58
$GPGLL,3917.26076,N,08203.79280,W,191259.00,A,A*78
$GPVTG,000.0,T,007.2,M,000.0,N,000.0,K,A*26
$GPGSA,A,3,23,20,13,27,03,16,31,32,29,,,,1.58,0.87,1.32*09
$GPGSV,3,1,10,23,62,304,44,06,35,148,44,20,26,235,39,13,27,314,33*7C
$GPGSV,3,2,10,27,26,155,39,03,19,177,39,16,83,217,33,31,33,075,31*79
$GPGSV,3,3,10,32,17,197,19,29,07,035,31,,,,,,,,*70
$GPGST,191259.00,,163.77,163.64,000.1,012.79,012.80,012.94*45
$GPRMC,191259.00,A,3917.26076,N,08203.79280,W,000.0,000.0,260414,07.2,W,A*06
$PTNLRTF,V,A,587595,09,3,3917.26076,N,08203.79280,W,00295,+000.000,+000.000,+000.000,0,1*53
$PTNLRBA,1,1*57
$GPZDA,191301.00,26,04,2014,,*6A
$GPGGA,191301.00,3917.26084,N,08203.79280,W,1,09,0.87,00295,M,-033,M,,*59
$GPGLL,3917.26084,N,08203.79280,W,191301.00,A,A*79
$GPVTG,000.0,T,007.2,M,000.0,N,000.0,K,A*26
$GPGSA,A,3,23,20,13,27,03,16,31,32,29,,,,1.58,0.87,1.32*09
$GPGSV,3,1,10,23,62,304,43,06,35,148,43,20,26,235,38,13,27,314,33*7D
$GPGSV,3,2,10,27,26,155,38,03,19,177,39,16,83,217,33,31,33,075,32*7B
$GPGSV,3,3,10,32,17,197,24,29,07,035,32,,,,,,,,*7D
$GPGST,191301.00,,167.20,167.07,000.3,012.93,012.93,013.07*41
$GPRMC,191301.00,A,3917.26084,N,08203.79280,W,000.0,000.0,260414,07.2,W,A*07
$PTNLRTF,V,A,587597,09,3,3917.26084,N,08203.79280,W,00295,+000.000,+000.000,+000.000,0,1*5C
$PTNLRBA,1,1*57
$GPZDA,191302.00,26,04,2014,,*69
$GPGGA,191302.00,3917.26091,N,08203.79284,W,1,09,0.87,00295,M,-033,M,,*5A
$GPGLL,3917.26091,N,08203.79284,W,191302.00,A,A*7A
$GPVTG,000.0,T,007.2,M,000.0,N,000.0,K,A*26
$GPGSA,A,3,23,20,13,27,03,16,31,32,29,,,,1.58,0.87,1.32*09
$GPGSV,3,1,10,23,62,304,44,06,35,148,44,20,26,235,39,13,27,314,33*7C
$GPGSV,3,2,10,27,26,155,39,03,19,177,40,16,83,217,33,31,33,075,32*74
$GPGSV,3,3,10,32,17,197,26,29,07,035,32,,,,,,,,*7F
$GPGST,191302.00,,161.24,161.11,000.6,012.69,012.70,012.84*46
$GPRMC,191302.00,A,3917.26091,N,08203.79284,W,000.0,000.0,260414,07.2,W,A*04
$PTNLRTF,V,A,587598,09,3,3917.26091,N,08203.79284,W,00295,+000.000,+000.000,+000.000,0,1*53
$PTNLRBA,1,1*57
$GPZDA,191304.00,26,04,2014,,*6F
$GPGGA,191304.00,3917.26102,N,08203.79289,W,1,09,0.87,00294,M,-033,M,,*5B
$GPGLL,3917.26102,N,08203.79289,W,191304.00,A,A*7A
$GPVTG,000.0,T,007.2,M,000.0,N,000.0,K,A*26
$GPGSA,A,3,23,20,13,27,03,16,31,32,29,,,,1.58,0.87,1.32*09
$GPGSV,3,1,10,23,62,304,44,06,35,148,44,20,26,235,39,13,27,314,34*7B
$GPGSV,3,2,10,27,26,155,39,03,19,177,40,16,83,217,33,31,33,075,29*7E
$GPGSV,3,3,10,32,17,197,26,29,07,035,29,,,,,,,,*75
$GPGST,191304.00,,155.81,155.67,000.6,012.48,012.48,012.62*4E
$GPRMC,191304.00,A,3917.26102,N,08203.79289,W,000.0,000.0,260414,07.2,W,A*04
$PTNLRTF,V,A,587600,09,3,3917.26102,N,08203.79289,W,00294,+000.000,+000.000,+000.000,0,1*56
$PTNLRBA,1,1*57
$GPZDA,191305.00,26,04,2014,,*6E
$GPGGA,191305.00,3917.26109,N,08203.79289,W,1,09,0.87,00294,M,-033,M,,*51
$GPGLL,3917.26109,N,08203.79289,W,191305.00,A,A*70
$GPVTG,000.0,T,007.2,M,000.0,N,000.0,K,A*26
$GPGSA,A,3,23,20,13,27,03,16,31,32,29,,,,1.58,0.87,1.32*09
$GPGSV,3,1,10,23,62,304,43,06,35,148,43,20,26,235,39,13,27,314,35*7A
$GPGSV,3,2,10,27,26,155,38,03,19,177,40,16,83,217,34,31,33,075,28*79
$GPGSV,3,3,10,32,17,197,28,29,07,035,30,,,,,,,,*73
$GPGST,191305.00,,163.86,163.72,001.9,012.80,012.80,012.93*4C
$GPRMC,191305.00,A,3917.26109,N,08203.79289,W,000.0,000.0,260414,07.2,W,A*0E
$PTNLRTF,V,A,587602,09,3,3917.26109,N,08203.79289,W,00294,+000.000,+000.000,+000.000,0,1*5F
$PTNLRBA,1,1*57
$GPZDA,191307.00,26,04,2014,,*6C
$GPGGA,191307.00,3917.26115,N,08203.79288,W,1,09,0.87,00294,M,-033,M,,*5F
$GPGLL,3917.26115,N,08203.79288,W,191307.00,A,A*7E
$GPVTG,000.0,T,007.2,M,000.0,N,000.0,K,A*26
$GPGSA,A,3,23,20,13,27,03,16,31,32,29,,,,1.58,0.87,1.32*09
$GPGSV,3,1,10,23,62,304,43,06,35,148,44,20,26,235,39,13,27,314,34*7C
$GPGSV,3,2,10,27,26,155,39,03,19,177,40,16,83,217,34,31,33,075,28*78
$GPGSV,3,3,10,32,17,197,28,29,07,035,32,,,,,,,,*71
$GPGST,191307.00,,163.79,163.65,002.7,012.79,012.80,012.92*42
$GPRMC,191307.00,A,3917.26115,N,08203.79288,W,000.0,000.0,260414,07.2,W,A*00
$PTNLRTF,V,A,587603,09,3,3917.26115,N,08203.79288,W,00294,+000.000,+000.000,+000.000,0,1*52
$PTNLRBA,1,1*57
$GPZDA,191309.00,26,04,2014,,*62
$GPGGA,191309.00,3917.26115,N,08203.79289,W,1,09,0.87,00295,M,-033,M,,*51
$GPGLL,3917.26115,N,08203.79289,W,191309.00,A,A*71
$GPVTG,000.0,T,007.2,M,000.0,N,000.0,K,A*26
$GPGSA,A,3,23,20,13,27,03,16,31,32,29,,,,1.58,0.87,1.32*09
$GPGSV,3,1,10,23,62,304,43,06,35,148,43,20,26,235,39,13,27,314,35*7A
$GPGSV,3,2,10,27,26,155,40,03,19,177,39,16,83,217,35,31,33,075,33*73
$GPGSV,3,3,10,32,17,197,27,29,07,035,31,,,,,,,,*7D
$GPGST,191309.00,,164.14,164.00,004.0,012.81,012.81,012.93*42
$GPRMC,191309.00,A,3917.26115,N,08203.79289,W,000.0,000.0,260414,07.2,W,A*0F
$PTNLRTF,V,A,587605,09,3,3917.26115,N,08203.79289,W,00295,+000.000,+000.000,+000.000,0,1*54
$PTNLRBA,1,1*57
$GPZDA,191310.00,26,04,2014,,*6A
$GPGGA,191310.00,3917.26118,N,08203.79297,W,1,09,0.87,00295,M,-033,M,,*5B
$GPGLL,3917.26118,N,08203.79297,W,191310.00,A,A*7B
$GPVTG,000.0,T,007.2,M,000.0,N,000.0,K,A*26
$GPGSA,A,3,23,20,13,27,03,16,31,32,29,,,,1.58,0.87,1.32*09
$GPGSV,3,1,10,23,62,304,42,06,35,148,43,20,26,235,39,13,27,314,36*78
$GPGSV,3,2,10,27,26,155,40,03,19,177,39,16,83,217,34,31,33,075,34*75
$GPGSV,3,3,10,32,17,197,24,29,07,035,30,,,,,,,,*7F
$GPGST,191310.00,,159.22,159.08,004.0,012.61,012.62,012.74*4D
$GPRMC,191310.00,A,3917.26118,N,08203.79297,W,000.0,000.0,260414,07.2,W,A*05
$PTNLRTF,V,A,587606,09,3,3917.26118,N,08203.79297,W,00295,+000.000,+000.000,+000.000,0,1*55
$PTNLRBA,1,1*57
$GPZDA,191312.00,26,04,2014,,*68
$GPGGA,191312.00,3917.26123,N,08203.79306,W,1,09,0.87,00294,M,-033,M,,*59
$GPGLL,3917.26123,N,08203.79306,W,191312.00,A,A*78
$GPVTG,275.4,T,282.7,M,000.1,N,000.3,K,A*2A
$GPGSA,A,3,23,20,13,27,03,16,31,32,29,,,,1.58,0.87,1.32*09
$GPGSV,3,1,10,23,62,304,42,06,35,148,43,20,26,235,40,13,27,314,37*77
$GPGSV,3,2,10,27,26,155,40,03,19,177,38,16,83,217,35,31,33,075,28*78
$GPGSV,3,3,10,32,17,197,27,29,07,035,32,,,,,,,,*7E
$GPGST,191312.00,,158.12,157.96,006.0,012.57,012.57,012.69*49
$GPRMC,191312.00,A,3917.26123,N,08203.79306,W,000.1,275.4,260414,07.2,W,A*03
$PTNLRTF,V,A,587608,09,3,3917.26123,N,08203.79306,W,00294,-000.072,+000.007,-000.132,0,1*59
$PTNLRBA,1,1*57
$GPZDA,191313.00,26,04,2014,,*69
$GPGGA,191313.00,3917.26124,N,08203.79310,W,1,09,0.87,00294,M,-033,M,,*58
$GPGLL,3917.26124,N,08203.79310,W,191313.00,A,A*79
$GPVTG,154.6,T,161.8,M,000.1,N,000.2,K,A*28
$GPGSA,A,3,23,20,13,27,03,16,31,32,29,,,,1.58,0.87,1.32*09
$GPGSV,3,1,10,23,62,304,42,06,35,148,44,20,26,235,40,13,27,314,36*71
$GPGSV,3,2,10,27,26,155,40,03,19,177,38,16,83,217,35,31,33,075,29*79
$GPGSV,3,3,10,32,17,197,24,29,07,035,32,,,,,,,,*7D
$GPGST,191313.00,,159.96,159.79,007.4,012.64,012.65,012.76*40
$GPRMC,191313.00,A,3917.26124,N,08203.79310,W,000.1,154.6,260414,07.2,W,A*00
$PTNLRTF,V,A,587609,09,3,3917.26124,N,08203.79310,W,00294,+000.022,-000.047,+000.002,0,1*5D
$PTNLRBA,1,1*57
$GPZDA,191315.00,26,04,2014,,*6F
$GPGGA,191315.00,3917.26129,N,08203.79312,W,1,07,1.10,00295,M,-033,M,,*51
$GPGLL,3917.26129,N,08203.79312,W,191315.00,A,A*70
$GPVTG,000.0,T,007.2,M,000.0,N,000.0,K,A*26
$GPGSA,A,3,23,20,27,03,16,31,29,,,,,,1.83,1.10,1.45*03
$GPGSV,3,1,10,23,62,304,43,06,35,148,43,20,26,235,39,13,27,314,36*79
$GPGSV,3,2,10,27,26,155,40,03,19,177,38,16,83,217,35,31,33,075,28*78
$GPGSV,3,3,10,32,17,197,25,29,07,035,32,,,,,,,,*7C
$GPGST,191315.00,,170.15,170.00,007.1,013.04,013.04,013.15*43
$GPRMC,191315.00,A,3917.26129,N,08203.79312,W,000.0,000.0,260414,07.2,W,A*0E
$PTNLRTF,V,A,587611,07,3,3917.26129,N,08203.79312,W,00295,+000.000,+000.000,+000.000,0,1*53
$PTNLRBA,1,1*57
$GPZDA,191316.00,26,04,2014,,*6C
$GPGGA,191316.00,3917.26124,N,08203.79315,W,1,07,1.10,00295,M,-033,M,,*58
$GPGLL,3917.26124,N,08203.79315,W,191316.00,A,A*79
$GPVTG,000.0,T,007.2,M,000.0,N,000.0,K,A*26
$GPGSA,A,3,23,20,27,03,16,31,29,,,,,,1.83,1.10,1.45*03
$GPGSV,3,1,10,23,62,304,43,06,35,148,43,20,26,234,39,13,28,314,36*77
$GPGSV,3,2,10,27,27,155,40,03,19,177,38,16,83,218,35,31,33,075,30*7F
$GPGSV,3,3,10,32,17,197,25,29,07,034,32,,,,,,,,*7D
$GPGST,191316.00,,164.15,164.00,007.1,012.81,012.81,012.92*4E
$GPRMC,191316.00,A,3917.26124,N,08203.79315,W,000.0,000.0,260414,07.2,W,A*07
$PTNLRTF,V,A,587612,07,3,3917.26124,N,08203.79315,W,00295,+000.000,+000.000,+000.000,0,1*5A
$PTNLRBA,1,1*57
$GPZDA,191318.00,26,04,2014,,*62
$GPGGA,191318.00,3917.26125,N,08203.79325,W,1,09,0.87,00295,M,-033,M,,*55
$GPGLL,3917.26125,N,08203.79325,W,191318.00,A,A*75
$GPVTG,000.0,T,007.2,M,000.0,N,000.0,K,A*26
$GPGSA,A,3,23,20,13,27,03,16,31,32,29,,,,1.58,0.87,1.32*09
$GPGSV,3,1,10,23,62,304,42,06,35,148,43,20,26,234,39,13,28,314,36*76
$GPGSV,3,2,10,27,27,155,39,03,19,177,38,16,83,218,34,31,33,075,28*79
$GPGSV,3,3,10,32,17,197,28,29,07,034,33,,,,,,,,*71
$GPGST,191318.00,,162.32,162.16,007.8,012.73,012.74,012.84*4B
$GPRMC,191318.00,A,3917.26125,N,08203.79325,W,000.0,000.0,260414,07.2,W,A*0B
$PTNLRTF,V,A,587614,09,3,3917.26125,N,08203.79325,W,00295,+000.000,+000.000,+000.000,0,1*50
$PTNLRBA,1,1*57
$GPZDA,191319.00,26,04,2014,,*63
$GPGGA,191319.00,3917.26128,N,08203.79328,W,1,09,0.87,00295,M,-033,M,,*54
$GPGLL,3917.26128,N,08203.79328,W,191319.00,A,A*74
$GPVTG,000.0,T,007.2,M,000.0,N,000.0,K,A*26
$GPGSA,A,3,23,20,13,27,03,16,31,32,29,,,,1.58,0.87,1.32*09
$GPGSV,3,1,10,23,62,304,43,06,35,148,43,20,26,234,40,13,28,314,36*79
$GPGSV,3,2,10,27,27,155,39,03,19,177,39,16,83,218,33,31,33,075,29*7E
$GPGSV,3,3,10,32,17,197,28,29,07,034,34,,,,,,,,*76
$GPGST,191319.00,,159.16,159.00,008.2,012.61,012.62,012.71*40
$GPRMC,191319.00,A,3917.26128,N,08203.79328,W,000.0,000.0,260414,07.2,W,A*0A
$PTNLRTF,V,A,587615,09,3,3917.26128,N,08203.79328,W,00295,+000.000,+000.000,+000.000,0,1*51
$PTNLRBA,1,1*57
$GPZDA,191321.00,26,04,2014,,*68
$GPGGA,191321.00,3917.26139,N,08203.79347,W,1,09,0.87,00294,M,-033,M,,*57
$GPGLL,3917.26139,N,08203.79347,W,191321.00,A,A*76
$GPVTG,000.0,T,007.2,M,000.0,N,000.0,K,A*26
$GPGSA,A,3,23,20,13,27,03,16,31,32,29,,,,1.58,0.87,1.32*09
$GPGSV,3,1,10,23,62,304,42,06,35,148,43,20,26,234,39,13,28,314,36*76
$GPGSV,3,2,10,27,27,155,39,03,19,177,38,16,83,218,34,31,33,075,30*70
$GPGSV,3,3,10,32,17,197,28,29,07,034,34,,,,,,,,*76
$GPGST,191321.00,,166.55,166.38,008.2,012.90,012.91,013.00*42
$GPRMC,191321.00,A,3917.26139,N,08203.79347,W,000.0,000.0,260414,07.2,W,A*08
$PTNLRTF,V,A,587617,09,3,3917.26139,N,08203.79347,W,00294,+000.000,+000.000,+000.000,0,1*5B
$PTNLRBA,1,1*57
$GPZDA,191323.00,26,04,2014,,*6A
$GPGGA,191323.00,3917.26147,N,08203.79359,W,1,09,0.87,00294,M,-033,M,,*53
$GPGLL,3917.26147,N,08203.79359,W,191323.00,A,A*72
$GPVTG,000.0,T,007.2,M,000.0,N,000.0,K,A*26
$GPGSA,A,3,23,20,13,27,03,16,31,32,29,,,,1.58,0.87,1.32*09
$GPGSV,3,1,10,23,62,304,43,06,35,148,43,20,26,234,39,13,28,314,37*76
$GPGSV,3,2,10,27,27,155,39,03,19,177,40,16,83,218,34,31,33,075,21*7F
$GPGSV,3,3,10,32,17,197,30,29,07,034,34,,,,,,,,*7F
$GPGST,191323.00,,207.20,207.02,008.5,014.39,014.39,014.47*49
$GPRMC,191323.00,A,3917.26147,N,08203.79359,W,000.0,000.0,260414,07.2,W,A*0C
$PTNLRTF,V,A,587619,09,3,3917.26147,N,08203.79359,W,00294,+000.000,+000.000,+000.000,0,1*53
$PTNLRBA,1,1*57
$GPZDA,191324.00,26,04,2014,,*6D
$GPGGA,191324.00,3917.26152,N,08203.79363,W,1,09,0.87,00294,M,-033,M,,*59
$GPGLL,3917.26152,N,08203.79363,W,191324.00,A,A*78
$GPVTG,000.0,T,007.2,M,000.0,N,000.0,K,A*26
$GPGSA,A,3,23,20,13,27,03,16,31,32,29,,,,1.58,0.87,1.32*09
$GPGSV,3,1,10,23,62,304,43,06,35,148,43,20,26,234,39,13,28,314,37*76
$GPGSV,3,2,10,27,27,155,39,03,19,177,39,16,83,218,35,31,33,075,25*74
$GPGSV,3,3,10,32,17,197,29,29,07,034,35,,,,,,,,*76
$GPGST,191324.00,,207.27,207.09,008.7,014.39,014.40,014.47*4E
$GPRMC,191324.00,A,3917.26152,N,08203.79363,W,000.0,000.0,260414,07.2,W,A*06
$PTNLRTF,V,A,587620,09,3,3917.26152,N,08203.79363,W,00294,+000.000,+000.000,+000.000,0,1*54
$PTNLRBA,1,1*57
$GPZDA,191326.00,26,04,2014,,*6F
$GPGGA,191326.00,3917.26166,N,08203.79365,W,1,09,0.87,00294,M,-033,M,,*5A
$GPGLL,3917.26166,N,08203.79365,W,191326.00,A,A*7B
$GPVTG,000.0,T,007.2,M,000.0,N,000.0,K,A*26
$GPGSA,A,3,23,20,13,27,03,16,31,32,29,,,,1.58,0.87,1.32*09
$GPGSV,3,1,10,23,62,304,44,06,35,148,43,20,26,234,39,13,28,314,38*7E
$GPGSV,3,2,10,27,27,155,40,03,19,177,39,16,83,218,36,31,33,075,26*7A
$GPGSV,3,3,10,32,17,197,30,29,07,034,35,,,,,,,,*7E
$GPGST,191326.00,,228.15,227.96,007.6,015.10,015.10,015.17*40
$GPRMC,191326.00,A,3917.26166,N,08203.79365,W,000.0,000.0,260414,07.2,W,A*05
$PTNLRTF,V,A,587622,09,3,3917.26166,N,08203.79365,W,00294,+000.000,+000.000,+000.000,0,1*57
$PTNLRBA,1,1*57
$GPZDA,191327.00,26,04,2014,,*6E
$GPGGA,191327.00,3917.26174,N,08203.79365,W,1,09,0.87,00293,M,-033,M,,*5F
$GPGLL,3917.26174,N,08203.79365,W,191327.00,A,A*79
$GPVTG,000.0,T,007.2,M,000.0,N,000.0,K,A*26
$GPGSA,A,3,23,20,13,27,03,16,31,32,29,,,,1.58,0.87,1.32*09
$GPGSV,3,1,10,23,62,304,43,06,35,148,43,20,26,234,40,13,28,314,38*77
$GPGSV,3,2,10,27,27,155,40,03,19,177,40,16,83,218,35,31,33,075,27*76
$GPGSV,3,3,10,32,17,197,30,29,07,034,35,,,,,,,,*7E
$GPGST,191327.00,,231.87,231.68,007.2,015.22,015.23,015.29*4C
$GPRMC,191327.00,A,3917.26174,N,08203.79365,W,000.0,000.0,260414,07.2,W,A*07
$PTNLRTF,V,A,587623,09,3,3917.26174,N,08203.79365,W,00293,+000.000,+000.000,+000.000,0,1*52
$PTNLRBA,1,1*57
$GPZDA,191329.00,26,04,2014,,*60
$GPGGA,191329.00,3917.26185,N,08203.79370,W,1,09,0.87,00293,M,-033,M,,*5B
$GPGLL,3917.26185,N,08203.79370,W,191329.00,A,A*7D
$GPVTG,000.0,T,007.2,M,000.0,N,000.0,K,A*26
$GPGSA,A,3,23,20,13,27,03,16,31,32,29,,,,1.58,0.87,1.32*09
$GPGSV,3,1,10,23,62,304,43,06,35,148,43,20,26,234,39,13,28,314,39*78
$GPGSV,3,2,10,27,27,155,40,03,19,177,40,16,83,218,34,31,33,075,28*78
$GPGSV,3,3,10,32,17,197,30,29,07,034,35,,,,,,,,*7E
$GPGST,191329.00,,270.75,270.56,007.4,016.45,016.45,016.51*49
$GPRMC,191329.00,A,3917.26185,N,08203.79370,W,000.0,000.0,260414,07.2,W,A*03
$PTNLRTF,V,A,587625,09,3,3917.26185,N,08203.79370,W,00293,+000.000,+000.000,+000.000,0,1*5E
$PTNLRBA,1,1*57
$GPZDA,191330.00,26,04,2014,,*68
$GPGGA,191330.00,3917.26186,N,08203.79392,W,1,09,0.87,00293,M,-033,M,,*5C
$GPGLL,3917.26186,N,08203.79392,W,191330.00,A,A*7A
$GPVTG,253.7,T,261.0,M,000.5,N,001.0,K,A*21
$GPGSA,A,3,23,20,13,27,03,16,31,32,29,,,,1.58,0.87,1.32*09
$GPGSV,3,1,10,23,62,304,43,06,35,148,43,20,26,234,39,13,28,314,39*78
$GPGSV,3,2,10,27,27,155,40,03,19,177,40,16,83,218,34,31,33,075,26*76
$GPGSV,3,3,10,32,17,197,29,29,07,034,35,,,,,,,,*76
$GPGST,191330.00,,272.39,272.18,007.6,016.50,016.50,016.56*46
