$GPZDA,014723.00,24,12,2013,,*60
$GPGGA,014723.00,4003.48309,N,08254.66604,W,2,08,0.94,00248,M,-033,M,,*50
$GPGLL,4003.48309,N,08254.66604,W,014723.00,A,D*75
$GPVTG,000.0,T,006.7,M,000.00,N,000.00,K,D*27
$GPGSA,A,3,25,01,31,32,14,20,16,23,,,,,1.66,0.94,1.38*00
$GPGSV,3,1,10,25,21,043,40,01,05,256,39,29,12,075,24,31,66,028,34*71
$GPGSV,3,2,10,32,61,253,33,14,33,105,31,20,36,298,39,16,24,193,46*7E
$GPGSV,3,3,10,46,43,203,44,23,13,302,44,,,,,,,,*7E
$GPGST,014723.00,,140.94,140.92,083.8,011.87,011.87,011.90*46
$GPRMC,014723.00,A,4003.48309,N,08254.66604,W,000.00,000.0,241213,06.7,W,D*3D
$$GPZDA,014725.00,24,12,2013,,*66
$GPGGA,014725.00,4003.48307,N,08254.66604,W,2,09,0.87,00248,M,-033,M,,*5B
$GPGLL,4003.48307,N,08254.66604,W,014725.00,A,D*7D
$GPVTG,000.0,T,006.7,M,000.00,N,000.00,K,D*27
$GPGSA,A,3,25,01,29,31,32,14,20,16,23,,,,1.51,0.87,1.24*00
$GPGSV,3,1,10,25,21,043,39,01,05,256,39,29,12,075,29,31,66,028,34*72
$GPGSV,3,2,10,32,61,253,34,14,33,105,31,20,36,298,39,16,24,193,46*79
$GPGSV,3,3,10,46,43,203,44,23,13,302,44,,,,,,,,*7E
$GPGST,014725.00,,145.95,145.93,084.4,012.08,012.08,012.11*41
$GPRMC,014725.00,A,4003.48307,N,08254.66604,W,000.00,000.0,241213,06.7,W,D*35
$PTNLRTF,V,A,179261,09,3,4003.48307,N,08254.66604,W,00248,+000.000,+000.000,+000.000,0,1*58
$PTNLRBA,1,1*57
$GPZDA,014727.00,24,12,2013,,*64
$GPGGA,014727.00,4003.48305,N,08254.66609,W,2,09,0.87,00248,M,-033,M,,*56
$GPGLL,4003.48305,N,08254.66609,W,014727.00,A,D*70
$GPVTG,277.7,T,284.4,M,000.09,N,000.16,K,D*27
$GPGSA,A,3,25,01,29,31,32,14,20,16,23,,,,1.51,0.87,1.24*00
$GPGSV,3,1,10,25,21,043,40,01,05,256,39,29,12,075,29,31,66,028,36*7E
$GPGSV,3,2,10,32,61,253,34,14,33,105,32,20,36,298,39,16,24,193,46*7A
$GPGSV,3,3,10,46,43,203,44,23,13,302,44,,,,,,,,*7E
$GPGST,014727.00,,150.74,150.72,077.8,012.28,012.28,012.31*41
$GPRMC,014727.00,A,4003.48305,N,08254.66609,W,000.09,277.7,241213,06.7,W,D*34
$PTNLRTF,V,A,179263,09,3,4003.48305,N,08254.66609,W,00248,-000.044,+000.006,-000.066,0,1*53
$PTNLRBA,1,1*57
$GPZDA,014728.00,24,12,2013,,*6B
$GPGGA,014728.00,4003.48303,N,08254.66607,W,2,09,0.87,00248,M,-033,M,,*51
$GPGLL,4003.48303,N,08254.66607,W,014728.00,A,D*77
$GPVTG,000.0,T,006.7,M,000.00,N,000.00,K,D*27
$GPGSA,A,3,25,01,29,31,32,14,20,16,23,,,,1.51,0.87,1.24*00
$GPGSV,3,1,10,25,21,043,39,01,05,256,37,29,12,075,31,31,66,028,36*77
$GPGSV,3,2,10,32,61,253,34,14,33,105,32,20,36,298,39,16,24,193,46*7A
$GPGSV,3,3,10,46,43,203,45,23,13,302,44,,,,,,,,*7F
$GPGST,014728.00,,145.37,145.35,081.5,012.06,012.06,012.08*44
$GPRMC,014728.00,A,4003.48303,N,08254.66607,W,000.00,000.0,241213,06.7,W,D*3F
$PTNLRTF,V,A,179264,09,3,4003.48303,N,08254.66607,W,00248,+000.000,+000.000,+000.000,0,1*5A
$PTNLRBA,1,1*57
$GPZDA,014729.00,24,12,2013,,*6A
$GPGGA,014729.00,4003.48301,N,08254.66608,W,2,09,0.87,00248,M,-033,M,,*5D
$GPGLL,4003.48301,N,08254.66608,W,014729.00,A,D*7B
$GPVTG,000.0,T,006.7,M,000.00,N,000.00,K,D*27
$GPGSA,A,3,25,01,29,31,32,14,20,16,23,,,,1.51,0.87,1.24*00
$GPGSV,3,1,10,25,21,043,40,01,05,256,37,29,12,075,30,31,66,028,36*78
$GPGSV,3,2,10,32,61,253,35,14,33,105,33,20,36,298,39,16,24,193,46*7A
$GPGSV,3,3,10,46,43,203,44,23,13,302,44,,,,,,,,*7E
$GPGST,014729.00,,138.19,138.17,081.7,011.76,011.75,011.78*4C
$GPRMC,014729.00,A,4003.48301,N,08254.66608,W,000.00,000.0,241213,06.7,W,D*33
$PTNLRTF,V,A,179265,09,3,4003.48301,N,08254.66608,W,00248,+000.000,+000.000,+000.000,0,1*56
$PTNLRBA,1,1*57
$GPZDA,014731.00,24,12,2013,,*63
$GPGGA,014731.00,4003.48295,N,08254.66615,W,2,09,0.87,00248,M,-033,M,,*54
$GPGLL,4003.48295,N,08254.66615,W,014731.00,A,D*72
$GPVTG,253.9,T,260.6,M,000.12,N,000.23,K,D*2B
$GPGSA,A,3,25,01,29,31,32,14,20,16,23,,,,1.51,0.87,1.24*00
$GPGSV,3,1,10,25,21,043,39,01,05,256,37,29,12,075,30,31,66,028,36*76
$GPGSV,3,2,10,32,61,253,34,14,33,105,33,20,36,298,39,16,24,193,46*7B
$GPGSV,3,3,10,46,43,203,44,23,13,302,45,,,,,,,,*7F
$GPGST,014731.00,,130.52,130.51,078.0,011.42,011.42,011.46*47
$GPRMC,014731.00,A,4003.48295,N,08254.66615,W,000.12,253.9,241213,06.7,W,D*34
$PTNLRTF,V,A,179267,09,3,4003.48295,N,08254.66615,W,00248,-000.060,-000.017,-000.164,0,1*51
$PTNLRBA,1,1*57
$GPZDA,014732.00,24,12,2013,,*60
$GPGGA,014732.00,4003.48295,N,08254.66611,W,2,09,0.87,00248,M,-033,M,,*53
$GPGLL,4003.48295,N,08254.66611,W,014732.00,A,D*75
$GPVTG,000.0,T,006.7,M,000.00,N,000.00,K,D*27
$GPGSA,A,3,25,01,29,31,32,14,20,16,23,,,,1.51,0.87,1.24*00
$GPGSV,3,1,10,25,21,043,39,01,05,256,36,29,12,075,28,31,66,028,36*7E
$GPGSV,3,2,10,32,61,253,35,14,33,105,33,20,36,298,39,16,24,193,46*7A
$GPGSV,3,3,10,46,43,203,44,23,13,302,45,,,,,,,,*7F
$GPGST,014732.00,,124.05,124.03,077.2,011.14,011.14,011.17*48
$GPRMC,014732.00,A,4003.48295,N,08254.66611,W,000.00,000.0,241213,06.7,W,D*3D
$PTNLRTF,V,A,179269,09,3,4003.48295,N,08254.66611,W,00248,+000.000,+000.000,+000.000,0,1*5E
$PTNLRBA,1,1*57
$GPZDA,014734.00,24,12,2013,,*66
$GPGGA,014734.00,4003.48293,N,08254.66611,W,2,09,0.87,00248,M,-033,M,,*53
$GPGLL,4003.48293,N,08254.66611,W,014734.00,A,D*75
$GPVTG,000.0,T,006.7,M,000.00,N,000.00,K,D*27
$GPGSA,A,3,25,01,29,31,32,14,20,16,23,,,,1.51,0.87,1.24*00
$GPGSV,3,1,10,25,21,043,39,01,05,256,37,29,12,075,27,31,66,028,36*70
$GPGSV,3,2,10,32,61,253,34,14,32,106,32,20,36,298,39,16,25,193,46*79
$GPGSV,3,3,10,46,43,203,45,23,13,302,44,,,,,,,,*7F
$GPGST,014734.00,,121.36,121.35,078.2,011.02,011.02,011.05*47
$GPRMC,014734.00,A,4003.48293,N,08254.66611,W,000.00,000.0,241213,06.7,W,D*3D
$PTNLRTF,V,A,179270,09,3,4003.48293,N,08254.66611,W,00248,+000.000,+000.000,+000.000,0,1*50
$PTNLRBA,1,1*57
$GPZDA,014736.00,24,12,2013,,*64
$GPGGA,014736.00,4003.48291,N,08254.66611,W,2,09,0.87,00248,M,-033,M,,*53
$GPGLL,4003.48291,N,08254.66611,W,014736.00,A,D*75
$GPVTG,000.0,T,006.7,M,000.00,N,000.00,K,D*27
$GPGSA,A,3,25,01,29,31,32,14,20,16,23,,,,1.51,0.87,1.24*00
$GPGSV,3,1,10,25,21,043,39,01,05,256,38,29,12,075,25,31,66,028,35*7E
$GPGSV,3,2,10,32,61,252,35,14,32,106,32,20,36,298,39,16,25,193,46*79
$GPGSV,3,3,10,46,43,203,45,23,13,302,45,,,,,,,,*7E
$GPGST,014736.00,,124.27,124.25,079.1,011.15,011.15,011.18*4A
$GPRMC,014736.00,A,4003.48291,N,08254.66611,W,000.00,000.0,241213,06.7,W,D*3D
$PTNLRTF,V,A,179272,09,3,4003.48291,N,08254.66611,W,00248,+000.000,+000.000,+000.000,0,1*50
$PTNLRBA,1,1*57
$GPZDA,014737.00,24,12,2013,,*65
$GPGGA,014737.00,4003.48289,N,08254.66611,W,2,09,0.87,00248,M,-033,M,,*5B
$GPGLL,4003.48289,N,08254.66611,W,014737.00,A,D*7D
$GPVTG,000.0,T,006.7,M,000.00,N,000.00,K,D*27
$GPGSA,A,3,25,01,29,31,32,14,20,16,23,,,,1.51,0.87,1.24*00
$GPGSV,3,1,10,25,21,043,39,01,05,256,38,29,12,075,28,31,66,028,36*70
$GPGSV,3,2,10,32,61,252,35,14,32,106,31,20,36,298,40,16,25,193,46*74
$GPGSV,3,3,10,46,43,203,45,23,13,302,45,,,,,,,,*7E
$GPGST,014737.00,,122.23,122.22,079.8,011.06,011.06,011.08*40
$GPRMC,014737.00,A,4003.48289,N,08254.66611,W,000.00,000.0,241213,06.7,W,D*35
$PTNLRTF,V,A,179273,09,3,4003.48289,N,08254.66611,W,00248,+000.000,+000.000,+000.000,0,1*58
$PTNLRBA,1,1*57
$GPZDA,014739.00,24,12,2013,,*6B
$GPGGA,014739.00,4003.48288,N,08254.66611,W,2,09,0.87,00248,M,-033,M,,*54
$GPGLL,4003.48288,N,08254.66611,W,014739.00,A,D*72
$GPVTG,000.0,T,006.7,M,000.00,N,000.00,K,D*27
$GPGSA,A,3,25,01,29,31,32,14,20,16,23,,,,1.51,0.87,1.24*00
$GPGSV,3,1,10,25,21,043,39,01,05,256,39,29,12,075,27,31,66,028,36*7E
$GPGSV,3,2,10,32,61,252,35,14,32,106,31,20,36,298,40,16,25,193,47*75
$GPGSV,3,3,10,46,43,203,44,23,13,302,44,,,,,,,,*7E
$GPGST,014739.00,,129.01,128.99,080.5,011.36,011.36,011.38*47
$GPRMC,014739.00,A,4003.48288,N,08254.66611,W,000.00,000.0,241213,06.7,W,D*3A
$PTNLRTF,V,A,179275,09,3,4003.48288,N,08254.66611,W,00248,+000.000,+000.000,+000.000,0,1*5F
$PTNLRBA,1,1*57
$GPZDA,014740.00,24,12,2013,,*65
$GPGGA,014740.00,4003.48287,N,08254.66611,W,2,09,0.87,00248,M,-033,M,,*55
$GPGLL,4003.48287,N,08254.66611,W,014740.00,A,D*73
$GPVTG,000.0,T,006.7,M,000.00,N,000.00,K,D*27
$GPGSA,A,3,25,01,29,31,32,14,20,16,23,,,,1.51,0.87,1.24*00
$GPGSV,3,1,10,25,21,043,39,01,05,256,39,29,12,075,28,31,66,028,36*71
$GPGSV,3,2,10,32,61,252,34,14,32,106,31,20,36,298,39,16,25,193,46*7B
$GPGSV,3,3,10,46,43,203,45,23,13,302,43,,,,,,,,*78
$GPGST,014740.00,,133.81,133.80,080.8,011.57,011.57,011.59*42
$GPRMC,014740.00,A,4003.48287,N,08254.66611,W,000.00,000.0,241213,06.7,W,D*3B
$PTNLRTF,V,A,179276,09,3,4003.48287,N,08254.66611,W,00248,+000.000,+000.000,+000.000,0,1*53
$PTNLRBA,1,1*57
$GPZDA,014742.00,24,12,2013,,*67
$GPGGA,014742.00,4003.48285,N,08254.66610,W,2,09,0.87,00248,M,-033,M,,*54
$GPGLL,4003.48285,N,08254.66610,W,014742.00,A,D*72
$GPVTG,000.0,T,006.7,M,000.00,N,000.00,K,D*27
$GPGSA,A,3,25,01,29,31,32,14,20,16,23,,,,1.51,0.87,1.24*00
$GPGSV,3,1,10,25,21,043,39,01,05,256,40,29,12,075,26,31,66,028,36*71
$GPGSV,3,2,10,32,61,252,35,14,32,106,32,20,36,298,40,16,25,193,45*74
$GPGSV,3,3,10,46,43,203,45,23,13,302,43,,,,,,,,*78
$GPGST,014742.00,,118.57,118.55,081.4,010.89,010.89,010.92*48
$GPRMC,014742.00,A,4003.48285,N,08254.66610,W,000.00,000.0,241213,06.7,W,D*3A
$PTNLRTF,V,A,179278,09,3,4003.48285,N,08254.66610,W,00248,+000.000,+000.000,+000.000,0,1*5E
$PTNLRBA,1,1*57
$GPZDA,014743.00,24,12,2013,,*66
$GPGGA,014743.00,4003.48284,N,08254.66609,W,2,08,0.89,00248,M,-033,M,,*53
$GPGLL,4003.48284,N,08254.66609,W,014743.00,A,D*7A
$GPVTG,000.0,T,006.7,M,000.00,N,000.00,K,D*27
$GPGSA,A,3,25,01,29,32,14,20,16,23,,,,,1.77,0.89,1.53*08
$GPGSV,3,1,10,25,21,043,39,01,05,256,40,29,12,075,25,31,66,028,36*72
$GPGSV,3,2,10,32,61,252,34,14,32,106,32,20,36,298,40,16,25,193,46*76
$GPGSV,3,3,10,46,43,203,44,23,13,302,43,,,,,,,,*79
$GPGST,014743.00,,112.41,112.40,081.7,010.60,010.60,010.63*47
$GPRMC,014743.00,A,4003.48284,N,08254.66609,W,000.00,000.0,241213,06.7,W,D*32
$PTNLRTF,V,A,179279,08,3,4003.48284,N,08254.66609,W,00248,+000.000,+000.000,+000.000,0,1*57
$PTNLRBA,1,1*57
$GPZDA,014745.00,24,12,2013,,*60
$GPGGA,014745.00,4003.48283,N,08254.66606,W,2,08,0.89,00247,M,-033,M,,*52
$GPGLL,4003.48283,N,08254.66606,W,014745.00,A,D*74
$GPVTG,000.0,T,006.7,M,000.00,N,000.00,K,D*27
$GPGSA,A,3,25,01,29,32,14,20,16,23,,,,,1.77,0.89,1.53*08
$GPGSV,3,1,10,25,21,043,38,01,05,256,40,29,12,075,26,31,66,028,36*70
$GPGSV,3,2,10,32,61,252,35,14,32,106,31,20,36,298,41,16,25,193,46*75
$GPGSV,3,3,10,46,43,203,44,23,13,302,43,,,,,,,,*79
$GPGST,014745.00,,106.16,106.14,082.2,010.30,010.30,010.33*41
$GPRMC,014745.00,A,4003.48283,N,08254.66606,W,000.00,000.0,241213,06.7,W,D*3C
$PTNLRTF,V,A,179281,08,3,4003.48283,N,08254.66606,W,00247,+000.000,+000.000,+000.000,0,1*57
$PTNLRBA,1,1*57
$GPZDA,014746.00,24,12,2013,,*63
$GPGGA,014746.00,4003.48283,N,08254.66603,W,2,09,0.87,00247,M,-033,M,,*5B
$GPGLL,4003.48283,N,08254.66603,W,014746.00,A,D*72
$GPVTG,000.0,T,006.7,M,000.00,N,000.00,K,D*27
$GPGSA,A,3,25,01,29,32,14,20,16,23,,,,,1.77,0.89,1.53*08
$GPGSV,3,1,10,25,21,043,39,01,05,256,40,29,12,075,31,31,66,028,36*77
$GPGSV,3,2,10,32,61,252,36,14,32,106,31,20,36,298,40,16,25,193,46*77
$GPGSV,3,3,10,46,43,203,44,23,13,302,43,,,,,,,,*79
$GPGST,014746.00,,107.80,107.79,082.4,010.38,010.38,010.41*45
$GPRMC,014746.00,A,4003.48283,N,08254.66603,W,000.00,000.0,241213,06.7,W,D*3A
$PTNLRTF,V,A,179283,08,3,4003.48283,N,08254.66603,W,00247,+000.000,+000.000,+000.000,0,1*50
$PTNLRBA,1,1*57
