$GPZDA,014628.00,24,12,2013,,*6A
$GPGGA,014628.00,4003.48338,N,08254.66602,W,2,08,0.94,00247,M,-033,M,,*51
$GPGLL,4003.48338,N,08254.66602,W,014628.00,A,D*7B
$GPVTG,000.0,T,006.7,M,000.00,N,000.00,K,D*27
$GPGSA,A,3,25,01,31,32,14,20,16,23,,,,,1.67,0.94,1.38*01
$GPGSV,3,1,10,25,22,043,39,01,05,256,42,29,12,076,26,31,66,027,39*73
$GPGSV,3,2,10,32,61,254,34,14,33,105,42,20,36,299,37,16,24,193,46*75
$GPGSV,3,3,10,46,43,203,45,23,13,302,47,,,,,,,,*7C
$GPGST,014628.00,,125.95,125.90,088.9,011.22,011.22,011.24*4A
$GPRMC,014628.00,A,4003.48338,N,08254.66602,W,000.00,000.0,241213,06.7,W,D*33
$$GPZDA,014631.00,24,12,2013,,*62
$GPGGA,014631.00,4003.48337,N,08254.66601,W,2,08,0.92,00246,M,-033,M,,*52
$GPGLL,4003.48337,N,08254.66601,W,014631.00,A,D*7F
$GPVTG,000.0,T,006.7,M,000.00,N,000.00,K,D*27
$GPGSA,A,3,25,01,29,31,32,14,16,23,,,,,1.56,0.92,1.26*03
$GPGSV,3,1,10,25,22,043,37,01,05,256,42,29,12,076,27,31,66,027,38*7D
$GPGSV,3,2,10,32,61,254,34,14,33,105,40,20,36,299,36,16,24,193,46*76
$GPGSV,3,3,10,46,43,203,44,23,13,302,46,,,,,,,,*7C
$GPGST,014631.00,,105.92,105.87,088.8,010.29,010.29,010.31*47
$GPRMC,014631.00,A,4003.48337,N,08254.66601,W,000.00,000.0,241213,06.7,W,D*37
$PTNLRTF,V,A,179207,08,3,4003.48337,N,08254.66601,W,00246,+000.000,+000.000,+000.000,0,1*51
$PTNLRBA,1,1*57
$GPZDA,014633.00,24,12,2013,,*60
$GPGGA,014633.00,4003.48340,N,08254.66599,W,2,09,0.87,00246,M,-033,M,,*57
$GPGLL,4003.48340,N,08254.66599,W,014633.00,A,D*7F
$GPVTG,019.9,T,026.6,M,000.13,N,000.25,K,D*20
$GPGSA,A,3,25,01,29,31,32,14,20,16,23,,,,1.51,0.87,1.23*07
$GPGSV,3,1,10,25,22,043,37,01,05,256,41,29,12,076,27,31,66,027,37*71
$GPGSV,3,2,10,32,61,254,34,14,33,105,40,20,36,299,37,16,24,193,45*74
$GPGSV,3,3,10,46,43,203,44,23,13,302,45,,,,,,,,*7F
$GPGST,014633.00,,114.34,114.29,089.5,010.69,010.69,010.71*45
$GPRMC,014633.00,A,4003.48340,N,08254.66599,W,000.13,019.9,241213,06.7,W,D*34
$PTNLRTF,V,A,179209,09,3,4003.48340,N,08254.66599,W,00246,+000.023,+000.064,-000.261,0,1*5C
$PTNLRBA,1,1*57
$GPZDA,014634.00,24,12,2013,,*67
$GPGGA,014634.00,4003.48337,N,08254.66596,W,2,09,0.87,00246,M,-033,M,,*5F
$GPGLL,4003.48337,N,08254.66596,W,014634.00,A,D*77
$GPVTG,137.9,T,144.6,M,000.10,N,000.18,K,D*25
$GPGSA,A,3,25,01,29,31,32,14,20,16,23,,,,1.51,0.87,1.23*07
$GPGSV,3,1,10,25,22,043,37,01,05,256,41,29,12,076,24,31,66,027,37*72
$GPGSV,3,2,10,32,61,254,34,14,33,105,40,20,36,299,37,16,24,193,45*74
$GPGSV,3,3,10,46,43,203,44,23,13,302,45,,,,,,,,*7F
$GPGST,014634.00,,142.08,142.03,089.6,011.92,011.92,011.94*4C
$GPRMC,014634.00,A,4003.48337,N,08254.66596,W,000.10,137.9,241213,06.7,W,D*32
$PTNLRTF,V,A,179210,09,3,4003.48337,N,08254.66596,W,00246,+000.034,-000.038,-000.062,0,1*53
$PTNLRBA,1,1*57
$GPZDA,014636.00,24,12,2013,,*65
$GPGGA,014636.00,4003.48339,N,08254.66599,W,2,09,0.87,00246,M,-033,M,,*5C
$GPGLL,4003.48339,N,08254.66599,W,014636.00,A,D*74
$GPVTG,000.0,T,006.7,M,000.00,N,000.00,K,D*27
$GPGSA,A,3,25,01,29,31,32,14,20,16,23,,,,1.51,0.87,1.23*07
$GPGSV,3,1,10,25,22,043,38,01,05,256,42,29,12,076,24,31,66,027,37*7E
$GPGSV,3,2,10,32,61,254,34,14,33,105,40,20,36,299,37,16,24,193,46*77
$GPGSV,3,3,10,46,43,203,45,23,13,302,45,,,,,,,,*7E
$GPGST,014636.00,,139.96,139.91,088.8,011.83,011.83,011.85*4D
$GPRMC,014636.00,A,4003.48339,N,08254.66599,W,000.00,000.0,241213,06.7,W,D*3C
$PTNLRTF,V,A,179212,09,3,4003.48339,N,08254.66599,W,00246,+000.000,+000.000,+000.000,0,1*58
$PTNLRBA,1,1*57
$GPZDA,014637.00,24,12,2013,,*64
$GPGGA,014637.00,4003.48338,N,08254.66599,W,2,09,0.87,00246,M,-033,M,,*5C
$GPGLL,4003.48338,N,08254.66599,W,014637.00,A,D*74
$GPVTG,000.0,T,006.7,M,000.00,N,000.00,K,D*27
$GPGSA,A,3,25,01,29,31,32,14,20,16,23,,,,1.51,0.87,1.23*07
$GPGSV,3,1,10,25,22,043,38,01,05,256,42,29,12,076,24,31,66,027,38*71
$GPGSV,3,2,10,32,61,254,34,14,33,105,40,20,36,299,38,16,24,193,45*7B
$GPGSV,3,3,10,46,43,203,44,23,13,302,45,,,,,,,,*7F
$GPGST,014637.00,,130.18,130.13,088.9,011.41,011.41,011.42*4A
$GPRMC,014637.00,A,4003.48338,N,08254.66599,W,000.00,000.0,241213,06.7,W,D*3C
$PTNLRTF,V,A,179213,09,3,4003.48338,N,08254.66599,W,00246,+000.000,+000.000,+000.000,0,1*58
$PTNLRBA,1,1*57
$GPZDA,014639.00,24,12,2013,,*6A
$GPGGA,014639.00,4003.48336,N,08254.66599,W,2,08,0.94,00246,M,-033,M,,*5F
$GPGLL,4003.48336,N,08254.66599,W,014639.00,A,D*74
$GPVTG,000.0,T,006.7,M,000.00,N,000.00,K,D*27
$GPGSA,A,3,25,01,31,32,14,20,16,23,,,,,1.67,0.94,1.38*01
$GPGSV,3,1,10,25,22,043,40,01,05,256,42,29,12,076,22,31,66,027,38*78
$GPGSV,3,2,10,32,61,254,34,14,33,105,40,20,36,299,38,16,24,193,45*7B
$GPGSV,3,3,10,46,43,203,44,23,13,302,46,,,,,,,,*7C
$GPGST,014639.00,,108.19,108.14,089.0,010.40,010.40,010.42*4B
$GPRMC,014639.00,A,4003.48336,N,08254.66599,W,000.00,000.0,241213,06.7,W,D*3C
$PTNLRTF,V,A,179215,08,3,4003.48336,N,08254.66599,W,00246,+000.000,+000.000,+000.000,0,1*51
$PTNLRBA,1,1*57
$GPZDA,014640.00,24,12,2013,,*64
$GPGGA,014640.00,4003.48336,N,08254.66599,W,2,09,0.87,00246,M,-033,M,,*52
$GPGLL,4003.48336,N,08254.66599,W,014640.00,A,D*7A
$GPVTG,000.0,T,006.7,M,000.00,N,000.00,K,D*27
$GPGSA,A,3,25,01,29,31,32,14,20,16,23,,,,1.51,0.87,1.23*07
$GPGSV,3,1,10,25,22,043,39,01,05,256,42,29,12,076,25,31,66,027,38*71
$GPGSV,3,2,10,32,61,254,36,14,33,105,40,20,36,299,37,16,24,193,46*75
$GPGSV,3,3,10,46,43,203,44,23,13,302,46,,,,,,,,*7C
$GPGST,014640.00,,098.27,098.23,089.0,009.91,009.91,009.93*48
$GPRMC,014640.00,A,4003.48336,N,08254.66599,W,000.00,000.0,241213,06.7,W,D*32
$PTNLRTF,V,A,179217,09,3,4003.48336,N,08254.66599,W,00246,+000.000,+000.000,+000.000,0,1*52
$PTNLRBA,1,1*57
$GPZDA,014642.00,24,12,2013,,*66
$GPGGA,014642.00,4003.48336,N,08254.66599,W,2,09,0.87,00246,M,-033,M,,*50
$GPGLL,4003.48336,N,08254.66599,W,014642.00,A,D*78
$GPVTG,000.0,T,006.7,M,000.00,N,000.00,K,D*27
$GPGSA,A,3,25,01,29,31,32,14,20,16,23,,,,1.51,0.87,1.23*07
$GPGSV,3,1,10,25,22,043,36,01,05,256,41,29,12,076,31,31,66,027,38*78
$GPGSV,3,2,10,32,61,254,32,14,33,105,39,20,36,299,37,16,24,193,46*7F
$GPGSV,3,3,10,46,43,203,44,23,13,302,45,,,,,,,,*7F
$GPGST,014642.00,,085.13,085.08,089.0,009.23,009.22,009.24*49
$GPRMC,014642.00,A,4003.48336,N,08254.66599,W,000.00,000.0,241213,06.7,W,D*30
$PTNLRTF,V,A,179218,09,3,4003.48336,N,08254.66599,W,00246,+000.000,+000.000,+000.000,0,1*5D
$PTNLRBA,1,1*57
$GPZDA,014644.00,24,12,2013,,*60
$GPGGA,014644.00,4003.48334,N,08254.66601,W,2,09,0.87,00246,M,-033,M,,*56
$GPGLL,4003.48334,N,08254.66601,W,014644.00,A,D*7E
$GPVTG,000.0,T,006.7,M,000.00,N,000.00,K,D*27
$GPGSA,A,3,25,01,29,31,32,14,20,16,23,,,,1.51,0.87,1.23*07
$GPGSV,3,1,10,25,22,043,38,01,05,256,38,29,12,076,35,31,66,027,36*72
$GPGSV,3,2,10,32,61,254,29,14,33,105,37,20,36,299,38,16,24,193,47*75
$GPGSV,3,3,10,46,43,203,44,23,13,302,45,,,,,,,,*7F
$GPGST,014644.00,,078.30,078.25,089.1,008.85,008.85,008.87*49
$GPRMC,014644.00,A,4003.48334,N,08254.66601,W,000.00,000.0,241213,06.7,W,D*36
$PTNLRTF,V,A,179220,09,3,4003.48334,N,08254.66601,W,00246,+000.000,+000.000,+000.000,0,1*56
$PTNLRBA,1,1*57
$GPZDA,014645.00,24,12,2013,,*61
$GPGGA,014645.00,4003.48334,N,08254.66601,W,2,09,0.87,00246,M,-033,M,,*57
$GPGLL,4003.48334,N,08254.66601,W,014645.00,A,D*7F
$GPVTG,000.0,T,006.7,M,000.00,N,000.00,K,D*27
$GPGSA,A,3,25,01,29,31,32,14,20,16,23,,,,1.51,0.87,1.23*07
$GPGSV,3,1,10,25,22,043,37,01,05,256,37,29,12,076,24,31,66,027,37*73
$GPGSV,3,2,10,32,61,254,29,14,33,105,35,20,36,299,39,16,24,193,46*77
$GPGSV,3,3,10,46,43,203,44,23,13,302,45,,,,,,,,*7F
$GPGST,014645.00,,086.82,086.77,089.1,009.32,009.32,009.34*4F
$GPRMC,014645.00,A,4003.48334,N,08254.66601,W,000.00,000.0,241213,06.7,W,D*37
$PTNLRTF,V,A,179221,09,3,4003.48334,N,08254.66601,W,00246,+000.000,+000.000,+000.000,0,1*57
$PTNLRBA,1,1*57
$GPZDA,014647.00,24,12,2013,,*63
$GPGGA,014647.00,4003.48332,N,08254.66600,W,2,09,0.87,00246,M,-033,M,,*52
$GPGLL,4003.48332,N,08254.66600,W,014647.00,A,D*7A
$GPVTG,000.0,T,006.7,M,000.00,N,000.00,K,D*27
$GPGSA,A,3,25,01,29,31,32,14,20,16,23,,,,1.51,0.87,1.23*07
$GPGSV,3,1,10,25,22,043,37,01,05,256,39,29,12,076,23,31,66,027,37*7A
$GPGSV,3,2,10,32,61,254,27,14,33,105,33,20,36,299,39,16,24,193,46*7F
$GPGSV,3,3,10,46,43,203,44,23,13,302,45,,,,,,,,*7F
$GPGST,014647.00,,124.80,124.75,089.1,011.17,011.17,011.19*4B
$GPRMC,014647.00,A,4003.48332,N,08254.66600,W,000.00,000.0,241213,06.7,W,D*32
$PTNLRTF,V,A,179223,09,3,4003.48332,N,08254.66600,W,00246,+000.000,+000.000,+000.000,0,1*52
$PTNLRBA,1,1*57
$GPZDA,014648.00,24,12,2013,,*6C
$GPGGA,014648.00,4003.48332,N,08254.66600,W,2,08,0.94,00246,M,-033,M,,*5E
$GPGLL,4003.48332,N,08254.66600,W,014648.00,A,D*75
$GPVTG,000.0,T,006.7,M,000.00,N,000.00,K,D*27
$GPGSA,A,3,25,01,31,32,14,20,16,23,,,,,1.66,0.94,1.38*00
$GPGSV,3,1,10,25,22,043,37,01,05,256,39,29,12,076,23,31,66,027,37*7A
$GPGSV,3,2,10,32,61,254,28,14,33,105,33,20,36,299,39,16,24,193,46*70
$GPGSV,3,3,10,46,43,203,44,23,13,302,45,,,,,,,,*7F
$GPGST,014648.00,,114.00,113.96,089.1,010.68,010.68,010.69*40
$GPRMC,014648.00,A,4003.48332,N,08254.66600,W,000.00,000.0,241213,06.7,W,D*3D
$PTNLRTF,V,A,179224,08,3,4003.48332,N,08254.66600,W,00246,+000.000,+000.000,+000.000,0,1*54
$PTNLRBA,1,1*57
$GPZDA,014650.00,24,12,2013,,*65
$GPGGA,014650.00,4003.48332,N,08254.66598,W,2,08,0.94,00246,M,-033,M,,*55
$GPGLL,4003.48332,N,08254.66598,W,014650.00,A,D*7E
$GPVTG,000.0,T,006.7,M,000.00,N,000.00,K,D*27
$GPGSA,A,3,25,01,31,32,14,20,16,23,,,,,1.66,0.94,1.38*00
$GPGSV,3,1,10,25,22,043,37,01,05,256,39,29,12,076,22,31,66,027,37*7B
$GPGSV,3,2,10,32,61,254,29,14,33,105,33,20,36,299,39,16,24,193,46*71
$GPGSV,3,3,10,46,43,203,44,23,13,302,45,,,,,,,,*7F
$GPGST,014650.00,,213.96,213.92,089.1,014.63,014.63,014.64*4C
$GPRMC,014650.00,A,4003.48332,N,08254.66598,W,000.00,000.0,241213,06.7,W,D*36
$PTNLRTF,V,A,179226,08,3,4003.48332,N,08254.66598,W,00246,+000.000,+000.000,+000.000,0,1*54
$PTNLRBA,1,1*57
$GPZDA,014651.00,24,12,2013,,*64
$GPGGA,014651.00,4003.48330,N,08254.66598,W,2,09,0.87,00246,M,-033,M,,*55
$GPGLL,4003.48330,N,08254.66598,W,014651.00,A,D*7D
$GPVTG,171.1,T,177.7,M,000.04,N,000.07,K,D*25
$GPGSA,A,3,25,01,29,31,32,14,20,16,23,,,,1.51,0.87,1.23*07
$GPGSV,3,1,10,25,22,043,37,01,05,256,39,29,12,076,18,31,66,027,37*72
$GPGSV,3,2,10,32,61,254,30,14,33,105,33,20,36,299,40,16,24,193,46*77
$GPGSV,3,3,10,46,43,203,44,23,13,302,45,,,,,,,,*7F
$GPGST,014651.00,,197.82,197.78,089.3,014.06,014.06,014.08*44
$GPRMC,014651.00,A,4003.48330,N,08254.66598,W,000.04,171.1,241213,06.7,W,D*37
$PTNLRTF,V,A,179227,09,3,4003.48330,N,08254.66598,W,00246,+000.003,-000.019,+000.346,0,1*5A
$PTNLRBA,1,1*57
$GPZDA,014653.00,24,12,2013,,*66
$GPGGA,014653.00,4003.48330,N,08254.66594,W,2,08,0.94,00246,M,-033,M,,*58
$GPGLL,4003.48330,N,08254.66594,W,014653.00,A,D*73
$GPVTG,000.0,T,006.7,M,000.00,N,000.00,K,D*27
$GPGSA,A,3,25,01,31,32,14,20,16,23,,,,,1.66,0.94,1.38*00
$GPGSV,3,1,10,25,22,043,37,01,05,256,39,29,12,076,19,31,66,027,37*73
$GPGSV,3,2,10,32,61,254,25,14,33,105,31,20,36,299,39,16,24,193,46*7F
$GPGSV,3,3,10,46,43,203,44,23,13,302,45,,,,,,,,*7F
$GPGST,014653.00,,174.54,174.50,089.2,013.21,013.21,013.23*48
$GPRMC,014653.00,A,4003.48330,N,08254.66594,W,000.00,000.0,241213,06.7,W,D*3B
$PTNLRTF,V,A,179229,08,3,4003.48330,N,08254.66594,W,00246,+000.000,+000.000,+000.000,0,1*55
$PTNLRBA,1,1*57
