$GPZDA,014842.00,24,12,2013,,*68
$GPGGA,014842.00,4003.48300,N,08254.66600,W,2,07,1.01,00248,M,-033,M,,*57
$GPGLL,4003.48300,N,08254.66600,W,014842.00,A,D*70
$GPVTG,289.7,T,296.4,M,000.50,N,000.93,K,D*24
$GPGSA,A,3,25,29,31,32,20,16,23,,,,,,1.79,1.01,1.48*0B
$GPGSV,3,1,09,25,21,042,31,29,12,075,35,31,65,029,37,32,60,251,37*75
$GPGSV,3,2,09,14,32,106,00,20,36,298,35,16,25,193,46,46,43,203,45*7C
$GPGSV,3,3,09,23,13,302,36,,,,,,,,,,,,*47
$GPGST,014842.00,,715.45,715.36,023.1,052.11,052.11,052.11*41
$GPRMC,014842.00,A,4003.48300,N,08254.66600,W,000.50,289.7,241213,06.7,W,D*39
$PTNLRTF,V,A$GPZDA,014845.00,24,12,2013,,*6F
$GPGGA,014845.00,4003.48300,N,08254.66602,W,2,06,1.13,00248,M,-033,M,,*50
$GPGLL,4003.48300,N,08254.66602,W,014845.00,A,D*75
$GPVTG,000.0,T,006.7,M,000.00,N,000.00,K,D*27
$GPGSA,A,3,25,31,32,20,16,23,,,,,,,1.99,1.13,1.64*03
$GPGSV,3,1,09,25,21,042,32,29,12,075,36,31,65,029,38,32,60,251,38*75
$GPGSV,3,2,09,14,32,106,00,20,36,298,36,16,25,193,46,46,43,203,45*7F
$GPGSV,3,3,09,23,13,302,34,,,,,,,,,,,,*45
$GPGST,014845.00,,008.92,008.83,024.1,044.82,044.82,044.83*49
$GPRMC,014845.00,A,4003.48300,N,08254.66602,W,000.00,000.0,241213,06.7,W,D*3D
$PTNLRTF,V,A,179341,06,3,4003.48300,N,08254.66602,W,00248,+000.000,+000.000,+000.000,0,1*55
$PTNLRBA,1,1*57
$GPZDA,014846.00,24,12,2013,,*6C
$GPGGA,014846.00,4003.48299,N,08254.66601,W,2,07,1.01,00247,M,-033,M,,*5C
$GPGLL,4003.48299,N,08254.66601,W,014846.00,A,D*74
$GPVTG,000.0,T,006.7,M,000.00,N,000.00,K,D*27
$GPGSA,A,3,25,29,31,32,20,16,23,,,,,,1.79,1.01,1.48*0B
$GPGSV,3,1,09,25,21,042,32,29,12,075,37,31,65,029,38,32,60,251,38*74
$GPGSV,3,2,09,14,32,106,00,20,36,298,36,16,25,193,46,46,43,203,45*7F
$GPGSV,3,3,09,23,13,302,33,,,,,,,,,,,,*42
$GPGST,014846.00,,818.44,818.35,024.3,042.64,042.64,042.65*40
$GPRMC,014846.00,A,4003.48299,N,08254.66601,W,000.00,000.0,241213,06.7,W,D*3C
$PTNLRTF,V,A,179342,07,3,4003.48299,N,08254.66601,W,00247,+000.000,+000.000,+000.000,0,1*5A
$PTNLRBA,1,1*57
$GPZDA,014848.00,24,12,2013,,*62
$GPGGA,014848.00,4003.48298,N,08254.66598,W,2,07,1.01,00247,M,-033,M,,*50
$GPGLL,4003.48298,N,08254.66598,W,014848.00,A,D*78
$GPVTG,000.0,T,006.7,M,000.00,N,000.00,K,D*27
$GPGSA,A,3,25,29,31,32,20,16,23,,,,,,1.79,1.01,1.48*0B
$GPGSV,3,1,09,25,21,042,31,29,12,075,37,31,65,029,38,32,60,251,37*78
$GPGSV,3,2,09,14,32,106,00,20,36,298,36,16,25,193,45,46,43,203,45*7C
$GPGSV,3,3,09,23,13,302,34,,,,,,,,,,,,*45
$GPGST,014848.00,,510.82,510.74,024.7,038.87,038.87,038.87*44
$GPRMC,014848.00,A,4003.48298,N,08254.66598,W,000.00,000.0,241213,06.7,W,D*30
$PTNLRTF,V,A,179344,07,3,4003.48298,N,08254.66598,W,00247,+000.000,+000.000,+000.000,0,1*5E
$PTNLRBA,1,1*57
$GPZDA,014849.00,24,12,2013,,*63
$GPGGA,014849.00,4003.48298,N,08254.66601,W,2,07,1.01,00247,M,-033,M,,*52
$GPGLL,4003.48298,N,08254.66601,W,014849.00,A,D*7A
$GPVTG,000.0,T,006.7,M,000.00,N,000.00,K,D*27
$GPGSA,A,3,25,29,31,32,20,16,23,,,,,,1.79,1.01,1.48*0B
$GPGSV,3,1,09,25,21,042,31,29,12,075,37,31,65,029,38,32,60,251,37*78
$GPGSV,3,2,09,14,32,106,16,20,36,298,37,16,25,193,45,46,43,203,45*7A
$GPGSV,3,3,09,23,13,302,34,,,,,,,,,,,,*45
$GPGST,014849.00,,374.18,374.10,024.9,037.07,037.07,037.07*4D
$GPRMC,014849.00,A,4003.48298,N,08254.66601,W,000.00,000.0,241213,06.7,W,D*32
$PTNLRTF,V,A,179345,07,3,4003.48298,N,08254.66601,W,00247,+000.000,+000.000,+000.000,0,1*5C
$PTNLRBA,1,1*57
$GPZDA,014850.00,24,12,2013,,*6B
$GPGGA,014850.00,4003.48297,N,08254.66600,W,2,07,1.01,00247,M,-033,M,,*54
$GPGLL,4003.48297,N,08254.66600,W,014850.00,A,D*7C
$GPVTG,000.0,T,006.7,M,000.00,N,000.00,K,D*27
$GPGSA,A,3,25,29,31,32,20,16,23,,,,,,1.79,1.01,1.48*0B
$GPGSV,3,1,09,25,21,042,31,29,12,075,38,31,65,029,38,32,60,251,37*77
$GPGSV,3,2,09,14,32,106,17,20,36,298,37,16,25,193,46,46,43,203,45*78
$GPGSV,3,3,09,23,13,302,33,,,,,,,,,,,,*42
$GPGST,014850.00,,258.17,258.09,025.1,035.47,035.47,035.48*42
$GPRMC,014850.00,A,4003.48297,N,08254.66600,W,000.00,000.0,241213,06.7,W,D*34
$PTNLRTF,V,A,179346,07,3,4003.48297,N,08254.66600,W,00247,+000.000,+000.000,+000.000,0,1*51
$PTNLRBA,1,1*57
$GPZDA,014852.00,24,12,2013,,*69
$GPGGA,014852.00,4003.48292,N,08254.66600,W,2,07,0.98,00247,M,-033,M,,*52
$GPGLL,4003.48292,N,08254.66600,W,014852.00,A,D*7B
$GPVTG,194.4,T,201.1,M,000.13,N,000.24,K,D*28
$GPGSA,A,3,25,31,32,14,20,16,23,,,,,,1.89,0.98,1.62*03
$GPGSV,3,1,09,25,21,042,31,29,12,075,37,31,65,029,37,32,60,251,37*77
$GPGSV,3,2,09,14,32,106,27,20,36,298,35,16,25,193,45,46,43,203,44*7B
$GPGSV,3,3,09,23,13,302,29,,,,,,,,,,,,*49
$GPGST,014852.00,,101.89,101.78,020.9,033.19,033.19,033.20*44
$GPRMC,014852.00,A,4003.48292,N,08254.66600,W,000.13,194.4,241213,06.7,W,D*39
$PTNLRTF,V,A,179348,07,3,4003.48292,N,08254.66600,W,00247,-000.017,-000.066,-000.005,0,1*5F
$PTNLRBA,1,1*57
$GPZDA,014853.00,24,12,2013,,*68
$GPGGA,014853.00,4003.48292,N,08254.66602,W,2,07,1.01,00247,M,-033,M,,*50
$GPGLL,4003.48292,N,08254.66602,W,014853.00,A,D*78
$GPVTG,228.9,T,235.6,M,000.07,N,000.14,K,D*27
$GPGSA,A,3,25,29,31,32,20,16,23,,,,,,1.79,1.01,1.48*0B
$GPGSV,3,1,09,25,21,042,32,29,12,075,37,31,65,029,37,32,60,251,38*7B
$GPGSV,3,2,09,14,32,106,27,20,36,298,35,16,25,193,46,46,43,203,44*78
$GPGSV,3,3,09,23,13,302,28,,,,,,,,,,,,*48
$GPGST,014853.00,,009.97,009.86,023.1,031.78,031.78,031.79*4E
$GPRMC,014853.00,A,4003.48292,N,08254.66602,W,000.07,228.9,241213,06.7,W,D*36
$PTNLRTF,V,A,179349,07,3,4003.48292,N,08254.66602,W,00247,-000.029,-000.025,+000.017,0,1*53
$PTNLRBA,1,1*57
$GPZDA,014855.00,24,12,2013,,*6E
$GPGGA,014855.00,4003.48293,N,08254.66601,W,2,08,0.93,00248,M,-033,M,,*5E
$GPGLL,4003.48293,N,08254.66601,W,014855.00,A,D*7C
$GPVTG,000.0,T,006.7,M,000.00,N,000.00,K,D*27
$GPGSA,A,3,25,29,31,32,14,20,16,23,,,,,1.75,0.93,1.48*08
$GPGSV,3,1,09,25,21,042,34,29,12,075,38,31,65,029,37,32,60,251,38*72
$GPGSV,3,2,09,14,32,106,30,20,36,298,35,16,25,193,46,46,43,203,44*7E
$GPGSV,3,3,09,23,13,302,27,,,,,,,,,,,,*47
$GPGST,014855.00,,855.22,855.12,021.6,029.24,029.24,029.25*4E
$GPRMC,014855.00,A,4003.48293,N,08254.66601,W,000.00,000.0,241213,06.7,W,D*34
$PTNLRTF,V,A,179351,08,3,4003.48293,N,08254.66601,W,00248,+000.000,+000.000,+000.000,0,1*52
$PTNLRBA,1,1*57
$GPZDA,014856.00,24,12,2013,,*6D
$GPGGA,014856.00,4003.48293,N,08254.66601,W,2,08,0.93,00248,M,-033,M,,*5D
$GPGLL,4003.48293,N,08254.66601,W,014856.00,A,D*7F
$GPVTG,000.0,T,006.7,M,000.00,N,000.00,K,D*27
$GPGSA,A,3,25,29,31,32,14,20,16,23,,,,,1.75,0.93,1.48*08
$GPGSV,3,1,09,25,21,042,34,29,12,075,37,31,65,029,37,32,60,251,38*7D
$GPGSV,3,2,09,14,32,106,30,20,36,298,35,16,25,193,46,46,43,203,44*7E
$GPGSV,3,3,09,23,13,302,28,,,,,,,,,,,,*48
$GPGST,014856.00,,786.12,786.02,021.8,028.04,028.04,028.04*43
$GPRMC,014856.00,A,4003.48293,N,08254.66601,W,000.00,000.0,241213,06.7,W,D*37
$PTNLRTF,V,A,179352,08,3,4003.48293,N,08254.66601,W,00248,+000.000,+000.000,+000.000,0,1*51
$PTNLRBA,1,1*57
$GPZDA,014858.00,24,12,2013,,*63
$GPGGA,014858.00,4003.48298,N,08254.66594,W,2,07,0.98,00248,M,-033,M,,*53
$GPGLL,4003.48298,N,08254.66594,W,014858.00,A,D*75
$GPVTG,035.5,T,042.2,M,000.21,N,000.40,K,D*26
$GPGSA,A,3,25,31,32,14,20,16,23,,,,,,1.89,0.98,1.62*03
$GPGSV,3,1,09,25,21,042,35,29,12,075,36,31,65,029,37,32,60,251,37*72
$GPGSV,3,2,09,14,32,106,32,20,36,298,35,16,25,193,46,46,43,203,43*7B
$GPGSV,3,3,09,23,13,302,32,,,,,,,,,,,,*43
$GPGST,014858.00,,656.17,656.05,021.2,025.61,025.62,025.62*4B
$GPRMC,014858.00,A,4003.48298,N,08254.66594,W,000.21,035.5,241213,06.7,W,D*3D
$PTNLRTF,V,A,179354,07,3,4003.48298,N,08254.66594,W,00248,+000.064,+000.089,+000.003,0,1*5C
$PTNLRBA,1,1*57
$GPZDA,014859.00,24,12,2013,,*62
$GPGGA,014859.00,4003.48300,N,08254.66593,W,2,08,0.93,00248,M,-033,M,,*51
$GPGLL,4003.48300,N,08254.66593,W,014859.00,A,D*73
$GPVTG,028.6,T,035.3,M,000.10,N,000.18,K,D*27
$GPGSA,A,3,25,29,31,32,14,20,16,23,,,,,1.75,0.93,1.48*08
$GPGSV,3,1,09,25,21,042,33,29,12,075,36,31,65,029,37,32,60,251,37*74
$GPGSV,3,2,09,14,32,106,32,20,36,298,35,16,25,193,45,46,43,203,44*7F
$GPGSV,3,3,09,23,13,302,32,,,,,,,,,,,,*43
$GPGST,014859.00,,594.56,594.44,022.0,024.38,024.38,024.39*47
$GPRMC,014859.00,A,4003.48300,N,08254.66593,W,000.10,028.6,241213,06.7,W,D*36
$PTNLRTF,V,A,179355,08,3,4003.48300,N,08254.66593,W,00248,+000.024,+000.044,-000.010,0,1*54
$PTNLRBA,1,1*57
$GPZDA,014901.00,24,12,2013,,*6E
$GPGGA,014901.00,4003.48297,N,08254.66592,W,2,08,0.93,00248,M,-033,M,,*53
$GPGLL,4003.48297,N,08254.66592,W,014901.00,A,D*71
$GPVTG,000.0,T,006.7,M,000.00,N,000.00,K,D*27
$GPGSA,A,3,25,29,31,32,14,20,16,23,,,,,1.75,0.93,1.48*08
$GPGSV,3,1,09,25,21,042,34,29,12,075,36,31,65,029,37,32,60,251,37*73
$GPGSV,3,2,09,14,32,106,32,20,36,298,34,16,25,193,45,46,43,203,44*7E
$GPGSV,3,3,09,23,13,302,34,,,,,,,,,,,,*45
$GPGST,014901.00,,501.44,501.33,021.6,022.39,022.39,022.40*45
$GPRMC,014901.00,A,4003.48297,N,08254.66592,W,000.00,000.0,241213,06.7,W,D*39
$PTNLRTF,V,A,179357,08,3,4003.48297,N,08254.66592,W,00248,+000.000,+000.000,+000.000,0,1*59
$PTNLRBA,1,1*57
$GPZDA,014902.00,24,12,2013,,*6D
$GPGGA,014902.00,4003.48297,N,08254.66590,W,2,08,0.93,00248,M,-033,M,,*52
$GPGLL,4003.48297,N,08254.66590,W,014902.00,A,D*70
$GPVTG,000.0,T,006.7,M,000.00,N,000.00,K,D*27
$GPGSA,A,3,25,29,31,32,14,20,16,23,,,,,1.75,0.93,1.48*08
$GPGSV,3,1,09,25,21,042,33,29,12,075,34,31,65,029,37,32,60,251,37*76
$GPGSV,3,2,09,14,32,106,33,20,36,298,34,16,25,193,45,46,43,203,44*7F
$GPGSV,3,3,09,23,13,302,32,,,,,,,,,,,,*43
$GPGST,014902.00,,462.03,461.92,021.6,021.49,021.49,021.50*4F
$GPRMC,014902.00,A,4003.48297,N,08254.66590,W,000.00,000.0,241213,06.7,W,D*38
$PTNLRTF,V,A,179358,08,3,4003.48297,N,08254.66590,W,00248,+000.000,+000.000,+000.000,0,1*54
$PTNLRBA,1,1*57
$GPZDA,014904.00,24,12,2013,,*6B
$GPGGA,014904.00,4003.48297,N,08254.66584,W,2,08,0.93,00248,M,-033,M,,*51
$GPGLL,4003.48297,N,08254.66584,W,014904.00,A,D*73
$GPVTG,000.0,T,006.7,M,000.00,N,000.00,K,D*27
$GPGSA,A,3,25,29,31,32,14,20,16,23,,,,,1.75,0.93,1.48*08
$GPGSV,3,1,09,25,21,042,33,29,12,075,34,31,65,029,37,32,60,251,36*77
$GPGSV,3,2,09,14,32,106,33,20,36,298,31,16,25,193,45,46,43,203,44*7A
$GPGSV,3,3,09,23,13,302,33,,,,,,,,,,,,*42
$GPGST,014904.00,,402.79,402.68,021.7,020.07,020.07,020.08*4F
$GPRMC,014904.00,A,4003.48297,N,08254.66584,W,000.00,000.0,241213,06.7,W,D*3B
$PTNLRTF,V,A,179360,08,3,4003.48297,N,08254.66584,W,00248,+000.000,+000.000,+000.000,0,1*5A
$PTNLRBA,1,1*57
$GPZDA,014905.00,24,12,2013,,*6A
$GPGGA,014905.00,4003.48297,N,08254.66582,W,2,08,0.93,00248,M,-033,M,,*56
$GPGLL,4003.48297,N,08254.66582,W,014905.00,A,D*74
$GPVTG,000.0,T,006.7,M,000.00,N,000.00,K,D*27
$GPGSA,A,3,25,29,31,32,14,20,16,23,,,,,1.75,0.93,1.48*08
$GPGSV,3,1,09,25,21,042,32,29,12,075,32,31,65,029,37,32,60,251,36*70
$GPGSV,3,2,09,14,32,106,33,20,36,298,36,16,25,193,44,46,43,203,44*7C
$GPGSV,3,3,09,23,13,302,34,,,,,,,,,,,,*45
$GPGST,014905.00,,375.76,375.66,021.8,019.38,019.38,019.39*48
$GPRMC,014905.00,A,4003.48297,N,08254.66582,W,000.00,000.0,241213,06.7,W,D*3C
$PTNLRTF,V,A,179361,08,3,4003.48297,N,08254.66582,W,00248,+000.000,+000.000,+000.000,0,1*5D
$PTNLRBA,1,1*57
