$GPZDA,014908.00,24,12,2013,,*67
$GPGGA,014908.00,4003.48297,N,08254.66578,W,2,08,0.93,00248,M,-033,M,,*5E
$GPGLL,4003.48297,N,08254.66578,W,014908.00,A,D*7C
$GPVTG,000.0,T,006.7,M,000.00,N,000.00,K,D*27
$GPGSA,A,3,25,29,31,32,14,20,16,23,,,,,1.75,0.93,1.48*08
$GPGSV,3,1,09,25,21,042,33,29,12,075,30,31,65,029,37,32,60,251,36*73
$GPGSV,3,2,09,14,32,106,34,20,36,298,36,16,25,193,43,46,43,203,44*7C
$GPGSV,3,3,09,23,13,302,38,,,,,,,,,,,,*49
$GPGST,014908.00,,329.88,329.78,021.7,018.16,018.16,018.17*49
$GPRMC,014908.00,A,4003.48297,N,08254.66578,W,000.00,000.0,241213,06.7,W,D*34
$PTNLRTF,V$GPZDA,014912.00,24,12,2013,,*6C
$GPGGA,014911.00,4003.48298,N,08254.66572,W,2,08,0.93,00248,M,-033,M,,*53
$GPGLL,4003.48298,N,08254.66572,W,014911.00,A,D*71
$GPVTG,000.0,T,006.7,M,000.00,N,000.00,K,D*27
$GPGSA,A,3,25,29,31,32,14,20,16,,,,,,2.21,1.12,1.90*06
$GPGSV,3,1,09,25,21,042,34,29,12,075,32,31,65,029,38,32,60,251,38*77
$GPGSV,3,2,09,14,32,106,34,20,36,298,37,16,25,193,44,46,43,203,45*7B
$GPGSV,3,3,09,23,13,302,37,,,,,,,,,,,,*46
$GPGST,014911.00,,273.90,273.80,021.6,016.55,016.55,016.56*45
$GPRMC,014911.00,A,4003.48298,N,08254.66572,W,000.00,000.0,241213,06.7,W,D*39
$PTNLRTF,V,A,179368,07,3,4003.48298,N,08254.66572,W,00248,+000.000,+000.000,+000.000,0,1*5B
$PTNLRBA,1,1*57
$GPZDA,014913.00,24,12,2013,,*6D
$GPGGA,014913.00,4003.48300,N,08254.66568,W,2,08,0.93,00247,M,-033,M,,*55
$GPGLL,4003.48300,N,08254.66568,W,014913.00,A,D*78
$GPVTG,000.0,T,006.7,M,000.00,N,000.00,K,D*27
$GPGSA,A,3,25,29,31,32,14,20,16,23,,,,,1.75,0.93,1.48*08
$GPGSV,3,1,09,25,21,042,36,29,12,075,32,31,65,029,37,32,60,251,39*7B
$GPGSV,3,2,09,14,32,106,34,20,36,298,37,16,25,193,44,46,43,203,45*7B
$GPGSV,3,3,09,23,13,302,38,,,,,,,,,,,,*49
$GPGST,014913.00,,246.46,246.36,021.7,015.70,015.70,015.71*46
$GPRMC,014913.00,A,4003.48300,N,08254.66568,W,000.00,000.0,241213,06.7,W,D*30
$PTNLRTF,V,A,179369,08,3,4003.48300,N,08254.66568,W,00247,+000.000,+000.000,+000.000,0,1*51
$PTNLRBA,1,1*57
$GPZDA,014914.00,24,12,2013,,*6A
$GPGGA,014914.00,4003.48300,N,08254.66568,W,2,07,1.02,00247,M,-033,M,,*54
$GPGLL,4003.48300,N,08254.66568,W,014914.00,A,D*7F
$GPVTG,000.0,T,006.7,M,000.00,N,000.00,K,D*27
$GPGSA,A,3,29,31,32,14,20,16,23,,,,,,1.81,1.02,1.50*04
$GPGSV,3,1,09,25,21,042,37,29,12,075,30,31,65,029,37,32,60,251,39*78
$GPGSV,3,2,09,14,32,106,34,20,36,298,33,16,25,193,43,46,43,203,45*78
$GPGSV,3,3,09,23,13,302,38,,,,,,,,,,,,*49
$GPGST,014914.00,,247.59,247.50,021.6,015.73,015.73,015.75*4A
$GPRMC,014914.00,A,4003.48300,N,08254.66568,W,000.00,000.0,241213,06.7,W,D*37
$PTNLRTF,V,A,179370,07,3,4003.48300,N,08254.66568,W,00247,+000.000,+000.000,+000.000,0,1*56
$PTNLRBA,1,1*57
$GPZDA,014916.00,24,12,2013,,*68
$GPGGA,014916.00,4003.48302,N,08254.66570,W,2,08,0.93,00247,M,-033,M,,*5B
$GPGLL,4003.48302,N,08254.66570,W,014916.00,A,D*76
$GPVTG,000.0,T,006.7,M,000.00,N,000.00,K,D*27
$GPGSA,A,3,25,29,31,32,14,20,16,23,,,,,1.75,0.93,1.48*08
$GPGSV,3,1,09,25,20,042,33,29,12,074,24,31,65,029,36,32,60,251,38*79
$GPGSV,3,2,09,14,32,106,35,20,36,297,34,16,25,193,44,46,43,203,45*76
$GPGSV,3,3,09,23,14,302,34,,,,,,,,,,,,*42
$GPGST,014916.00,,315.28,315.18,021.7,017.75,017.76,017.76*41
$GPRMC,014916.00,A,4003.48302,N,08254.66570,W,000.00,000.0,241213,06.7,W,D*3E
$PTNLRTF,V,A,179372,08,3,4003.48302,N,08254.66570,W,00247,+000.000,+000.000,+000.000,0,1*50
$PTNLRBA,1,1*57
$GPZDA,014917.00,24,12,2013,,*69
$GPGGA,014917.00,4003.48303,N,08254.66568,W,2,07,0.98,00247,M,-033,M,,*56
$GPGLL,4003.48303,N,08254.66568,W,014917.00,A,D*7F
$GPVTG,000.0,T,006.7,M,000.00,N,000.00,K,D*27
$GPGSA,A,3,25,31,32,14,20,16,23,,,,,,1.90,0.98,1.63*0A
$GPGSV,3,1,09,25,20,042,34,29,12,074,21,31,65,029,37,32,60,251,38*7A
$GPGSV,3,2,09,14,32,106,35,20,36,297,36,16,25,193,44,46,43,203,45*74
$GPGSV,3,3,09,23,14,302,34,,,,,,,,,,,,*42
$GPGST,014917.00,,298.77,298.68,021.7,017.28,017.28,017.29*44
$GPRMC,014917.00,A,4003.48303,N,08254.66568,W,000.00,000.0,241213,06.7,W,D*37
$PTNLRTF,V,A,179373,07,3,4003.48303,N,08254.66568,W,00247,+000.000,+000.000,+000.000,0,1*56
$PTNLRBA,1,1*57
$GPZDA,014919.00,24,12,2013,,*67
$GPGGA,014919.00,4003.48301,N,08254.66557,W,2,07,0.98,00247,M,-033,M,,*56
$GPGLL,4003.48301,N,08254.66557,W,014919.00,A,D*7F
$GPVTG,000.0,T,006.7,M,000.00,N,000.00,K,D*27
$GPGSA,A,3,25,31,32,14,20,16,23,,,,,,1.90,0.98,1.63*0A
$GPGSV,3,1,09,25,20,042,35,29,12,074,15,31,65,029,37,32,60,251,39*7D
$GPGSV,3,2,09,14,32,106,36,20,36,297,36,16,25,193,45,46,43,203,44*77
$GPGSV,3,3,09,23,14,302,31,,,,,,,,,,,,*47
$GPGST,014919.00,,276.50,276.41,021.6,016.63,016.63,016.64*4D
$GPRMC,014919.00,A,4003.48301,N,08254.66557,W,000.00,000.0,241213,06.7,W,D*37
$PTNLRTF,V,A,179375,07,3,4003.48301,N,08254.66557,W,00247,+000.000,+000.000,+000.000,0,1*5E
$PTNLRBA,1,1*57
$GPZDA,014920.00,24,12,2013,,*6D
$GPGGA,014920.00,4003.48299,N,08254.66550,W,2,07,0.95,00247,M,-033,M,,*56
$GPGLL,4003.48299,N,08254.66550,W,014920.00,A,D*72
$GPVTG,000.0,T,006.7,M,000.00,N,000.00,K,D*27
$GPGSA,A,3,25,29,31,14,20,16,23,,,,,,1.95,0.95,1.71*0B
$GPGSV,3,1,09,25,20,042,34,29,12,074,25,31,65,029,37,32,60,251,38*7E
$GPGSV,3,2,09,14,32,106,36,20,36,297,35,16,25,193,44,46,43,203,44*75
$GPGSV,3,3,09,23,14,302,35,,,,,,,,,,,,*43
$GPGST,014920.00,,281.25,281.16,021.6,016.77,016.77,016.78*4A
$GPRMC,014920.00,A,4003.48299,N,08254.66550,W,000.00,000.0,241213,06.7,W,D*3A
$PTNLRTF,V,A,179376,07,3,4003.48299,N,08254.66550,W,00247,+000.000,+000.000,+000.000,0,1*5A
$PTNLRBA,1,1*57
$GPZDA,014922.00,24,12,2013,,*6F
$GPGGA,014922.00,4003.48287,N,08254.66537,W,2,07,0.98,00247,M,-033,M,,*57
$GPGLL,4003.48287,N,08254.66537,W,014922.00,A,D*7E
$GPVTG,128.0,T,134.7,M,000.39,N,000.72,K,D*23
$GPGSA,A,3,25,31,32,14,20,16,23,,,,,,1.90,0.98,1.63*0A
$GPGSV,3,1,09,25,20,042,34,29,12,074,20,31,65,029,36,32,60,251,37*75
$GPGSV,3,2,09,14,32,106,37,20,36,297,35,16,25,193,43,46,43,203,44*73
$GPGSV,3,3,09,23,14,302,31,,,,,,,,,,,,*47
$GPGST,014922.00,,271.05,270.93,019.7,016.46,016.46,016.47*40
$GPRMC,014922.00,A,4003.48287,N,08254.66537,W,000.39,128.0,241213,06.7,W,D*37
$PTNLRTF,V,A,179378,07,3,4003.48287,N,08254.66537,W,00247,+000.157,-000.123,+000.013,0,1*5D
$PTNLRBA,1,1*57
$GPZDA,014923.00,24,12,2013,,*6E
$GPGGA,014923.00,4003.48285,N,08254.66531,W,2,08,0.93,00247,M,-033,M,,*56
$GPGLL,4003.48285,N,08254.66531,W,014923.00,A,D*7B
$GPVTG,112.7,T,119.4,M,000.09,N,000.17,K,D*21
$GPGSA,A,3,25,29,31,32,14,20,16,23,,,,,1.75,0.93,1.49*09
$GPGSV,3,1,09,25,20,042,34,29,12,074,26,31,65,029,37,32,60,251,36*73
$GPGSV,3,2,09,14,32,106,37,20,36,297,35,16,25,193,44,46,43,203,44*74
$GPGSV,3,3,09,23,14,302,28,,,,,,,,,,,,*4F
$GPGST,014923.00,,252.41,252.28,019.9,015.88,015.89,015.90*46
$GPRMC,014923.00,A,4003.48285,N,08254.66531,W,000.09,112.7,241213,06.7,W,D*3F
$PTNLRTF,V,A,179379,08,3,4003.48285,N,08254.66531,W,00247,+000.044,-000.018,+000.002,0,1*5D
$PTNLRBA,1,1*57
$GPZDA,014925.00,24,12,2013,,*68
$GPGGA,014925.00,4003.48283,N,08254.66522,W,2,08,0.93,00247,M,-033,M,,*54
$GPGLL,4003.48283,N,08254.66522,W,014925.00,A,D*79
$GPVTG,293.8,T,300.5,M,000.22,N,000.41,K,D*25
$GPGSA,A,3,25,29,31,32,14,20,16,23,,,,,1.75,0.93,1.49*09
$GPGSV,3,1,09,25,20,042,33,29,12,074,29,31,65,029,37,32,60,251,37*7A
$GPGSV,3,2,09,14,32,106,37,20,36,297,36,16,25,193,43,46,43,203,44*70
$GPGSV,3,3,09,23,14,302,22,,,,,,,,,,,,*45
$GPGST,014925.00,,245.76,245.61,020.7,015.67,015.68,015.68*44
$GPRMC,014925.00,A,4003.48283,N,08254.66522,W,000.22,293.8,241213,06.7,W,D*31
$PTNLRTF,V,A,179381,08,3,4003.48283,N,08254.66522,W,00247,-000.103,+000.046,-000.019,0,1*5B
$PTNLRBA,1,1*57
$GPZDA,014926.00,24,12,2013,,*6B
$GPGGA,014926.00,4003.48279,N,08254.66512,W,2,07,0.98,00247,M,-033,M,,*55
$GPGLL,4003.48279,N,08254.66512,W,014926.00,A,D*7C
$GPVTG,000.0,T,006.7,M,000.00,N,000.00,K,D*27
$GPGSA,A,3,25,31,32,14,20,16,23,,,,,,1.90,0.98,1.63*0A
$GPGSV,3,1,09,25,20,042,34,29,12,074,22,31,65,029,37,32,60,251,38*79
$GPGSV,3,2,09,14,32,106,38,20,36,297,36,16,25,193,44,46,43,203,44*78
$GPGSV,3,3,09,23,14,302,26,,,,,,,,,,,,*41
$GPGST,014926.00,,229.37,229.22,020.0,015.14,015.14,015.15*47
$GPRMC,014926.00,A,4003.48279,N,08254.66512,W,000.00,000.0,241213,06.7,W,D*34
$PTNLRTF,V,A,179382,07,3,4003.48279,N,08254.66512,W,00247,+000.000,+000.000,+000.000,0,1*59
$PTNLRBA,1,1*57
$GPZDA,014928.00,24,12,2013,,*65
$GPGGA,014928.00,4003.48277,N,08254.66502,W,2,08,0.93,00247,M,-033,M,,*50
$GPGLL,4003.48277,N,08254.66502,W,014928.00,A,D*7D
$GPVTG,000.0,T,006.7,M,000.00,N,000.00,K,D*27
$GPGSA,A,3,25,29,31,32,14,20,16,23,,,,,1.75,0.93,1.49*09
$GPGSV,3,1,09,25,20,042,34,29,12,074,21,31,65,029,37,32,60,251,39*7B
$GPGSV,3,2,09,14,32,106,37,20,36,297,36,16,25,193,44,46,43,203,43*70
$GPGSV,3,3,09,23,14,302,30,,,,,,,,,,,,*46
$GPGST,014928.00,,215.79,215.65,020.0,014.69,014.69,014.70*42
$GPRMC,014928.00,A,4003.48277,N,08254.66502,W,000.00,000.0,241213,06.7,W,D*35
$PTNLRTF,V,A,179384,08,3,4003.48277,N,08254.66502,W,00247,+000.000,+000.000,+000.000,0,1*5F
$PTNLRBA,1,1*57
$GPZDA,014929.00,24,12,2013,,*64
$GPGGA,014929.00,4003.48276,N,08254.66498,W,2,08,0.93,00247,M,-033,M,,*52
$GPGLL,4003.48276,N,08254.66498,W,014929.00,A,D*7F
$GPVTG,000.0,T,006.7,M,000.00,N,000.00,K,D*27
$GPGSA,A,3,25,29,31,32,14,20,16,23,,,,,1.75,0.93,1.49*09
$GPGSV,3,1,09,25,20,042,33,29,12,074,23,31,65,029,37,32,60,251,38*7F
$GPGSV,3,2,09,14,32,106,37,20,36,297,36,16,25,193,44,46,43,203,43*70
$GPGSV,3,3,09,23,14,302,33,,,,,,,,,,,,*45
$GPGST,014929.00,,217.22,217.08,020.1,014.73,014.74,014.75*45
$GPRMC,014929.00,A,4003.48276,N,08254.66498,W,000.00,000.0,241213,06.7,W,D*37
$PTNLRTF,V,A,179385,08,3,4003.48276,N,08254.66498,W,00247,+000.000,+000.000,+000.000,0,1*5D
$PTNLRBA,1,1*57
$GPZDA,014931.00,24,12,2013,,*6D
$GPGGA,014931.00,4003.48274,N,08254.66494,W,2,08,0.93,00247,M,-033,M,,*55
$GPGLL,4003.48274,N,08254.66494,W,014931.00,A,D*78
$GPVTG,000.0,T,006.7,M,000.00,N,000.00,K,D*27
$GPGSA,A,3,25,29,31,32,14,20,16,23,,,,,1.75,0.93,1.49*09
$GPGSV,3,1,09,25,20,042,35,29,12,074,26,31,65,029,37,32,60,251,39*7D
$GPGSV,3,2,09,14,32,106,37,20,36,297,36,16,25,193,43,46,43,203,44*70
$GPGSV,3,3,09,23,14,302,30,,,,,,,,,,,,*46
$GPGST,014931.00,,193.40,193.27,020.2,013.90,013.91,013.92*4E
$GPRMC,014931.00,A,4003.48274,N,08254.66494,W,000.00,000.0,241213,06.7,W,D*30
$PTNLRTF,V,A,179387,08,3,4003.48274,N,08254.66494,W,00247,+000.000,+000.000,+000.000,0,1*51
$PTNLRBA,1,1*57
$GPZDA,014932.00,24,12,2013,,*6E
$GPGGA,014932.00,4003.48274,N,08254.66494,W,2,08,0.93,00247,M,-033,M,,*56
$GPGLL,4003.48274,N,08254.66494,W,014932.00,A,D*7B
$GPVTG,000.0,T,006.7,M,000.00,N,000.00,K,D*27
$GPGSA,A,3,25,29,31,32,14,20,16,23,,,,,1.75,0.93,1.49*09
$GPGSV,3,1,09,25,20,042,35,29,12,074,21,31,65,029,37,32,60,251,39*7A
$GPGSV,3,2,09,14,32,106,38,20,36,297,36,16,25,193,44,46,43,203,44*78
$GPGSV,3,3,09,23,14,302,32,,,,,,,,,,,,*44
$GPGST,014932.00,,178.23,178.10,020.2,013.35,013.35,013.36*43
$GPRMC,014932.00,A,4003.48274,N,08254.66494,W,000.00,000.0,241213,06.7,W,D*33
$PTNLRTF,V,A,179388,08,3,4003.48274,N,08254.66494,W,00247,+000.000,+000.000,+000.000,0,1*5E
$PTNLRBA,1,1*57
