$GPZDA,205252.00,05,03,2014,,*65
$GPGGA,205252.00,3919.81844,N,08206.08814,W,1,05,1.99,00229,M,-033,M,,*56
$GPGLL,3919.81844,N,08206.08814,W,205252.00,A,A*73
$GPVTG,108.9,T,116.1,M,000.5,N,000.8,K,A*29
$GPGSA,A,3,31,32,14,20,23,,,,,,,,2.78,1.99,1.93*00
$GPGSV,2,1,07,31,68,019,37,32,61,242,27,25,21,042,12,14,31,106,21*78
$GPGSV,2,2,07,20,37,296,26,29,13,078,19,23,14,303,17,,,,*4D
$GPGST,205252.00,,332.93,318.92,079.6,018.23,017.87,017.64*4F
$GPRMC,205252.00,A,3919.81844,N,08206.08814,W,000.5,108.9,050314,07.2,W,A*0E
$PTNLRTF,V,A,334388,05,3,3919.81844,N,08206.08814,W,00229,+000.222,-000$GPGGA,205253.00,3919.81815,N,08206.08836,W,1,05,1.99,00229,M,-033,M,,*53
$GPGLL,3919.81815,N,08206.08836,W,205253.00,A,A*76
$GPVTG,235.7,T,242.9,M,000.4,N,000.8,K,A*21
$GPGSA,A,3,31,32,14,20,23,,,,,,,,2.78,1.99,1.93*00
$GPGSV,2,1,07,31,68,019,37,32,61,242,25,25,21,042,14,14,31,106,21*7C
$GPGSV,2,2,07,20,37,296,25,29,13,078,19,23,14,303,22,,,,*48
$GPGST,205253.00,,318.15,304.12,080.3,017.83,017.45,017.22*47
$GPRMC,205253.00,A,3919.81815,N,08206.08836,W,000.4,235.7,050314,07.2,W,A*09
$PTNLRTF,V,A,334389,05,3,3919.81815,N,08206.08836,W,00229,-000.173,-000.118,+000.016,0,1*5D
$PTNLRBA,1,1*57
$GPZDA,205254.00,05,03,2014,,*63
$GPGGA,205254.00,3919.81798,N,08206.08831,W,1,05,1.99,00229,M,-033,M,,*59
$GPGLL,3919.81798,N,08206.08831,W,205254.00,A,A*7C
$GPVTG,211.0,T,218.2,M,000.5,N,001.0,K,A*2C
$GPGSA,A,3,31,32,14,20,23,,,,,,,,2.78,1.99,1.93*00
$GPGSV,2,1,07,31,68,019,38,32,61,242,29,25,21,042,20,14,31,106,21*78
$GPGSV,2,2,07,20,37,296,25,29,13,078,20,23,14,303,22,,,,*42
$GPGST,205254.00,,319.01,304.92,080.6,017.85,017.47,017.25*4A
$GPRMC,205254.00,A,3919.81798,N,08206.08831,W,000.5,211.0,050314,07.2,W,A*03
$PTNLRTF,V,A,334391,05,3,3919.81798,N,08206.08831,W,00229,-000.141,-000.234,-000.005,0,1*51
$PTNLRBA,1,1*57
$GPZDA,205256.00,05,03,2014,,*61
$GPGGA,205256.00,3919.81829,N,08206.08826,W,1,05,1.99,00229,M,-033,M,,*58
$GPGLL,3919.81829,N,08206.08826,W,205256.00,A,A*7D
$GPVTG,138.2,T,145.4,M,000.4,N,000.7,K,A*2C
$GPGSA,A,3,31,32,14,20,23,,,,,,,,2.78,1.99,1.93*00
$GPGSV,2,1,07,31,68,019,38,32,61,242,26,25,21,042,00,14,31,106,21*75
$GPGSV,2,2,07,20,37,296,26,29,13,078,23,23,14,303,20,,,,*40
$GPGST,205256.00,,298.51,284.35,081.3,017.27,016.87,016.65*45
$GPRMC,205256.00,A,3919.81829,N,08206.08826,W,000.4,138.2,050314,07.2,W,A*09
$PTNLRTF,V,A,334392,05,3,3919.81829,N,08206.08826,W,00229,+000.136,-000.152,-000.006,0,1*57
$PTNLRBA,1,1*57
$GPGGA,205257.00,3919.81781,N,08206.08807,W,1,04,2.12,00229,M,-033,M,,*56
$GPGLL,3919.81781,N,08206.08807,W,205257.00,A,A*72
$GPVTG,161.1,T,168.3,M,001.5,N,002.9,K,A*27
$GPGSA,A,3,31,32,14,20,,,,,,,,,3.74,2.12,3.08*0C
$GPGSV,2,1,07,31,68,019,38,32,61,242,27,25,21,042,13,14,31,106,22*75
$GPGSV,2,2,07,20,37,296,27,29,13,078,20,23,14,303,21,,,,*43
$GPGST,205257.00,,282.13,267.88,081.4,016.79,016.38,016.15*4C
$GPRMC,205257.00,A,3919.81781,N,08206.08807,W,001.5,161.1,050314,07.2,W,A*09
$PTNLRTF,V,A,334393,04,3,3919.81781,N,08206.08807,W,00229,+000.258,-000.754,+000.024,0,1*54
$PTNLRBA,1,1*57
$GPZDA,205258.00,05,03,2014,,*6F
$GPGGA,205258.00,3919.81784,N,08206.08815,W,1,05,1.99,00229,M,-033,M,,*5E
$GPGLL,3919.81784,N,08206.08815,W,205258.00,A,A*7B
$GPVTG,189.5,T,196.7,M,000.9,N,001.7,K,A*20
$GPGSA,A,3,31,32,20,23,,,,,,,,,7.99,4.98,6.25*01
$GPGSV,2,1,07,31,68,019,37,32,61,242,26,25,21,042,18,14,31,106,21*73
$GPGSV,2,2,07,20,37,296,26,29,13,078,24,23,14,303,22,,,,*45
$GPGST,205258.00,,272.84,258.43,081.7,016.51,016.09,015.85*48
$GPRMC,205258.00,A,3919.81784,N,08206.08815,W,000.9,189.5,050314,07.2,W,A*0F
$PTNLRTF,V,A,334395,04,3,3919.81784,N,08206.08815,W,00229,-000.079,-000.468,-000.003,0,1*5C
$PTNLRBA,1,1*57
$GPGGA,205300.00,3919.81794,N,08206.08817,W,1,05,2.79,00229,M,-033,M,,*5C
$GPGLL,3919.81794,N,08206.08817,W,205300.00,A,A*74
$GPVTG,125.6,T,132.8,M,000.4,N,000.7,K,A*28
$GPGSA,A,3,31,32,25,20,23,,,,,,,,3.95,2.79,2.79*0A
$GPGSV,2,1,07,31,68,019,38,32,61,242,24,25,21,042,15,14,31,106,22*70
$GPGSV,2,2,07,20,37,296,26,29,13,078,23,23,14,303,22,,,,*42
$GPGST,205300.00,,282.41,266.70,082.5,016.80,016.34,016.11*42
$GPRMC,205300.00,A,3919.81794,N,08206.08817,W,000.4,125.6,050314,07.2,W,A*08
$PTNLRTF,V,A,334396,05,3,3919.81794,N,08206.08817,W,00229,+000.152,-000.109,+000.002,0,1*56
$PTNLRBA,1,1*57
$GPZDA,205301.00,05,03,2014,,*62
$GPGGA,205301.00,3919.81833,N,08206.08813,W,1,06,1.49,00229,M,-033,M,,*58
$GPVTG,343.0,T,350.2,M,000.3,N,000.6,K,A*26
$GPGSA,A,3,31,32,25,14,20,23,,,,,,,2.42,1.49,1.91*01
$GPGSV,2,1,07,31,68,019,38,32,61,242,26,25,21,042,08,14,31,106,23*7F
$GPGSV,2,2,07,20,37,296,25,29,13,078,23,23,14,303,23,,,,*40
$GPGST,205301.00,,264.81,249.43,082.7,016.27,015.80,015.57*48
$GPRMC,205301.00,A,3919.81833,N,08206.08813,W,000.3,343.0,050314,07.2,W,A*0C
$PTNLRTF,V,A,334397,06,3,3919.81833,N,08206.08813,W,00229,-000.045,+000.148,+000.003,0,1*51
$PTNLRBA,1,1*57
$GPZDA,205302.00,05,03,2014,,*61
$GPGGA,205302.00,3919.81828,N,08206.08796,W,1,06,1.49,00229,M,-033,M,,*53
$GPGLL,3919.81828,N,08206.08796,W,205302.00,A,A*78
$GPVTG,158.1,T,165.3,M,000.2,N,000.3,K,A*2E
$GPGSA,A,3,31,32,14,20,23,,,,,,,,2.77,1.99,1.94*08
$GPGSV,2,1,07,31,68,019,37,32,61,242,27,25,21,042,13,14,31,106,22*7A
$GPGSV,2,2,07,20,37,296,23,29,13,078,24,23,14,303,18,,,,*49
$GPGST,205302.00,,252.93,237.65,082.8,015.90,015.42,015.19*44
$GPRMC,205302.00,A,3919.81828,N,08206.08796,W,000.2,158.1,050314,07.2,W,A*0F
$PTNLRTF,V,A,334399,05,3,3919.81828,N,08206.08796,W,00229,+000.029,-000.072,-000.022,0,1*53
$PTNLRBA,1,1*57
$GPZDA,205304.00,05,03,2014,,*67
$GPGGA,205304.00,3919.81888,N,08206.08766,W,1,05,1.99,00229,M,-033,M,,*5E
$GPGLL,3919.81888,N,08206.08766,W,205304.00,A,A*7B
$GPVTG,032.5,T,039.7,M,000.6,N,001.1,K,A*2C
$GPGSA,A,3,31,32,14,20,23,,,,,,,,2.77,1.99,1.94*08
$GPGSV,2,1,07,31,68,019,37,32,61,242,25,25,21,042,00,14,31,106,23*7B
$GPGSV,2,2,07,20,37,296,24,29,13,078,24,23,14,303,22,,,,*47
$GPGST,205304.00,,232.85,217.31,084.4,015.25,014.75,014.51*4C
$GPRMC,205304.00,A,3919.81888,N,08206.08766,W,000.6,032.5,050314,07.2,W,A*01
$PTNLRTF,V,A,334400,05,3,3919.81888,N,08206.08766,W,00229,+000.168,+000.264,-000.022,0,1*56
$PTNLRBA,1,1*57
$GPGGA,205305.00,3919.81916,N,08206.08729,W,1,05,1.99,00229,M,-033,M,,*52
$GPGLL,3919.81916,N,08206.08729,W,205305.00,A,A*77
$GPVTG,062.7,T,069.9,M,000.6,N,001.2,K,A*23
$GPGSA,A,3,31,32,14,20,23,,,,,,,,2.77,1.99,1.94*08
$GPGSV,2,1,07,31,68,019,37,32,61,242,25,25,21,042,04,14,31,106,21*7D
$GPGSV,2,2,07,20,37,296,26,29,13,078,22,23,14,303,22,,,,*43
$GPGST,205305.00,,231.36,215.63,085.5,015.21,014.69,014.45*4F
$GPRMC,205305.00,A,3919.81916,N,08206.08729,W,000.6,062.7,050314,07.2,W,A*0A
$PTNLRTF,V,A,334401,05,3,3919.81916,N,08206.08729,W,00229,+000.291,+000.150,-000.006,0,1*5D
$PTNLRBA,1,1*57
$GPZDA,205306.00,05,03,2014,,*65
$GPGGA,205306.00,3919.81925,N,08206.08760,W,1,05,1.99,00229,M,-033,M,,*5C
$GPGLL,3919.81925,N,08206.08760,W,205306.00,A,A*79
$GPVTG,289.2,T,296.4,M,000.6,N,001.2,K,A*2E
$GPGSA,A,3,31,32,14,20,23,,,,,,,,2.77,1.99,1.94*08
$GPGSV,2,1,07,31,68,019,37,32,61,242,26,25,21,042,10,14,31,106,24*7E
$GPGSV,2,2,07,20,37,296,24,29,13,078,23,23,14,303,24,,,,*46
$GPGST,205306.00,,224.67,208.60,086.5,014.99,014.45,014.21*4E
$GPRMC,205306.00,A,3919.81925,N,08206.08760,W,000.6,289.2,050314,07.2,W,A*06
$PTNLRTF,V,A,334403,05,3,3919.81925,N,08206.08760,W,00229,-000.305,+000.106,+000.007,0,1*5C
$PTNLRBA,1,1*57
$GPZDA,205308.00,05,03,2014,,*6B
$GPGGA,205308.00,3919.81862,N,08206.08744,W,1,05,1.99,00229,M,-033,M,,*56
$GPGLL,3919.81862,N,08206.08744,W,205308.00,A,A*73
$GPVTG,215.7,T,222.9,M,000.3,N,000.6,K,A*2C
$GPGSA,A,3,31,32,14,20,23,,,,,,,,2.77,1.99,1.94*08
$GPGSV,2,1,07,31,68,019,38,32,61,242,24,25,21,042,05,14,31,106,23*70
$GPGSV,2,2,07,20,37,296,25,29,13,078,23,23,14,303,23,,,,*40
$GPGST,205308.00,,222.43,205.58,088.8,014.91,014.34,014.10*49
$GPRMC,205308.00,A,3919.81862,N,08206.08744,W,000.3,215.7,050314,07.2,W,A*09
$PTNLRTF,V,A,334404,05,3,3919.81862,N,08206.08744,W,00229,-000.104,-000.145,+000.001,0,1*5B
$PTNLRBA,1,1*57
$GPGGA,205309.00,3919.81854,N,08206.08768,W,1,05,1.98,00229,M,-033,M,,*5D
$GPGLL,3919.81854,N,08206.08768,W,205309.00,A,A*79
$GPVTG,230.1,T,237.3,M,001.0,N,001.9,K,A*2F
$GPGSA,A,3,31,32,14,20,23,,,,,,,,2.77,1.98,1.94*09
$GPGSV,2,1,07,31,68,019,37,32,61,242,24,25,21,042,10,14,31,106,23*7B
$GPGSV,2,2,07,20,37,296,23,29,13,078,23,23,14,303,24,,,,*41
$GPGST,205309.00,,240.64,223.09,089.8,015.51,014.94,014.71*48
$GPRMC,205309.00,A,3919.81854,N,08206.08768,W,001.0,230.1,050314,07.2,W,A*00
$PTNLRTF,V,A,334405,05,3,3919.81854,N,08206.08768,W,00229,-000.395,-000.330,-000.021,0,1*5F
$PTNLRBA,1,1*57
$GPZDA,205310.00,05,03,2014,,*62
$GPGGA,205310.00,3919.81842,N,08206.08745,W,1,05,1.98,00229,M,-033,M,,*5D
$GPGLL,3919.81842,N,08206.08745,W,205310.00,A,A*79
$GPVTG,169.2,T,176.4,M,000.5,N,001.0,K,A*2F
$GPGSA,A,3,31,32,14,20,,,,,,,,,3.74,2.11,3.08*0F
$GPGSV,2,1,07,31,68,019,38,32,61,242,22,25,21,042,13,14,31,106,23*71
$GPGSV,2,2,07,20,37,296,23,29,13,078,24,23,14,303,23,,,,*41
$GPGST,205310.00,,235.08,217.11,089.2,015.33,014.73,014.50*42
$GPRMC,205310.00,A,3919.81842,N,08206.08745,W,000.5,169.2,050314,07.2,W,A*08
$PTNLRTF,V,A,334407,04,3,3919.81842,N,08206.08745,W,00229,+000.052,-000.272,+000.017,0,1*5E
$PTNLRBA,1,1*57
$GPZDA,205312.00,05,03,2014,,*60
$GPGGA,205312.00,3919.81871,N,08206.08712,W,1,05,1.98,00229,M,-033,M,,*5D
$GPGLL,3919.81871,N,08206.08712,W,205312.00,A,A*79
$GPVTG,215.1,T,222.3,M,000.7,N,001.2,K,A*21
$GPGSA,A,3,31,32,14,20,23,,,,,,,,2.77,1.98,1.94*09
$GPGSV,2,1,07,31,68,019,37,32,61,242,25,25,21,042,19,14,31,106,22*72
$GPGSV,2,2,07,20,37,296,26,29,13,078,24,23,14,303,24,,,,*43
$GPGST,205312.00,,262.87,245.13,088.8,016.21,015.66,015.43*4D
$GPRMC,205312.00,A,3919.81871,N,08206.08712,W,000.7,215.1,050314,07.2,W,A*01
$PTNLRTF,V,A,334408,05,3,3919.81871,N,08206.08712,W,00229,-000.199,-000.283,+000.020,0,1*58
$PTNLRBA,1,1*57
$GPGGA,205313.00,3919.81903,N,08206.08729,W,1,05,1.98,00229,M,-033,M,,*50
$GPGLL,3919.81903,N,08206.08729,W,205313.00,A,A*74
$GPVTG,283.2,T,290.4,M,000.8,N,001.5,K,A*2B
$GPGSA,A,3,31,32,14,20,23,,,,,,,,2.77,1.98,1.94*09
$GPGSV,2,1,07,31,68,019,37,32,61,242,24,25,21,042,14,14,31,106,22*7E
$GPGSV,2,2,07,20,37,296,24,29,13,078,22,23,14,303,24,,,,*47
$GPGST,205313.00,,255.52,237.34,088.1,015.98,015.41,015.18*43
$GPRMC,205313.00,A,3919.81903,N,08206.08729,W,000.8,283.2,050314,07.2,W,A*0F
$PTNLRTF,V,A,334409,05,3,3919.81903,N,08206.08729,W,00229,-000.402,+000.094,-000.005,0,1*51
$PTNLRBA,1,1*57
$GPZDA,205314.00,05,03,2014,,*66
$GPGGA,205314.00,3919.81842,N,08206.08738,W,1,05,1.98,00229,M,-033,M,,*53
$GPGLL,3919.81842,N,08206.08738,W,205314.00,A,A*77
$GPVTG,181.2,T,188.4,M,001.3,N,002.4,K,A*28
$GPGSA,A,3,31,32,14,20,23,,,,,,,,2.77,1.98,1.94*09
$GPGSV,2,1,07,31,68,019,38,32,61,242,23,25,21,042,04,14,31,106,23*76
$GPGSV,2,2,07,20,37,296,24,29,13,078,23,23,14,303,26,,,,*44
$GPGST,205314.00,,242.00,223.64,087.7,015.56,014.96,014.72*48
$GPRMC,205314.00,A,3919.81842,N,08206.08738,W,001.3,181.2,050314,07.2,W,A*07
$PTNLRTF,V,A,334411,05,3,3919.81842,N,08206.08738,W,00229,-000.014,-000.670,+000.026,0,1*52
$PTNLRBA,1,1*57
$GPZDA,205316.00,05,03,2014,,*64
$GPGGA,205316.00,3919.81960,N,08206.08681,W,1,05,1.98,00229,M,-033,M,,*53
$GPGLL,3919.81960,N,08206.08681,W,205316.00,A,A*77
$GPVTG,029.9,T,037.1,M,001.0,N,001.8,K,A*2C
$GPGSA,A,3,31,32,14,20,23,,,,,,,,2.77,1.98,1.94*09
$GPGSV,2,1,07,31,68,019,38,32,61,242,24,25,21,042,14,14,31,106,23*70
$GPGSV,2,2,07,20,37,296,24,29,13,078,23,23,14,303,25,,,,*47
$GPGST,205316.00,,230.27,211.28,086.6,015.17,014.54,014.31*4F
$GPRMC,205316.00,A,3919.81960,N,08206.08681,W,001.0,029.9,050314,07.2,W,A*0C
$PTNLRTF,V,A,334412,05,3,3919.81960,N,08206.08681,W,00229,+000.253,+000.441,-000.021,0,1*53
$PTNLRBA,1,1*57
$GPGGA,205317.00,3919.81973,N,08206.08687,W,1,04,4.81,00229,M,-033,M,,*5A
$GPGLL,3919.81973,N,08206.08687,W,205317.00,A,A*72
$GPVTG,316.8,T,324.0,M,000.3,N,000.6,K,A*2F
$GPGSA,A,3,31,14,20,23,,,,,,,,,5.52,4.81,2.71*0D
$GPGSV,2,1,07,31,68,019,38,32,61,242,22,25,21,042,14,14,31,106,23*76
$GPGSV,2,2,07,20,37,296,25,29,13,078,20,23,14,303,25,,,,*45
$GPGST,205317.00,,220.46,200.72,085.7,014.84,014.17,013.93*46
$GPRMC,205317.00,A,3919.81973,N,08206.08687,W,000.3,316.8,050314,07.2,W,A*05
$PTNLRTF,V,A,334413,04,3,3919.81973,N,08206.08687,W,00229,-000.112,+000.120,+000.004,0,1*54
$PTNLRBA,1,1*57
$GPZDA,205318.00,05,03,2014,,*6A
$GPGGA,205318.00,3919.81963,N,08206.08641,W,1,05,1.98,00229,M,-033,M,,*52
$GPGLL,3919.81963,N,08206.08641,W,205318.00,A,A*76
$GPVTG,136.6,T,143.8,M,000.9,N,001.6,K,A*21
$GPGSA,A,3,31,32,14,23,,,,,,,,,2.79,2.01,1.94*06
$GPGSV,2,1,07,31,68,020,36,32,61,242,20,25,21,042,14,14,31,106,23*70
$GPGSV,2,2,07,20,37,296,23,29,13,078,21,23,15,303,23,,,,*45
$GPGST,205318.00,,218.48,198.75,085.5,014.78,014.10,013.86*4B
$GPRMC,205318.00,A,3919.81963,N,08206.08641,W,000.9,136.6,050314,07.2,W,A*05
$PTNLRTF,V,A,334415,04,3,3919.81963,N,08206.08641,W,00229,+000.307,-000.324,+000.015,0,1*59
$PTNLRBA,1,1*57
$GPGGA,205320.00,3919.81995,N,08206.08610,W,1,05,1.98,00229,M,-033,M,,*54
$GPGLL,3919.81995,N,08206.08610,W,205320.00,A,A*70
$GPVTG,131.3,T,138.5,M,000.5,N,000.9,K,A*20
$GPGSA,A,3,31,32,14,20,23,,,,,,,,2.77,1.98,1.94*09
$GPGSV,2,1,07,31,68,020,36,32,61,242,20,25,21,042,17,14,31,106,21*71
$GPGSV,2,2,07,20,37,296,23,29,13,078,20,23,15,303,24,,,,*43
$GPGST,205320.00,,209.70,189.61,084.8,014.48,013.78,013.53*40
$GPRMC,205320.00,A,3919.81995,N,08206.08610,W,000.5,131.3,050314,07.2,W,A*0D
$PTNLRTF,V,A,334416,05,3,3919.81995,N,08206.08610,W,00229,+000.194,-000.170,+000.001,0,1*58
$PTNLRBA,1,1*57
$GPZDA,205321.00,05,03,2014,,*60
$GPGGA,205321.00,3919.82002,N,08206.08608,W,1,05,1.98,00229,M,-033,M,,*58
$GPVTG,200.9,T,208.1,M,000.4,N,000.8,K,A*2F
$GPGSA,A,3,31,32,14,20,23,,,,,,,,2.77,1.98,1.94*09
$GPGSV,2,1,07,31,68,020,37,32,61,242,19,25,21,042,15,14,31,106,23*7A
$GPGSV,2,2,07,20,37,296,23,29,13,078,20,23,15,303,25,,,,*42
$GPGST,205321.00,,218.55,198.18,084.9,014.78,014.08,013.84*40
$GPRMC,205321.00,A,3919.82002,N,08206.08608,W,000.4,200.9,050314,07.2,W,A*0B
$PTNLRTF,V,A,334417,05,3,3919.82002,N,08206.08608,W,00229,-000.075,-000.196,-000.003,0,1*50
$PTNLRBA,1,1*57
$GPZDA,205322.00,05,03,2014,,*63
$GPGGA,205322.00,3919.81982,N,08206.08636,W,1,05,1.98,00229,M,-033,M,,*54
$GPGLL,3919.81982,N,08206.08636,W,205322.00,A,A*70
$GPVTG,204.1,T,211.3,M,001.5,N,002.7,K,A*24
$GPGSA,A,3,31,32,25,14,20,23,,,,,,,2.42,1.48,1.91*00
$GPGSV,2,1,07,31,68,020,37,32,61,242,18,25,21,042,17,14,31,106,22*78
$GPGSV,2,2,07,20,37,296,22,29,13,078,17,23,15,303,27,,,,*45
$GPGST,205322.00,,221.80,201.31,084.5,014.89,014.19,013.95*4B
$GPRMC,205322.00,A,3919.81982,N,08206.08636,W,001.5,204.1,050314,07.2,W,A*0B
$PTNLRTF,V,A,334419,06,3,3919.81982,N,08206.08636,W,00229,-000.309,-000.691,+000.015,0,1*5B
$PTNLRBA,1,1*57
$GPZDA,205324.00,05,03,2014,,*65
$GPGGA,205324.00,3919.82023,N,08206.08695,W,1,05,1.98,00229,M,-033,M,,*5A
$GPGLL,3919.82023,N,08206.08695,W,205324.00,A,A*7E
$GPVTG,246.0,T,253.2,M,001.4,N,002.6,K,A*24
$GPGSA,A,3,31,32,14,20,23,,,,,,,,2.77,1.98,1.94*09
$GPGSV,2,1,07,31,68,020,37,32,61,242,19,25,21,042,16,14,31,106,22*78
$GPGSV,2,2,07,20,37,296,22,29,13,078,19,23,15,303,25,,,,*49
$GPGST,205324.00,,229.50,208.74,084.4,015.14,014.45,014.23*47
$GPRMC,205324.00,A,3919.82023,N,08206.08695,W,001.4,246.0,050314,07.2,W,A*03
$PTNLRTF,V,A,334420,05,3,3919.82023,N,08206.08695,W,00229,-000.667,-000.298,+000.005,0,1*5B
$PTNLRBA,1,1*57
$GPGGA,205325.00,3919.81998,N,08206.08646,W,1,06,1.48,00229,M,-033,M,,*51
$GPGLL,3919.81998,N,08206.08646,W,205325.00,A,A*7B
$GPVTG,154.7,T,161.9,M,002.0,N,003.8,K,A*22
$GPGSA,A,3,31,32,25,14,20,23,,,,,,,2.42,1.48,1.91*00
$GPGSV,2,1,07,31,68,020,36,32,61,242,19,25,21,042,17,14,31,106,22*78
$GPGSV,2,2,07,20,37,296,22,29,13,078,16,23,15,303,25,,,,*46
$GPGST,205325.00,,228.29,207.70,084.5,015.10,014.42,014.19*49
$GPRMC,205325.00,A,3919.81998,N,08206.08646,W,002.0,154.7,050314,07.2,W,A*06
$PTNLRTF,V,A,334421,06,3,3919.81998,N,08206.08646,W,00229,+000.446,-000.944,+000.014,0,1*50
$PTNLRBA,1,1*57
$GPZDA,205326.00,05,03,2014,,*67
$GPGGA,205326.00,3919.81968,N,08206.08641,W,1,05,1.98,00229,M,-033,M,,*54
$GPGLL,3919.81968,N,08206.08641,W,205326.00,A,A*70
$GPVTG,189.2,T,196.3,M,001.6,N,003.0,K,A*28
$GPGSA,A,3,31,32,14,23,,,,,,,,,2.79,2.00,1.94*07
$GPGSV,2,1,07,31,68,020,36,32,61,242,17,25,21,042,12,14,31,106,22*73
$GPGSV,2,2,07,20,37,296,22,29,13,078,15,23,15,303,26,,,,*46
$GPGST,205326.00,,255.40,234.62,084.1,015.97,015.32,015.11*48
$GPRMC,205326.00,A,3919.81968,N,08206.08641,W,001.6,189.2,050314,07.2,W,A*0D
$PTNLRTF,V,A,334423,04,3,3919.81968,N,08206.08641,W,00229,-000.134,-000.835,+000.017,0,1*5A
$PTNLRBA,1,1*57
$GPZDA,205328.00,05,03,2014,,*69
$GPGGA,205328.00,3919.81965,N,08206.08668,W,1,04,2.00,00229,M,-033,M,,*5F
$GPGLL,3919.81965,N,08206.08668,W,205328.00,A,A*78
$GPVTG,233.1,T,240.3,M,001.2,N,002.1,K,A*25
$GPGSA,A,3,31,32,14,23,,,,,,,,,2.79,2.00,1.94*07
$GPGSV,2,1,07,31,68,020,36,32,61,242,15,25,21,042,12,14,31,106,23*70
$GPGSV,2,2,07,20,37,296,19,29,13,078,09,23,15,303,24,,,,*41
$GPGST,205328.00,,275.16,253.81,083.3,016.58,015.94,015.73*46
$GPRMC,205328.00,A,3919.81965,N,08206.08668,W,001.2,233.1,050314,07.2,W,A*00
$PTNLRTF,V,A,334424,04,3,3919.81965,N,08206.08668,W,00229,-000.476,-000.357,+000.014,0,1*54
$PTNLRBA,1,1*57
$GPGGA,205329.00,3919.81983,N,08206.08676,W,1,04,4.77,00229,M,-033,M,,*5F
$GPGLL,3919.81983,N,08206.08676,W,205329.00,A,A*7E
$GPVTG,241.0,T,248.2,M,001.0,N,001.8,K,A*20
$GPGSA,A,3,31,14,20,23,,,,,,,,,5.49,4.77,2.71*0E
$GPGSV,2,1,07,31,68,020,35,32,61,242,15,25,21,042,12,14,31,106,22*72
$GPGSV,2,2,07,20,37,296,21,29,13,078,15,23,15,303,24,,,,*47
$GPGST,205329.00,,272.96,250.85,082.4,016.51,015.85,015.64*46
$GPRMC,205329.00,A,3919.81983,N,08206.08676,W,001.0,241.0,050314,07.2,W,A*00
$PTNLRTF,V,A,334425,04,3,3919.81983,N,08206.08676,W,00229,-000.439,-000.243,-000.024,0,1*58
$PTNLRBA,1,1*57
$GPZDA,205330.00,05,03,2014,,*60
$GPGGA,205330.00,3919.81979,N,08206.08657,W,1,04,4.76,00229,M,-033,M,,*50
$GPGLL,3919.81979,N,08206.08657,W,205330.00,A,A*70
$GPVTG,182.9,T,190.1,M,000.9,N,001.6,K,A*26
$GPGSA,A,3,31,14,20,23,,,,,,,,,5.48,4.76,2.71*0E
$GPGSV,2,1,07,31,68,020,36,32,61,242,10,25,21,042,15,14,31,106,19*7B
$GPGSV,2,2,07,20,37,296,22,29,13,078,14,23,15,303,25,,,,*44
$GPGST,205330.00,,266.67,243.69,081.5,016.31,015.63,015.40*4F
$GPRMC,205330.00,A,3919.81979,N,08206.08657,W,000.9,182.9,050314,07.2,W,A*03
$PTNLRTF,V,A,334427,04,3,3919.81979,N,08206.08657,W,00229,-000.023,-000.457,-000.004,0,1*52
$PTNLRBA,1,1*57
$GPGGA,205332.00,3919.81996,N,08206.08693,W,1,04,4.76,00229,M,-033,M,,*5B
$GPGLL,3919.81996,N,08206.08693,W,205332.00,A,A*7B
$GPVTG,253.4,T,260.6,M,001.1,N,002.0,K,A*23
$GPGSA,A,3,31,14,20,23,,,,,,,,,5.48,4.76,2.71*0E
$GPGSV,2,1,07,31,68,020,36,32,61,242,14,25,21,042,12,14,31,106,21*73
$GPGSV,2,2,07,20,37,296,20,29,13,078,01,23,15,303,25,,,,*42
$GPGST,205332.00,,266.54,240.81,080.1,016.30,015.54,015.31*4E
$GPRMC,205332.00,A,3919.81996,N,08206.08693,W,001.1,253.4,050314,07.2,W,A*03
$PTNLRTF,V,A,334428,04,3,3919.81996,N,08206.08693,W,00229,-000.523,-000.156,+000.009,0,1*5E
$PTNLRBA,1,1*57
$GPZDA,205333.00,05,03,2014,,*63
$GPGGA,205333.00,3919.82048,N,08206.08661,W,1,04,4.75,00229,M,-033,M,,*5D
$GPVTG,148.7,T,155.9,M,000.1,N,000.2,K,A*22
$GPGSA,A,3,31,14,20,23,,,,,,,,,5.47,4.75,2.71*02
$GPGSV,2,1,07,31,68,020,35,32,61,242,13,25,21,042,11,14,31,106,22*77
$GPGSV,2,2,07,20,37,296,17,29,13,078,00,23,15,303,24,,,,*46
$GPGST,205333.00,,259.77,232.55,079.1,016.09,015.28,015.03*48
$GPRMC,205333.00,A,3919.82048,N,08206.08661,W,000.1,148.7,050314,07.2,W,A*0D
$PTNLRTF,V,A,334429,04,3,3919.82048,N,08206.08661,W,00229,+000.022,-000.037,-000.010,0,1*51
$PTNLRBA,1,1*57
$GPZDA,205334.00,05,03,2014,,*64
$GPGGA,205334.00,3919.82003,N,08206.08616,W,1,04,4.75,00229,M,-033,M,,*55
$GPGLL,3919.82003,N,08206.08616,W,205334.00,A,A*76
$GPVTG,127.8,T,135.0,M,001.1,N,002.0,K,A*2A
$GPGSA,A,3,31,14,20,23,,,,,,,,,5.47,4.75,2.71*02
$GPGSV,2,1,07,31,68,020,35,32,61,242,06,25,21,042,00,14,31,106,23*72
$GPGSV,2,2,07,20,37,296,18,29,13,078,13,23,15,303,24,,,,*4B
$GPGST,205334.00,,289.72,261.06,078.7,016.99,016.19,015.95*47
$GPRMC,205334.00,A,3919.82003,N,08206.08616,W,001.1,127.8,050314,07.2,W,A*02
$PTNLRTF,V,A,334430,04,3,3919.82003,N,08206.08616,W,00229,+000.447,-000.347,+000.002,0,1*50
$PTNLRBA,1,1*57
$GPZDA,205335.00,05,03,2014,,*65
$GPGGA,205335.00,3919.82091,N,08206.08569,W,1,04,4.75,00229,M,-033,M,,*54
$GPGLL,3919.82091,N,08206.08569,W,205335.00,A,A*77
$GPVTG,334.3,T,341.5,M,000.7,N,001.2,K,A*23
$GPGSA,A,3,31,32,14,20,23,,,,,,,,2.77,1.97,1.94*06
$GPGSV,2,1,07,31,68,020,36,32,61,242,13,25,21,042,14,14,31,106,22*71
$GPGSV,2,2,07,20,37,296,19,29,13,078,00,23,15,303,26,,,,*4A
$GPGST,205335.00,,303.55,273.12,078.0,017.38,016.57,016.33*4E
$GPRMC,205335.00,A,3919.82091,N,08206.08569,W,000.7,334.3,050314,07.2,W,A*0F
$PTNLRTF,V,A,334432,05,3,3919.82091,N,08206.08569,W,00229,-000.148,+000.308,-000.014,0,1*53
$PTNLRBA,1,1*57
$GPGGA,205337.00,3919.82250,N,08206.08512,W,1,05,1.97,00229,M,-033,M,,*5D
$GPGLL,3919.82250,N,08206.08512,W,205337.00,A,A*76
$GPVTG,024.3,T,031.5,M,000.8,N,001.6,K,A*2E
$GPGSA,A,3,31,32,14,20,23,,,,,,,,2.77,1.97,1.94*06
$GPGSV,2,1,07,31,68,020,36,32,61,242,16,25,21,042,14,14,31,106,22*74
$GPGSV,2,2,07,20,37,296,17,29,13,078,10,23,15,303,27,,,,*44
$GPGST,205337.00,,451.95,421.85,078.0,021.23,020.57,020.38*4B
$GPRMC,205337.00,A,3919.82250,N,08206.08512,W,000.8,024.3,050314,07.2,W,A*03
$PTNLRTF,V,A,334433,05,3,3919.82250,N,08206.08512,W,00229,+000.180,+000.398,-000.007,0,1*58
$PTNLRBA,1,1*57
$GPZDA,205338.00,05,03,2014,,*68
$GPGGA,205338.00,3919.82266,N,08206.08528,W,1,05,1.97,00229,M,-033,M,,*5E
$GPVTG,316.4,T,323.6,M,000.8,N,001.5,K,A*2B
$GPGSA,A,3,31,32,14,20,23,,,,,,,,2.76,1.97,1.94*07
$GPGSV,2,1,07,31,68,020,36,32,61,242,17,25,21,042,08,14,31,106,22*78
$GPGSV,2,2,07,20,37,296,14,29,13,078,11,23,15,303,26,,,,*47
$GPGST,205338.00,,512.06,481.84,077.8,022.60,021.98,021.81*41
$GPRMC,205338.00,A,3919.82266,N,08206.08528,W,000.8,316.4,050314,07.2,W,A*05
$PTNLRTF,V,A,334435,04,3,3919.82266,N,08206.08528,W,00229,-000.279,+000.293,-000.009,0,1*54
$PTNLRBA,1,1*57
$GPZDA,205339.00,05,03,2014,,*69
$GPGGA,205339.00,3919.82456,N,08206.08456,W,1,04,2.00,00229,M,-033,M,,*5E
$GPGLL,3919.82456,N,08206.08456,W,205339.00,A,A*79
$GPVTG,012.9,T,020.1,M,003.6,N,006.7,K,A*2E
$GPGSA,A,3,31,32,14,,,,,,,,,,2.58,2.38,1.00*03
$GPGSV,2,1,07,31,68,020,36,32,61,242,18,25,21,042,15,14,31,106,21*78
$GPGSV,2,2,07,20,37,296,05,29,13,078,04,23,15,303,24,,,,*41
$GPGST,205339.00,,545.94,515.00,077.5,023.33,022.73,022.56*4C
$GPRMC,205339.00,A,3919.82456,N,08206.08456,W,003.6,012.9,050314,07.2,W,A*0E
$PTNLRTF,V,A,334436,03,3,3919.82456,N,08206.08456,W,00229,+000.413,+001.808,-000.024,0,1*57
$PTNLRBA,1,1*57
$GPZDA,205341.00,05,03,2014,,*66
$GPGGA,205341.00,3919.82492,N,08206.08422,W,1,04,2.00,00229,M,-033,M,,*5A
$GPGLL,3919.82492,N,08206.08422,W,205341.00,A,A*7D
$GPVTG,311.3,T,318.5,M,000.7,N,001.2,K,A*28
$GPGSA,A,3,31,32,14,23,,,,,,,,,2.79,2.00,1.95*06
$GPGSV,2,1,07,31,68,020,36,32,61,242,17,25,21,042,10,14,31,106,23*70
$GPGSV,2,2,07,20,37,296,17,29,13,078,00,23,15,303,25,,,,*47
$GPGST,205341.00,,604.90,574.10,077.4,024.56,023.99,023.83*4E
$GPRMC,205341.00,A,3919.82492,N,08206.08422,W,000.7,311.3,050314,07.2,W,A*02
$PTNLRTF,V,A,334437,04,3,3919.82492,N,08206.08422,W,00229,-000.258,+000.227,+000.020,0,1*51
$PTNLRBA,1,1*57
$GPGGA,205342.00,3919.82541,N,08206.08359,W,1,03,5.39,00229,M,-033,M,,*57
$GPGLL,3919.82541,N,08206.08359,W,205342.00,A,A*7A
$GPVTG,044.0,T,051.2,M,000.9,N,001.6,K,A*2B
$GPGSA,A,2,31,14,23,,,,,,,,,,5.48,5.39,1.00*02
$GPGSV,2,1,07,31,68,020,36,32,61,242,15,25,21,042,00,14,31,106,24*74
$GPGSV,2,2,07,20,37,296,12,29,13,078,12,23,15,303,25,,,,*41
$GPGST,205342.00,,567.06,535.76,076.7,023.78,023.18,023.01*4B
$GPRMC,205342.00,A,3919.82541,N,08206.08359,W,000.9,044.0,050314,07.2,W,A*0B
$PTNLRTF,V,A,334438,03,2,3919.82541,N,08206.08359,W,00229,+000.304,+000.315,+000.006,0,1*56
$PTNLRBA,1,1*57
$GPZDA,205343.00,05,03,2014,,*64
$GPGGA,205343.00,3919.82562,N,08206.08314,W,1,02,1.00,00229,M,-033,M,,*51
$GPGLL,3919.82562,N,08206.08314,W,205343.00,A,A*73
$GPVTG,132.0,T,139.2,M,000.7,N,001.3,K,A*2F
$GPGSA,A,2,31,14,23,,,,,,,,,,5.47,5.38,1.00*0C
$GPGSV,2,1,07,31,68,020,35,32,61,242,12,25,21,042,00,14,31,106,23*77
$GPGSV,2,2,07,20,37,296,13,29,13,078,10,23,15,303,24,,,,*43
$GPGST,205343.00,,537.28,505.17,075.9,023.14,022.52,022.32*4E
$GPRMC,205343.00,A,3919.82562,N,08206.08314,W,000.7,132.0,050314,07.2,W,A*0C
$PTNLRTF,V,A,334440,03,2,3919.82562,N,08206.08314,W,00229,+000.275,-000.247,-000.010,0,1*57
$PTNLRBA,1,1*57
$GPZDA,205345.00,05,03,2014,,*62
$GPGGA,205345.00,3919.82675,N,08206.08258,W,1,03,5.38,00229,M,-033,M,,*55
$GPGLL,3919.82675,N,08206.08258,W,205345.00,A,A*79
$GPVTG,356.4,T,003.6,M,000.5,N,001.0,K,A*26
$GPGSA,A,2,31,14,23,,,,,,,,,,5.47,5.38,1.00*0C
$GPGSV,2,1,07,31,68,020,35,32,61,242,18,25,21,042,00,14,31,106,22*7C
$GPGSV,2,2,07,20,37,296,13,29,13,078,14,23,15,303,25,,,,*46
$GPGST,205345.00,,493.08,457.03,073.8,022.14,021.44,021.20*44
$GPRMC,205345.00,A,3919.82675,N,08206.08258,W,000.5,356.4,050314,07.2,W,A*00
$PTNLRTF,V,A,334441,03,2,3919.82675,N,08206.08258,W,00229,-000.017,+000.272,-000.002,0,1*59
$PTNLRBA,1,1*57
$GPZDA,205346.00,05,03,2014,,*61
$GPGGA,205346.00,3919.82681,N,08206.08236,W,1,04,1.99,00229,M,-033,M,,*5D
$GPGLL,3919.82681,N,08206.08236,W,205346.00,A,A*79
$GPVTG,004.4,T,011.6,M,000.7,N,001.3,K,A*20
$GPGSA,A,3,31,32,14,23,,,,,,,,,2.79,1.99,1.95*05
$GPGSV,2,1,07,31,68,020,37,32,61,242,21,25,21,042,16,14,31,106,24*75
$GPGSV,2,2,07,20,37,296,06,29,13,078,17,23,15,303,26,,,,*42
$GPGST,205346.00,,504.64,470.31,074.9,022.41,021.74,021.51*45
$GPRMC,205346.00,A,3919.82681,N,08206.08236,W,000.7,004.4,050314,07.2,W,A*06
$PTNLRTF,V,A,334442,04,3,3919.82681,N,08206.08236,W,00229,+000.029,+000.370,-000.004,0,1*51
$PTNLRBA,1,1*57
$GPZDA,205348.00,05,03,2014,,*6F
$GPGGA,205348.00,3919.82701,N,08206.08284,W,1,04,1.99,00229,M,-033,M,,*53
$GPGLL,3919.82701,N,08206.08284,W,205348.00,A,A*77
$GPVTG,263.1,T,270.3,M,001.1,N,002.0,K,A*21
$GPGSA,A,3,31,32,14,23,,,,,,,,,2.79,1.99,1.95*05
$GPGSV,2,1,07,31,68,020,35,32,61,242,18,25,21,042,16,14,31,106,23*7A
$GPGSV,2,2,07,20,37,296,14,29,13,078,18,23,15,303,25,,,,*4D
$GPGST,205348.00,,544.98,510.64,074.8,023.29,022.65,022.43*46
$GPRMC,205348.00,A,3919.82701,N,08206.08284,W,001.1,263.1,050314,07.2,W,A*09
$PTNLRTF,V,A,334444,04,3,3919.82701,N,08206.08284,W,00229,-000.558,-000.068,+000.005,0,1*59
$PTNLRBA,1,1*57
$GPGGA,205349.00,3919.82734,N,08206.08275,W,1,04,1.99,00229,M,-033,M,,*5A
$GPGLL,3919.82734,N,08206.08275,W,205349.00,A,A*7E
$GPVTG,259.4,T,266.6,M,000.2,N,000.4,K,A*2B
$GPGSA,A,3,31,32,14,23,,,,,,,,,2.79,1.99,1.95*05
$GPGSV,2,1,07,31,68,020,36,32,61,242,19,25,21,042,00,14,31,106,24*78
$GPGSV,2,2,07,20,37,296,10,29,13,078,16,23,15,303,26,,,,*44
$GPGST,205349.00,,546.75,512.35,074.4,023.33,022.69,022.47*4F
$GPRMC,205349.00,A,3919.82734,N,08206.08275,W,000.2,259.4,050314,07.2,W,A*0E
$PTNLRTF,V,A,334445,04,3,3919.82734,N,08206.08275,W,00229,-000.109,-000.020,-000.007,0,1*58
$PTNLRBA,1,1*57
$GPZDA,205350.00,05,03,2014,,*66
$GPGGA,205350.00,3919.82713,N,08206.08226,W,1,04,1.99,00229,M,-033,M,,*51
$GPGLL,3919.82713,N,08206.08226,W,205350.00,A,A*75
$GPVTG,143.0,T,150.2,M,001.5,N,002.7,K,A*22
$GPGSA,A,3,31,32,14,23,,,,,,,,,2.79,1.99,1.95*05
$GPGSV,2,1,07,31,68,020,36,32,61,242,19,25,21,042,17,14,31,106,24*7E
$GPGSV,2,2,07,20,37,296,00,29,13,078,16,23,15,303,25,,,,*46
$GPGST,205350.00,,546.24,511.84,074.3,023.32,022.68,022.46*4C
$GPRMC,205350.00,A,3919.82713,N,08206.08226,W,001.5,143.0,050314,07.2,W,A*0F
$PTNLRTF,V,A,334447,04,3,3919.82713,N,08206.08226,W,00229,+000.455,-000.605,-000.013,0,1*57
$PTNLRBA,1,1*57
$GPZDA,205352.00,05,03,2014,,*64
$GPGGA,205352.00,3919.82788,N,08206.08113,W,1,04,1.99,00229,M,-033,M,,*54
$GPGLL,3919.82788,N,08206.08113,W,205352.00,A,A*70
$GPVTG,353.0,T,000.2,M,000.2,N,000.4,K,A*22
$GPGSA,A,3,31,32,14,23,,,,,,,,,2.79,1.99,1.95*05
$GPGSV,2,1,07,31,67,020,36,32,60,241,15,25,20,042,14,14,31,107,25*7D
$GPGSV,2,2,07,20,37,295,17,29,13,078,16,23,15,303,25,,,,*43
$GPGST,205352.00,,547.33,512.81,073.9,023.34,022.70,022.48*43
$GPRMC,205352.00,A,3919.82788,N,08206.08113,W,000.2,353.0,050314,07.2,W,A*0F
$PTNLRTF,V,A,334448,04,3,3919.82788,N,08206.08113,W,00229,-000.015,+000.118,+000.002,0,1*52
$PTNLRBA,1,1*57
$GPGGA,205353.00,3919.82684,N,08206.08130,W,1,04,1.99,00229,M,-033,M,,*59
$GPGLL,3919.82684,N,08206.08130,W,205353.00,A,A*7D
$GPVTG,186.5,T,193.7,M,001.9,N,003.5,K,A*2B
$GPGSA,A,3,31,32,14,23,,,,,,,,,2.78,1.99,1.95*04
$GPGSV,2,1,07,31,67,020,35,32,60,241,15,25,20,042,11,14,31,107,26*78
$GPGSV,2,2,07,20,37,295,15,29,13,078,14,23,15,303,25,,,,*43
$GPGST,205353.00,,522.98,488.47,073.9,022.81,022.16,021.93*42
$GPRMC,205353.00,A,3919.82684,N,08206.08130,W,001.9,186.5,050314,07.2,W,A*07
$PTNLRTF,V,A,334449,04,3,3919.82684,N,08206.08130,W,00229,-000.108,-000.957,+000.058,0,1*58
$PTNLRBA,1,1*57
$GPZDA,205354.00,05,03,2014,,*62
$GPGGA,205354.00,3919.82645,N,08206.08085,W,1,04,1.99,00229,M,-033,M,,*5C
$GPGLL,3919.82645,N,08206.08085,W,205354.00,A,A*78
$GPVTG,162.0,T,169.2,M,001.5,N,002.9,K,A*25
$GPGSA,A,3,31,32,23,,,,,,,,,,2.64,2.44,1.00*03
$GPGSV,2,1,07,31,67,020,38,32,60,241,20,25,20,042,13,14,31,107,26*71
$GPGSV,2,2,07,20,37,295,14,29,13,078,20,23,15,303,25,,,,*45
$GPGST,205354.00,,522.95,488.34,073.7,022.81,022.16,021.93*42
$GPRMC,205354.00,A,3919.82645,N,08206.08085,W,001.5,162.0,050314,07.2,W,A*01
$PTNLRTF,V,A,334451,03,3,3919.82645,N,08206.08085,W,00229,+000.245,-000.756,-000.020,0,1*5E
$PTNLRBA,1,1*57
$GPZDA,205356.00,05,03,2014,,*60
$GPGGA,205356.00,3919.82667,N,08206.08024,W,1,04,1.99,00229,M,-033,M,,*55
$GPGLL,3919.82667,N,08206.08024,W,205356.00,A,A*71
$GPVTG,078.1,T,085.3,M,001.3,N,002.4,K,A*27
$GPGSA,A,3,31,32,14,23,,,,,,,,,2.78,1.99,1.95*04
$GPGSV,2,1,07,31,67,020,38,32,60,241,21,25,20,042,17,14,31,107,26*74
$GPGSV,2,2,07,20,37,295,19,29,13,078,19,23,15,303,29,,,,*4E
$GPGST,205356.00,,640.37,606.21,073.9,025.25,024.67,024.47*44
$GPRMC,205356.00,A,3919.82667,N,08206.08024,W,001.3,078.1,050314,07.2,W,A*05
$PTNLRTF,V,A,334452,04,3,3919.82667,N,08206.08024,W,00229,+000.659,+000.139,-000.018,0,1*5A
$PTNLRBA,1,1*57
$GPGGA,205357.00,3919.82734,N,08206.08007,W,1,05,1.96,00229,M,-033,M,,*5C
$GPGLL,3919.82734,N,08206.08007,W,205357.00,A,A*76
$GPVTG,032.4,T,039.6,M,001.5,N,002.7,K,A*2B
$GPGSA,A,3,31,32,14,20,23,,,,,,,,2.76,1.96,1.94*06
$GPGSV,2,1,07,31,67,020,39,32,60,241,18,25,20,042,17,14,31,107,27*7E
$GPGSV,2,2,07,20,37,295,16,29,13,078,21,23,15,303,28,,,,*4B
$GPGST,205357.00,,690.48,656.37,073.8,026.23,025.67,025.48*49
$GPRMC,205357.00,A,3919.82734,N,08206.08007,W,001.5,032.4,050314,07.2,W,A*0F
$PTNLRTF,V,A,334453,05,3,3919.82734,N,08206.08007,W,00229,+000.406,+000.639,-000.023,0,1*5B
$PTNLRBA,1,1*57
$GPZDA,205358.00,05,03,2014,,*6E
$GPGGA,205358.00,3919.82747,N,08206.07953,W,1,04,4.67,00229,M,-033,M,,*5A
$GPGLL,3919.82747,N,08206.07953,W,205358.00,A,A*7A
$GPVTG,024.5,T,031.7,M,001.1,N,002.0,K,A*27
$GPGSA,A,3,31,32,14,20,23,,,,,,,,2.76,1.96,1.94*06
$GPGSV,2,1,07,31,67,020,38,32,60,241,20,25,20,042,16,14,31,107,26*74
$GPGSV,2,2,07,20,37,295,18,29,13,078,19,23,15,303,28,,,,*4E
$GPGST,205358.00,,654.86,620.30,073.4,025.54,024.96,024.76*46
$GPRMC,205358.00,A,3919.82747,N,08206.07953,W,001.1,024.5,050314,07.2,W,A*01
$PTNLRTF,V,A,334455,05,3,3919.82747,N,08206.07953,W,00229,+000.227,+000.497,-000.011,0,1*5C
$PTNLRBA,1,1*57
$GPGGA,205400.00,3919.82757,N,08206.07981,W,1,05,1.96,00229,M,-033,M,,*54
$GPGLL,3919.82757,N,08206.07981,W,205400.00,A,A*7E
$GPVTG,334.5,T,341.7,M,000.6,N,001.2,K,A*26
$GPGSA,A,3,31,32,14,20,23,,,,,,,,2.76,1.96,1.94*06
$GPGSV,2,1,07,31,67,020,39,32,60,241,23,25,20,042,16,14,31,107,28*78
$GPGSV,2,2,07,20,37,295,19,29,13,078,08,23,15,303,27,,,,*40
$GPGST,205400.00,,647.19,613.47,073.0,025.38,024.83,024.64*41
$GPRMC,205400.00,A,3919.82757,N,08206.07981,W,000.6,334.5,050314,07.2,W,A*01
$PTNLRTF,V,A,334456,05,3,3919.82757,N,08206.07981,W,00229,-000.140,+000.293,+000.010,0,1*50
$PTNLRBA,1,1*57
$GPZDA,205401.00,05,03,2014,,*65
$GPGGA,205401.00,3919.82809,N,08206.07957,W,1,06,1.47,00229,M,-033,M,,*55
$GPVTG,011.2,T,018.4,M,001.6,N,002.9,K,A*20
$GPGSA,A,3,31,32,25,14,20,23,,,,,,,2.41,1.47,1.91*0C
$GPGSV,2,1,07,31,67,020,39,32,60,241,23,25,20,042,16,14,31,107,26*76
$GPGSV,2,2,07,20,37,295,22,29,13,078,19,23,15,303,29,,,,*46
$GPGST,205401.00,,605.21,571.96,073.0,024.54,023.98,023.78*4A
$GPRMC,205401.00,A,3919.82809,N,08206.07957,W,001.6,011.2,050314,07.2,W,A*0D
$PTNLRTF,V,A,334457,06,3,3919.82809,N,08206.07957,W,00229,+000.155,+000.788,-000.026,0,1*53
$PTNLRBA,1,1*57
$GPZDA,205402.00,05,03,2014,,*66
$GPGGA,205402.00,3919.82801,N,08206.07948,W,1,04,4.65,00229,M,-033,M,,*57
$GPGLL,3919.82801,N,08206.07948,W,205402.00,A,A*75
$GPVTG,287.7,T,294.9,M,000.7,N,001.3,K,A*2A
$GPGSA,A,3,31,14,20,23,,,,,,,,,5.38,4.65,2.71*0B
$GPGSV,2,1,07,31,67,020,38,32,60,241,21,25,20,042,15,14,31,107,28*78
$GPGSV,2,2,07,20,37,295,21,29,13,078,14,23,15,303,29,,,,*48
$GPGST,205402.00,,572.31,538.53,072.7,023.86,023.27,023.08*42
$GPRMC,205402.00,A,3919.82801,N,08206.07948,W,000.7,287.7,050314,07.2,W,A*00
$PTNLRTF,V,A,334458,04,3,3919.82801,N,08206.07948,W,00229,-000.352,+000.112,-000.005,0,1*5F
$PTNLRBA,1,1*57
$GPZDA,205403.00,05,03,2014,,*67
$GPGGA,205403.00,3919.82816,N,08206.07953,W,1,05,1.96,00229,M,-033,M,,*52
$GPGLL,3919.82816,N,08206.07953,W,205403.00,A,A*78
$GPVTG,316.3,T,323.5,M,000.3,N,000.6,K,A*26
$GPGSA,A,3,31,32,14,20,23,,,,,,,,2.76,1.95,1.95*04
$GPGSV,2,1,07,31,67,020,39,32,60,241,23,25,20,042,15,14,31,107,26*75
$GPGSV,2,2,07,20,37,295,22,29,13,078,15,23,15,303,28,,,,*4B
$GPGST,205403.00,,550.13,516.57,072.7,023.39,022.79,022.60*4A
$GPRMC,205403.00,A,3919.82816,N,08206.07953,W,000.3,316.3,050314,07.2,W,A*04
$PTNLRTF,V,A,334460,05,3,3919.82816,N,08206.07953,W,00229,-000.122,+000.128,-000.006,0,1*56
$PTNLRBA,1,1*57
$GPZDA,205405.00,05,03,2014,,*61
$GPGGA,205405.00,3919.82831,N,08206.07917,W,1,05,1.95,00229,M,-033,M,,*52
$GPGLL,3919.82831,N,08206.07917,W,205405.00,A,A*7B
$GPVTG,017.7,T,024.9,M,000.9,N,001.7,K,A*22
$GPGSA,A,3,31,32,14,20,23,,,,,,,,2.76,1.95,1.95*04
$GPGSV,2,1,07,31,67,020,39,32,60,241,23,25,20,042,18,14,31,107,26*78
$GPGSV,2,2,07,20,37,295,22,29,13,078,15,23,15,303,28,,,,*4B
$GPGST,205405.00,,524.23,491.09,072.8,022.83,022.23,022.04*4B
$GPRMC,205405.00,A,3919.82831,N,08206.07917,W,000.9,017.7,050314,07.2,W,A*0B
$PTNLRTF,V,A,334461,05,3,3919.82831,N,08206.07917,W,00229,+000.145,+000.453,-000.014,0,1*5F
$PTNLRBA,1,1*57
$GPGGA,205406.00,3919.82859,N,08206.07917,W,1,05,1.95,00229,M,-033,M,,*5F
$GPGLL,3919.82859,N,08206.07917,W,205406.00,A,A*76
$GPVTG,002.0,T,009.2,M,001.2,N,002.2,K,A*29
$GPGSA,A,3,31,32,14,20,23,,,,,,,,2.76,1.95,1.95*04
$GPGSV,2,1,07,31,67,020,39,32,60,241,22,25,20,042,16,14,31,107,27*76
$GPGSV,2,2,07,20,37,295,24,29,13,078,16,23,15,303,28,,,,*4E
$GPGST,205406.00,,503.45,470.56,072.7,022.37,021.76,021.57*4E
$GPRMC,205406.00,A,3919.82859,N,08206.07917,W,001.2,002.0,050314,07.2,W,A*0F
$PTNLRTF,V,A,334463,04,3,3919.82859,N,08206.07917,W,00229,+000.021,+000.612,+000.022,0,1*55
$PTNLRBA,1,1*57
$GPZDA,205408.00,05,03,2014,,*6C
$GPGGA,205407.00,3919.82886,N,08206.07921,W,1,04,4.64,00229,M,-033,M,,*53
$GPVTG,007.1,T,014.3,M,000.9,N,001.7,K,A*2C
$GPGSA,A,3,31,32,25,14,20,23,,,,,,,2.41,1.47,1.91*0C
$GPGSV,2,1,07,31,67,020,39,32,60,241,23,25,20,042,15,14,31,107,26*75
$GPGSV,2,2,07,20,37,295,24,29,13,078,16,23,15,303,27,,,,*41
$GPGST,205407.00,,486.20,452.69,072.7,021.98,021.35,021.16*48
$GPRMC,205407.00,A,3919.82886,N,08206.07921,W,000.9,007.1,050314,07.2,W,A*07
$PTNLRTF,V,A,334464,06,3,3919.82886,N,08206.07921,W,00229,+000.057,+000.455,-000.003,0,1*52
$PTNLRBA,1,1*57
$GPZDA,205409.00,05,03,2014,,*6D
$GPGGA,205409.00,3919.82769,N,08206.08046,W,1,06,1.47,00229,M,-033,M,,*52
$GPVTG,303.0,T,310.2,M,000.6,N,001.2,K,A*26
$GPGSA,A,3,31,32,25,14,20,23,,,,,,,2.41,1.47,1.91*0C
$GPGSV,2,1,07,31,67,020,39,32,60,241,24,25,20,042,15,14,31,107,26*72
$GPGSV,2,2,07,20,37,295,22,29,13,078,15,23,15,303,28,,,,*4B
$GPGST,205409.00,,540.50,508.08,072.8,023.19,022.60,022.43*47
$GPRMC,205409.00,A,3919.82769,N,08206.08046,W,000.6,303.0,050314,07.2,W,A*09
$PTNLRTF,V,A,334465,06,3,3919.82769,N,08206.08046,W,00229,-000.269,+000.174,-000.017,0,1*50
$PTNLRBA,1,1*57
$GPZDA,205410.00,05,03,2014,,*65
$GPGGA,205410.00,3919.82687,N,08206.08106,W,1,06,1.47,00229,M,-033,M,,*5E
$GPGLL,3919.82687,N,08206.08106,W,205410.00,A,A*7B
$GPVTG,306.1,T,313.3,M,000.5,N,001.0,K,A*21
$GPGSA,A,3,31,32,25,14,20,23,,,,,,,2.41,1.47,1.91*0C
$GPGSV,2,1,07,31,67,020,39,32,60,241,24,25,20,042,18,14,31,107,26*7F
$GPGSV,2,2,07,20,37,295,23,29,13,078,16,23,15,303,28,,,,*49
$GPGST,205410.00,,562.35,530.53,072.9,023.66,023.09,022.93*43
$GPRMC,205410.00,A,3919.82687,N,08206.08106,W,000.5,306.1,050314,07.2,W,A*02
$PTNLRTF,V,A,334466,06,3,3919.82687,N,08206.08106,W,00229,-000.218,+000.159,-000.016,0,1*5F
$PTNLRBA,1,1*57
$GPZDA,205411.00,05,03,2014,,*64
$GPGGA,205411.00,3919.82596,N,08206.08141,W,1,06,1.47,00229,M,-033,M,,*5F
$GPGLL,3919.82596,N,08206.08141,W,205411.00,A,A*7A
$GPVTG,177.7,T,184.9,M,000.8,N,001.5,K,A*2D
$GPGSA,A,3,31,32,25,14,20,23,,,,,,,2.41,1.47,1.91*0C
$GPGSV,2,1,07,31,67,020,39,32,60,241,24,25,20,042,16,14,31,107,27*70
$GPGSV,2,2,07,20,37,295,24,29,13,078,16,23,15,303,28,,,,*4E
$GPGST,205411.00,,560.74,529.19,073.0,023.62,023.06,022.91*42
$GPRMC,205411.00,A,3919.82596,N,08206.08141,W,000.8,177.7,050314,07.2,W,A*0C
$PTNLRTF,V,A,334468,06,3,3919.82596,N,08206.08141,W,00229,+000.016,-000.416,+000.057,0,1*50
$PTNLRBA,1,1*57
$GPGGA,205413.00,3919.82553,N,08206.08188,W,1,06,1.47,00229,M,-033,M,,*51
$GPGLL,3919.82553,N,08206.08188,W,205413.00,A,A*74
$GPVTG,275.2,T,282.4,M,000.8,N,001.5,K,A*21
$GPGSA,A,3,31,32,25,14,20,23,,,,,,,2.41,1.47,1.91*0C
$GPGSV,2,1,07,31,67,020,39,32,60,241,22,25,20,042,18,14,31,107,25*7A
$GPGSV,2,2,07,20,37,295,24,29,13,078,14,23,15,303,27,,,,*43
$GPGST,205413.00,,537.76,507.45,073.1,023.13,022.58,022.43*47
$GPRMC,205413.00,A,3919.82553,N,08206.08188,W,000.8,275.2,050314,07.2,W,A*06
$PTNLRTF,V,A,334469,06,3,3919.82553,N,08206.08188,W,00229,-000.407,+000.037,-000.006,0,1*5C
$PTNLRBA,1,1*57
$GPZDA,205414.00,05,03,2014,,*61
$GPGGA,205414.00,3919.82564,N,08206.08195,W,1,05,1.95,00229,M,-033,M,,*52
$GPVTG,338.8,T,346.0,M,000.5,N,001.0,K,A*26
$GPGSA,A,3,31,32,14,20,23,,,,,,,,2.76,1.95,1.95*04
$GPGSV,2,1,07,31,67,020,39,32,60,241,23,25,20,042,17,14,31,107,29*78
$GPGSV,2,2,07,20,37,295,24,29,13,078,17,23,15,303,27,,,,*40
$GPGST,205414.00,,511.73,481.98,073.0,022.57,022.01,021.86*48
$GPRMC,205414.00,A,3919.82564,N,08206.08195,W,000.5,338.8,050314,07.2,W,A*06
$PTNLRTF,V,A,334470,05,3,3919.82564,N,08206.08195,W,00229,-000.102,+000.264,-000.015,0,1*59
$PTNLRBA,1,1*57
$GPZDA,205415.00,05,03,2014,,*60
$GPGGA,205415.00,3919.82491,N,08206.08220,W,1,06,1.47,00229,M,-033,M,,*59
$GPGLL,3919.82491,N,08206.08220,W,205415.00,A,A*7C
$GPVTG,191.8,T,199.0,M,000.5,N,000.9,K,A*2F
$GPGSA,A,3,31,32,14,23,,,,,,,,,2.78,1.98,1.95*05
$GPGSV,2,1,07,31,67,020,38,32,60,241,22,25,20,042,19,14,31,107,27*78
$GPGSV,2,2,07,20,37,295,24,29,13,078,12,23,15,303,28,,,,*4A
$GPGST,205415.00,,536.35,506.89,073.1,023.11,022.57,022.43*4B
$GPRMC,205415.00,A,3919.82491,N,08206.08220,W,000.5,191.8,050314,07.2,W,A*00
$PTNLRTF,V,A,334472,04,3,3919.82491,N,08206.08220,W,00229,-000.053,-000.256,-000.011,0,1*5A
$PTNLRBA,1,1*57
$GPZDA,205417.00,05,03,2014,,*62
$GPGGA,205417.00,3919.82455,N,08206.08246,W,1,06,1.47,00229,M,-033,M,,*53
$GPGLL,3919.82455,N,08206.08246,W,205417.00,A,A*76
$GPVTG,000.3,T,007.5,M,000.3,N,000.6,K,A*27
$GPGSA,A,3,31,32,25,14,20,23,,,,,,,2.41,1.47,1.91*0C
$GPGSV,2,1,07,31,67,020,38,32,60,241,22,25,20,042,19,14,31,107,27*78
$GPGSV,2,2,07,20,37,295,26,29,13,078,13,23,15,303,27,,,,*46
$GPGST,205417.00,,539.84,511.39,073.0,023.18,022.67,022.53*4B
$GPRMC,205417.00,A,3919.82455,N,08206.08246,W,000.3,000.3,050314,07.2,W,A*0E
$PTNLRTF,V,A,334473,06,3,3919.82455,N,08206.08246,W,00229,+000.001,+000.168,-000.012,0,1*5B
$PTNLRBA,1,1*57
$GPGGA,205418.00,3919.82390,N,08206.08285,W,1,06,1.47,00229,M,-033,M,,*5D
$GPGLL,3919.82390,N,08206.08285,W,205418.00,A,A*78
$GPVTG,207.2,T,214.4,M,001.4,N,002.7,K,A*27
$GPGSA,A,3,31,32,25,14,20,23,,,,,,,2.41,1.47,1.91*0C
$GPGSV,2,1,07,31,67,020,39,32,60,241,22,25,20,042,15,14,31,107,27*75
$GPGSV,2,2,07,20,37,295,25,29,13,078,17,23,15,303,26,,,,*40
$GPGST,205418.00,,527.49,499.11,072.9,022.91,022.40,022.26*4E
$GPRMC,205418.00,A,3919.82390,N,08206.08285,W,001.4,207.2,050314,07.2,W,A*02
$PTNLRTF,V,A,334474,06,3,3919.82390,N,08206.08285,W,00229,-000.337,-000.655,+000.029,0,1*5C
$PTNLRBA,1,1*57
$GPZDA,205419.00,05,03,2014,,*6C
$GPGGA,205419.00,3919.82382,N,08206.08282,W,1,06,1.47,00230,M,-033,M,,*50
$GPVTG,180.6,T,187.8,M,000.5,N,000.9,K,A*26
$GPGSA,A,3,31,32,25,14,20,23,,,,,,,2.41,1.47,1.91*0C
$GPGSV,2,1,07,31,67,020,38,32,60,241,22,25,20,042,20,14,31,107,27*72
$GPGSV,2,2,07,20,37,295,26,29,13,078,13,23,15,303,26,,,,*47
$GPGST,205419.00,,518.92,490.78,072.9,022.73,022.21,022.07*4B
$GPRMC,205419.00,A,3919.82382,N,08206.08282,W,000.5,180.6,050314,07.2,W,A*0F
$PTNLRTF,V,A,334476,06,3,3919.82382,N,08206.08282,W,00230,-000.003,-000.249,-000.017,0,1*54
$PTNLRBA,1,1*57
$GPZDA,205420.00,05,03,2014,,*66
$GPGGA,205420.00,3919.82392,N,08206.08296,W,1,06,1.47,00229,M,-033,M,,*56
$GPGLL,3919.82392,N,08206.08296,W,205420.00,A,A*73
$GPVTG,276.5,T,283.7,M,000.3,N,000.5,K,A*2D
$GPGSA,A,3,31,32,14,20,23,,,,,,,,2.75,1.95,1.95*07
$GPGSV,2,1,07,31,67,020,39,32,60,241,20,25,20,042,19,14,31,107,27*7B
$GPGSV,2,2,07,20,37,295,27,29,13,078,16,23,15,303,28,,,,*4D
$GPGST,205420.00,,536.15,508.25,073.0,023.10,022.60,022.47*47
$GPRMC,205420.00,A,3919.82392,N,08206.08296,W,000.3,276.5,050314,07.2,W,A*0E
$PTNLRTF,V,A,334477,05,3,3919.82392,N,08206.08296,W,00229,-000.146,+000.017,-000.063,0,1*56
$PTNLRBA,1,1*57
$GPZDA,205422.00,05,03,2014,,*64
$GPGGA,205422.00,3919.82355,N,08206.08280,W,1,06,1.47,00230,M,-033,M,,*50
$GPGLL,3919.82355,N,08206.08280,W,205422.00,A,A*7D
$GPVTG,080.3,T,087.5,M,001.3,N,002.5,K,A*27
$GPGSA,A,3,31,32,25,14,20,23,,,,,,,2.41,1.47,1.91*0C
$GPGSV,2,1,07,31,67,020,39,32,60,241,23,25,20,042,20,14,31,107,27*72
$GPGSV,2,2,07,20,37,295,27,29,13,078,15,23,15,303,26,,,,*40
$GPGST,205422.00,,533.50,506.47,073.3,023.05,022.55,022.43*4E
$GPRMC,205422.00,A,3919.82355,N,08206.08280,W,001.3,080.3,050314,07.2,W,A*0C
$PTNLRTF,V,A,334478,06,3,3919.82355,N,08206.08280,W,00230,+000.671,+000.115,+000.003,0,1*58
$PTNLRBA,1,1*57
$GPGGA,205423.00,3919.82323,N,08206.08302,W,1,06,1.47,00230,M,-033,M,,*5B
$GPGLL,3919.82323,N,08206.08302,W,205423.00,A,A*76
$GPVTG,006.4,T,013.6,M,000.7,N,001.2,K,A*21
$GPGSA,A,3,31,32,25,14,20,23,,,,,,,2.41,1.47,1.91*0C
$GPGSV,2,1,07,31,67,020,39,32,60,241,21,25,20,042,21,14,31,107,28*7E
$GPGSV,2,2,07,20,37,295,25,29,13,078,17,23,15,303,26,,,,*40
$GPGST,205423.00,,561.25,534.75,073.2,023.64,023.17,023.05*48
$GPRMC,205423.00,A,3919.82323,N,08206.08302,W,000.7,006.4,050314,07.2,W,A*0B
$PTNLRTF,V,A,334479,06,3,3919.82323,N,08206.08302,W,00230,+000.038,+000.339,+000.019,0,1*5F
$PTNLRBA,1,1*57
$GPZDA,205424.00,05,03,2014,,*62
$GPGGA,205424.00,3919.82262,N,08206.08310,W,1,06,1.47,00230,M,-033,M,,*5B
$GPGLL,3919.82262,N,08206.08310,W,205424.00,A,A*76
$GPVTG,173.1,T,180.3,M,000.3,N,000.6,K,A*28
$GPGSA,A,3,31,32,25,14,20,23,,,,,,,2.41,1.47,1.91*0C
$GPGSV,2,1,07,31,67,021,39,32,60,241,20,25,20,042,19,14,31,107,26*7B
$GPGSV,2,2,07,20,38,295,27,29,13,078,19,23,15,303,27,,,,*42
$GPGST,205424.00,,561.66,535.23,073.4,023.65,023.18,023.07*40
$GPRMC,205424.00,A,3919.82262,N,08206.08310,W,000.3,173.1,050314,07.2,W,A*09
$PTNLRTF,V,A,334481,06,3,3919.82262,N,08206.08310,W,00230,+000.019,-000.156,+000.050,0,1*5C
$PTNLRBA,1,1*57
$GPGGA,205426.00,3919.82196,N,08206.08318,W,1,06,1.47,00230,M,-033,M,,*59
$GPGLL,3919.82196,N,08206.08318,W,205426.00,A,A*74
$GPVTG,106.7,T,113.9,M,000.6,N,001.1,K,A*2F
$GPGSA,A,3,31,32,25,14,20,23,,,,,,,2.41,1.47,1.91*0C
$GPGSV,2,1,07,31,67,021,39,32,60,241,22,25,20,042,22,14,31,107,26*71
$GPGSV,2,2,07,20,38,295,27,29,13,078,18,23,15,303,25,,,,*41
$GPGST,205426.00,,556.22,530.52,073.6,023.54,023.08,022.97*4C
$GPRMC,205426.00,A,3919.82196,N,08206.08318,W,000.6,106.7,050314,07.2,W,A*0A
$PTNLRTF,V,A,334482,06,3,3919.82196,N,08206.08318,W,00230,+000.305,-000.091,-000.010,0,1*59
$PTNLRBA,1,1*57
$GPZDA,205427.00,05,03,2014,,*61
$GPGGA,205427.00,3919.82160,N,08206.08332,W,1,06,1.47,00230,M,-033,M,,*59
$GPVTG,157.4,T,164.6,M,000.7,N,001.3,K,A*24
$GPGSA,A,3,31,32,25,14,20,23,,,,,,,2.41,1.47,1.91*0C
$GPGSV,2,1,07,31,67,021,40,32,60,241,22,25,20,042,20,14,31,107,27*7C
$GPGSV,2,2,07,20,38,295,26,29,13,078,00,23,15,303,26,,,,*4A
$GPGST,205427.00,,536.52,511.07,073.7,023.12,022.65,022.54*49
$GPRMC,205427.00,A,3919.82160,N,08206.08332,W,000.7,157.4,050314,07.2,W,A*0C
$PTNLRTF,V,A,334483,06,3,3919.82160,N,08206.08332,W,00230,+000.140,-000.336,+000.008,0,1*5B
$PTNLRBA,1,1*57
$GPZDA,205428.00,05,03,2014,,*6E
$GPGGA,205428.00,3919.82110,N,08206.08335,W,1,06,1.47,00230,M,-033,M,,*56
$GPGLL,3919.82110,N,08206.08335,W,205428.00,A,A*7B
$GPVTG,237.8,T,245.0,M,000.4,N,000.7,K,A*2D
$GPGSA,A,3,31,32,25,14,20,23,,,,,,,2.41,1.47,1.91*0C
$GPGSV,2,1,07,31,67,021,39,32,60,241,20,25,20,042,20,14,31,107,28*7F
$GPGSV,2,2,07,20,38,295,27,29,13,078,16,23,15,303,27,,,,*4D
$GPGST,205428.00,,522.90,497.99,073.8,022.82,022.36,022.25*42
$GPRMC,205428.00,A,3919.82110,N,08206.08335,W,000.4,237.8,050314,07.2,W,A*09
$PTNLRTF,V,A,334485,06,3,3919.82110,N,08206.08335,W,00230,-000.160,-000.100,+000.022,0,1*56
$PTNLRBA,1,1*57
$GPZDA,205430.00,05,03,2014,,*67
$GPGGA,205430.00,3919.82060,N,08206.08370,W,1,05,1.59,00230,M,-033,M,,*54
$GPGLL,3919.82060,N,08206.08370,W,205430.00,A,A*75
$GPVTG,207.3,T,214.5,M,001.1,N,002.0,K,A*25
$GPGSA,A,3,31,32,25,14,20,,,,,,,,3.07,1.59,2.62*0E
$GPGSV,2,1,07,31,67,021,39,32,60,241,21,25,20,042,18,14,31,107,27*7A
$GPGSV,2,2,07,20,38,295,26,29,13,078,17,23,15,303,25,,,,*4F
$GPGST,205430.00,,499.36,474.92,074.0,022.30,021.84,021.73*4C
$GPRMC,205430.00,A,3919.82060,N,08206.08370,W,001.1,207.3,050314,07.2,W,A*0B
$PTNLRTF,V,A,334486,05,3,3919.82060,N,08206.08370,W,00230,-000.254,-000.493,+000.016,0,1*5D
$PTNLRBA,1,1*57
$GPGGA,205431.00,3919.82029,N,08206.08392,W,1,06,1.47,00230,M,-033,M,,*58
$GPGLL,3919.82029,N,08206.08392,W,205431.00,A,A*75
$GPVTG,182.2,T,189.4,M,000.3,N,000.6,K,A*2B
$GPGSA,A,3,31,32,25,14,20,23,,,,,,,2.41,1.47,1.92*0F
$GPGSV,2,1,07,31,67,021,39,32,60,241,21,25,20,042,19,14,31,107,27*7B
$GPGSV,2,2,07,20,38,295,25,29,13,078,12,23,15,303,25,,,,*49
$GPGST,205431.00,,516.70,492.48,074.0,022.69,022.23,022.13*41
$GPRMC,205431.00,A,3919.82029,N,08206.08392,W,000.3,182.2,050314,07.2,W,A*07
$PTNLRTF,V,A,334487,06,3,3919.82029,N,08206.08392,W,00230,-000.006,-000.160,-000.020,0,1*51
$PTNLRBA,1,1*57
$GPZDA,205432.00,05,03,2014,,*65
$GPGGA,205432.00,3919.82004,N,08206.08408,W,1,06,1.47,00230,M,-033,M,,*50
$GPVTG,172.1,T,179.3,M,000.9,N,001.6,K,A*24
$GPGSA,A,3,31,32,25,14,20,23,,,,,,,2.41,1.47,1.92*0F
$GPGSV,2,1,07,31,67,021,39,32,60,241,22,25,20,042,20,14,31,107,27*72
$GPGSV,2,2,07,20,38,295,28,29,13,078,10,23,15,303,25,,,,*46
$GPGST,205432.00,,494.35,470.41,074.0,022.19,021.73,021.62*49
$GPRMC,205432.00,A,3919.82004,N,08206.08408,W,000.9,172.1,050314,07.2,W,A*09
$PTNLRTF,V,A,334489,06,3,3919.82004,N,08206.08408,W,00230,+000.062,-000.447,+000.032,0,1*55
$PTNLRBA,1,1*57
$GPZDA,205433.00,05,03,2014,,*64
$GPGGA,205433.00,3919.82014,N,08206.08440,W,1,06,1.47,00230,M,-033,M,,*5C
$GPGLL,3919.82014,N,08206.08440,W,205433.00,A,A*71
$GPVTG,291.1,T,298.2,M,000.5,N,000.9,K,A*25
$GPGSA,A,3,31,32,25,14,20,23,,,,,,,2.41,1.47,1.92*0F
$GPGSV,2,1,07,31,67,021,39,32,60,241,22,25,20,042,23,14,31,107,28*7E
$GPGSV,2,2,07,20,38,295,25,29,13,078,16,23,15,303,25,,,,*4D
$GPGST,205433.00,,481.03,457.45,074.1,021.89,021.43,021.32*45
$GPRMC,205433.00,A,3919.82014,N,08206.08440,W,000.5,291.1,050314,07.2,W,A*07
$PTNLRTF,V,A,334490,06,3,3919.82014,N,08206.08440,W,00230,-000.228,+000.088,-000.015,0,1*58
$PTNLRBA,1,1*57
$GPZDA,205435.00,05,03,2014,,*62
$GPGGA,205435.00,3919.81983,N,08206.08439,W,1,06,1.47,00230,M,-033,M,,*50
$GPGLL,3919.81983,N,08206.08439,W,205435.00,A,A*7D
$GPVTG,022.7,T,029.9,M,001.0,N,001.8,K,A*2E
$GPGSA,A,3,31,32,25,14,20,23,,,,,,,2.41,1.47,1.92*0F
$GPGSV,2,1,07,31,67,021,39,32,60,241,24,25,20,042,20,14,31,107,27*74
$GPGSV,2,2,07,20,38,295,25,29,13,078,19,23,15,303,26,,,,*41
$GPGST,205435.00,,483.23,460.39,074.3,021.94,021.50,021.39*4B
$GPRMC,205435.00,A,3919.81983,N,08206.08439,W,001.0,022.7,050314,07.2,W,A*03
$PTNLRTF,V,A,334491,06,3,3919.81983,N,08206.08439,W,00230,+000.196,+000.468,-000.026,0,1*59
$PTNLRBA,1,1*57
$GPGGA,205436.00,3919.81968,N,08206.08467,W,1,06,1.46,00230,M,-033,M,,*5C
$GPGLL,3919.81968,N,08206.08467,W,205436.00,A,A*70
$GPVTG,306.3,T,313.5,M,000.5,N,000.9,K,A*2D
$GPGSA,A,3,31,32,25,14,20,23,,,,,,,2.41,1.46,1.92*0E
$GPGSV,2,1,07,31,67,021,40,32,60,241,22,25,20,042,21,14,31,107,28*72
$GPGSV,2,2,07,20,38,295,25,29,13,078,18,23,15,303,25,,,,*43
$GPGST,205436.00,,468.40,445.72,074.2,021.60,021.15,021.05*44
$GPRMC,205436.00,A,3919.81968,N,08206.08467,W,000.5,306.3,050314,07.2,W,A*0B
$PTNLRTF,V,A,334492,06,3,3919.81968,N,08206.08467,W,00230,-000.195,+000.144,-000.022,0,1*5E
$PTNLRBA,1,1*57
$GPZDA,205437.00,05,03,2014,,*60
$GPGGA,205437.00,3919.81923,N,08206.08451,W,1,05,1.59,00230,M,-033,M,,*5A
$GPGLL,3919.81923,N,08206.08451,W,205437.00,A,A*7B
$GPVTG,099.2,T,106.4,M,000.7,N,001.3,K,A*27
$GPGSA,A,3,31,32,25,14,20,23,,,,,,,2.41,1.46,1.92*0E
$GPGSV,2,1,07,31,67,021,40,32,60,241,23,25,20,042,21,14,31,107,27*7C
$GPGSV,2,2,07,20,38,295,26,29,13,078,19,23,15,303,23,,,,*47
$GPGST,205437.00,,451.01,428.72,074.5,021.20,020.74,020.64*42
$GPRMC,205437.00,A,3919.81923,N,08206.08451,W,000.7,099.2,050314,07.2,W,A*06
$PTNLRTF,V,A,334494,06,3,3919.81923,N,08206.08451,W,00230,+000.354,-000.058,+000.008,0,1*5F
$PTNLRBA,1,1*57
$GPGGA,205439.00,3919.81901,N,08206.08489,W,1,06,1.46,00230,M,-033,M,,*5C
$GPGLL,3919.81901,N,08206.08489,W,205439.00,A,A*70
$GPVTG,038.2,T,045.4,M,000.1,N,000.2,K,A*2C
$GPGSA,A,3,31,32,25,14,20,23,,,,,,,2.41,1.46,1.92*0E
$GPGSV,2,1,07,31,67,021,39,32,60,241,24,25,20,042,19,14,31,107,27*7E
$GPGSV,2,2,07,20,38,295,27,29,13,078,19,23,15,303,22,,,,*47
$GPGST,205439.00,,418.34,396.78,074.6,020.42,019.96,019.85*4A
$GPRMC,205439.00,A,3919.81901,N,08206.08489,W,000.1,038.2,050314,07.2,W,A*00
$PTNLRTF,V,A,334495,06,3,3919.81901,N,08206.08489,W,00230,+000.036,+000.045,+000.007,0,1*59
$PTNLRBA,1,1*57
$GPZDA,205440.00,05,03,2014,,*60
$GPGGA,205440.00,3919.81907,N,08206.08488,W,1,06,1.46,00230,M,-033,M,,*55
$GPVTG,049.5,T,056.7,M,000.5,N,000.8,K,A*22
$GPGSA,A,3,31,32,25,14,20,23,,,,,,,2.41,1.46,1.92*0E
$GPGSV,2,1,07,31,67,021,40,32,60,241,24,25,20,042,21,14,31,107,28*74
$GPGSV,2,2,07,20,38,295,27,29,13,078,19,23,15,303,23,,,,*46
$GPGST,205440.00,,410.43,389.09,074.7,020.22,019.76,019.66*40
$GPRMC,205440.00,A,3919.81907,N,08206.08488,W,000.5,049.5,050314,07.2,W,A*0C
$PTNLRTF,V,A,334496,06,3,3919.81907,N,08206.08488,W,00230,+000.178,+000.153,-000.008,0,1*59
$PTNLRBA,1,1*57
$GPZDA,205441.00,05,03,2014,,*61
$GPGGA,205441.00,3919.81885,N,08206.08525,W,1,06,1.46,00230,M,-033,M,,*59
$GPGLL,3919.81885,N,08206.08525,W,205441.00,A,A*75
$GPVTG,301.9,T,309.1,M,000.7,N,001.3,K,A*26
$GPGSA,A,3,31,32,25,14,20,23,,,,,,,2.41,1.46,1.92*0E
$GPGSV,2,1,07,31,67,021,40,32,60,241,25,25,20,042,22,14,31,107,27*79
$GPGSV,2,2,07,20,38,295,27,29,13,078,20,23,15,303,24,,,,*4B
$GPGST,205441.00,,388.10,367.24,074.7,019.66,019.20,019.09*4E
$GPRMC,205441.00,A,3919.81885,N,08206.08525,W,000.7,301.9,050314,07.2,W,A*01
$PTNLRTF,V,A,334498,06,3,3919.81885,N,08206.08525,W,00230,-000.308,+000.191,+000.006,0,1*5F
$PTNLRBA,1,1*57
$GPZDA,205443.00,05,03,2014,,*63
$GPGGA,205443.00,3919.81884,N,08206.08494,W,1,06,1.46,00230,M,-033,M,,*51
$GPGLL,3919.81884,N,08206.08494,W,205443.00,A,A*7D
$GPVTG,069.0,T,076.2,M,001.4,N,002.6,K,A*2E
$GPGSA,A,3,31,32,25,14,20,23,,,,,,,2.41,1.46,1.92*0E
$GPGSV,2,1,07,31,67,021,40,32,60,241,25,25,20,042,23,14,31,107,28*77
$GPGSV,2,2,07,20,38,295,26,29,13,078,21,23,15,303,23,,,,*4C
$GPGST,205443.00,,358.23,338.24,074.9,018.89,018.43,018.32*48
$GPRMC,205443.00,A,3919.81884,N,08206.08494,W,001.4,069.0,050314,07.2,W,A*0F
$PTNLRTF,V,A,334499,06,3,3919.81884,N,08206.08494,W,00230,+000.683,+000.262,-000.024,0,1*5D
$PTNLRBA,1,1*57
$GPGGA,205444.00,3919.81940,N,08206.08483,W,1,06,1.46,00230,M,-033,M,,*59
$GPGLL,3919.81940,N,08206.08483,W,205444.00,A,A*75
$GPVTG,025.5,T,032.7,M,001.5,N,002.7,K,A*26
$GPGSA,A,3,31,32,25,14,20,23,,,,,,,2.41,1.46,1.92*0E
$GPGSV,2,1,07,31,67,021,40,32,60,241,26,25,20,042,22,14,31,107,26*7B
$GPGSV,2,2,07,20,38,295,27,29,13,078,20,23,15,303,22,,,,*4D
$GPGST,205444.00,,358.76,338.97,075.2,018.91,018.45,018.34*44
$GPRMC,205444.00,A,3919.81940,N,08206.08483,W,001.5,025.5,050314,07.2,W,A*0B
$PTNLRTF,V,A,334500,06,3,3919.81940,N,08206.08483,W,00230,+000.326,+000.684,-000.035,0,1*55
$PTNLRBA,1,1*57
$GPZDA,205445.00,05,03,2014,,*65
$GPGGA,205445.00,3919.81876,N,08206.08485,W,1,06,1.46,00230,M,-033,M,,*5A
$GPGLL,3919.81876,N,08206.08485,W,205445.00,A,A*76
$GPVTG,072.7,T,079.9,M,000.7,N,001.3,K,A*23
$GPGSA,A,3,31,32,25,14,20,23,,,,,,,2.41,1.46,1.92*0E
$GPGSV,2,1,07,31,67,021,40,32,60,241,27,25,20,042,21,14,31,107,27*78
$GPGSV,2,2,07,20,38,295,27,29,13,078,22,23,15,303,22,,,,*4F
$GPGST,205445.00,,355.39,335.65,075.4,018.82,018.35,018.25*40
$GPRMC,205445.00,A,3919.81876,N,08206.08485,W,000.7,072.7,050314,07.2,W,A*0B
$PTNLRTF,V,A,334502,06,3,3919.81876,N,08206.08485,W,00230,+000.350,+000.109,+000.035,0,1*50
$PTNLRBA,1,1*57
$GPZDA,205447.00,05,03,2014,,*67
$GPGGA,205447.00,3919.81816,N,08206.08558,W,1,06,1.46,00230,M,-033,M,,*5F
$GPGLL,3919.81816,N,08206.08558,W,205447.00,A,A*73
$GPVTG,274.1,T,281.3,M,000.8,N,001.5,K,A*27
$GPGSA,A,3,31,32,25,14,20,23,,,,,,,2.41,1.46,1.92*0E
$GPGSV,2,1,07,31,67,021,40,32,60,241,28,25,20,042,21,14,31,107,27*77
$GPGSV,2,2,07,20,38,295,27,29,13,078,22,23,15,303,23,,,,*4E
$GPGST,205447.00,,329.41,310.74,075.7,018.12,017.66,017.55*4A
$GPRMC,205447.00,A,3919.81816,N,08206.08558,W,000.8,274.1,050314,07.2,W,A*03
$PTNLRTF,V,A,334503,06,3,3919.81816,N,08206.08558,W,00230,-000.416,+000.030,-000.002,0,1*5C
$PTNLRBA,1,1*57
$GPGGA,205448.00,3919.81810,N,08206.08557,W,1,06,1.46,00230,M,-033,M,,*59
$GPGLL,3919.81810,N,08206.08557,W,205448.00,A,A*75
$GPVTG,358.8,T,006.0,M,000.7,N,001.2,K,A*27
$GPGSA,A,3,31,32,25,14,20,23,,,,,,,2.41,1.46,1.92*0E
$GPGSV,2,1,07,31,67,021,40,32,60,241,28,25,20,042,24,14,31,107,28*7D
$GPGSV,2,2,07,20,38,295,26,29,13,078,22,23,15,303,22,,,,*4E
$GPGST,205448.00,,308.64,290.53,075.9,017.54,017.08,016.97*49
$GPRMC,205448.00,A,3919.81810,N,08206.08557,W,000.7,358.8,050314,07.2,W,A*0C
$PTNLRTF,V,A,334504,06,3,3919.81810,N,08206.08557,W,00230,-000.007,+000.345,+000.011,0,1*53
$PTNLRBA,1,1*57
$GPZDA,205449.00,05,03,2014,,*69
$GPGGA,205449.00,3919.81786,N,08206.08570,W,1,06,1.46,00230,M,-033,M,,*5D
$GPGLL,3919.81786,N,08206.08570,W,205449.00,A,A*71
$GPVTG,065.1,T,072.3,M,000.5,N,000.8,K,A*2A
$GPGSA,A,3,31,32,25,14,20,,,,,,,,3.06,1.59,2.62*0F
$GPGSV,2,1,07,31,67,021,40,32,60,241,28,25,20,042,21,14,31,107,27*77
$GPGSV,2,2,07,20,38,295,28,29,13,078,18,23,15,303,22,,,,*49
$GPGST,205449.00,,302.42,284.65,076.2,017.36,016.90,016.80*4C
$GPRMC,205449.00,A,3919.81786,N,08206.08570,W,000.5,065.1,050314,07.2,W,A*0E
$PTNLRTF,V,A,334506,05,3,3919.81786,N,08206.08570,W,00230,+000.211,+000.098,+000.009,0,1*5E
$PTNLRBA,1,1*57
$GPZDA,205451.00,05,03,2014,,*60
$GPGGA,205451.00,3919.81747,N,08206.08627,W,1,06,1.46,00230,M,-033,M,,*58
$GPGLL,3919.81747,N,08206.08627,W,205451.00,A,A*74
$GPVTG,300.5,T,307.7,M,000.3,N,000.5,K,A*20
$GPGSA,A,3,31,32,25,14,20,23,,,,,,,2.41,1.46,1.92*0E
$GPGSV,2,1,07,31,67,021,40,32,60,241,28,25,20,042,24,14,31,107,28*7D
$GPGSV,2,2,07,20,38,295,27,29,13,078,19,23,15,303,23,,,,*46
$GPGST,205451.00,,272.05,255.28,076.8,016.47,016.00,015.90*43
$GPRMC,205451.00,A,3919.81747,N,08206.08627,W,000.3,300.5,050314,07.2,W,A*09
$PTNLRTF,V,A,334507,06,3,3919.81747,N,08206.08627,W,00230,-000.127,+000.075,-000.009,0,1*55
$PTNLRBA,1,1*57
$GPGGA,205452.00,3919.81725,N,08206.08629,W,1,06,1.46,00230,M,-033,M,,*51
$GPGLL,3919.81725,N,08206.08629,W,205452.00,A,A*7D
$GPVTG,149.5,T,156.7,M,000.0,N,000.0,K,A*2F
$GPGSA,A,3,31,32,25,14,20,23,,,,,,,2.41,1.46,1.92*0E
$GPGSV,2,1,07,31,67,021,40,32,60,241,28,25,20,042,21,14,31,107,27*77
$GPGSV,2,2,07,20,38,295,27,29,13,078,18,23,15,303,22,,,,*46
$GPGST,205452.00,,266.42,250.04,077.1,016.30,015.84,015.73*47
$GPRMC,205452.00,A,3919.81725,N,08206.08629,W,000.0,149.5,050314,07.2,W,A*0C
$PTNLRTF,V,A,334508,06,3,3919.81725,N,08206.08629,W,00230,+000.006,-000.009,-000.013,0,1*52
$PTNLRBA,1,1*57
$GPZDA,205453.00,05,03,2014,,*62
$GPGGA,205453.00,3919.81735,N,08206.08629,W,1,06,1.46,00230,M,-033,M,,*51
$GPGLL,3919.81735,N,08206.08629,W,205453.00,A,A*7D
$GPVTG,018.2,T,025.4,M,000.5,N,001.0,K,A*2F
$GPGSA,A,3,31,32,25,14,20,23,,,,,,,2.41,1.46,1.92*0E
$GPGSV,2,1,07,31,67,021,41,32,60,241,27,25,20,042,22,14,31,107,28*75
$GPGSV,2,2,07,20,38,295,29,29,13,078,19,23,15,303,20,,,,*4B
$GPGST,205453.00,,256.66,240.71,077.4,016.00,015.54,015.44*4F
$GPRMC,205453.00,A,3919.81735,N,08206.08629,W,000.5,018.2,050314,07.2,W,A*0B
$PTNLRTF,V,A,334510,06,3,3919.81735,N,08206.08629,W,00230,+000.085,+000.257,+000.007,0,1*5D
$PTNLRBA,1,1*57
$GPGGA,205455.00,3919.81666,N,08206.08642,W,1,06,1.46,00230,M,-033,M,,*5D
$GPGLL,3919.81666,N,08206.08642,W,205455.00,A,A*71
$GPVTG,039.9,T,047.1,M,000.2,N,000.5,K,A*25
$GPGSA,A,3,31,32,25,14,20,23,,,,,,,2.41,1.46,1.92*0E
$GPGSV,2,1,07,31,67,021,41,32,60,241,28,25,20,042,21,14,31,107,28*79
$GPGSV,2,2,07,20,38,295,28,29,13,078,20,23,15,303,24,,,,*44
$GPGST,205455.00,,241.59,226.06,077.7,015.52,015.06,014.96*4D
$GPRMC,205455.00,A,3919.81666,N,08206.08642,W,000.2,039.9,050314,07.2,W,A*08
$PTNLRTF,V,A,334511,06,3,3919.81666,N,08206.08642,W,00230,+000.081,+000.097,-000.006,0,1*5B
$PTNLRBA,1,1*57
$GPZDA,205456.00,05,03,2014,,*67
$GPGGA,205456.00,3919.81667,N,08206.08647,W,1,06,1.46,00230,M,-033,M,,*5A
$GPVTG,359.8,T,007.0,M,000.3,N,000.6,K,A*26
$GPGSA,A,3,31,32,25,14,20,23,,,,,,,2.41,1.46,1.92*0E
$GPGSV,2,1,07,31,67,021,40,32,60,241,29,25,20,042,23,14,31,107,27*74
$GPGSV,2,2,07,20,38,295,28,29,13,078,20,23,15,303,21,,,,*41
$GPGST,205456.00,,223.93,208.77,077.9,014.94,014.47,014.37*4C
$GPRMC,205456.00,A,3919.81667,N,08206.08647,W,000.3,359.8,050314,07.2,W,A*0A
$PTNLRTF,V,A,334512,06,3,3919.81667,N,08206.08647,W,00230,-000.000,+000.157,-000.023,0,1*59
$PTNLRBA,1,1*57
$GPZDA,205457.00,05,03,2014,,*66
$GPGGA,205457.00,3919.81682,N,08206.08645,W,1,06,1.46,00231,M,-033,M,,*53
$GPGLL,3919.81682,N,08206.08645,W,205457.00,A,A*7E
$GPVTG,018.2,T,025.4,M,000.6,N,001.1,K,A*2D
$GPGSA,A,3,31,32,25,14,20,23,,,,,,,2.41,1.46,1.92*0E
$GPGSV,2,1,07,31,67,021,41,32,60,241,29,25,20,042,23,14,31,107,27*75
$GPGSV,2,2,07,20,38,295,30,29,13,078,19,23,15,303,22,,,,*41
$GPGST,205457.00,,209.77,195.13,078.4,014.46,013.99,013.89*41
$GPRMC,205457.00,A,3919.81682,N,08206.08645,W,000.6,018.2,050314,07.2,W,A*0B
$PTNLRTF,V,A,334514,06,3,3919.81682,N,08206.08645,W,00231,+000.095,+000.288,-000.019,0,1*55
$PTNLRBA,1,1*57
$GPZDA,205459.00,05,03,2014,,*68
$GPGGA,205459.00,3919.81641,N,08206.08666,W,1,06,1.46,00231,M,-033,M,,*53
$GPGLL,3919.81641,N,08206.08666,W,205459.00,A,A*7E
$GPVTG,333.1,T,340.3,M,001.0,N,001.8,K,A*2D
$GPGSA,A,3,31,32,25,14,20,23,,,,,,,2.41,1.46,1.92*0E
$GPGSV,2,1,07,31,67,021,41,32,60,240,28,25,20,042,24,14,31,107,26*73
$GPGSV,2,2,07,20,38,295,29,29,13,077,20,23,15,304,24,,,,*4D
$GPGST,205459.00,,206.80,192.69,079.2,014.36,013.90,013.80*42
$GPRMC,205459.00,A,3919.81641,N,08206.08666,W,001.0,333.1,050314,07.2,W,A*05
$PTNLRTF,V,A,334515,06,3,3919.81641,N,08206.08666,W,00231,-000.229,+000.451,-000.003,0,1*50
$PTNLRBA,1,1*57
$GPGGA,205500.00,3919.81622,N,08206.08646,W,1,06,1.46,00231,M,-033,M,,*59
$GPGLL,3919.81622,N,08206.08646,W,205500.00,A,A*74
$GPVTG,074.0,T,081.2,M,000.4,N,000.8,K,A*27
$GPGSA,A,3,31,32,25,14,20,23,,,,,,,2.41,1.46,1.92*0E
$GPGSV,2,1,07,31,67,021,41,32,60,240,29,25,20,042,22,14,31,107,28*7A
$GPGSV,2,2,07,20,38,295,28,29,13,077,20,23,15,304,22,,,,*4A
$GPGST,205500.00,,196.73,182.91,079.7,014.01,013.54,013.45*4F
$GPRMC,205500.00,A,3919.81622,N,08206.08646,W,000.4,074.0,050314,07.2,W,A*0B
$PTNLRTF,V,A,334516,06,3,3919.81622,N,08206.08646,W,00231,+000.217,+000.062,-000.000,0,1*58
$PTNLRBA,1,1*57
