$GPZDA,025343.00,07,02,2014,,*67
$GPGGA,025343.00,3917.26415,N,08203.79826,W,1,11,0.90,00292,M,-033,M,,*53
$GPGLL,3917.26415,N,08203.79826,W,025343.00,A,A*7B
$GPVTG,000.0,T,007.2,M,000.0,N,000.0,K,A*26
$GPGSA,A,3,09,08,07,23,13,19,16,11,03,06,27,,1.56,0.90,1.27*07
$GPGSV,3,1,11,09,08,306,26,08,14,304,37,07,45,313,33,23,39,193,38*79
$GPGSV,3,2,11,13,60,239,40,19,61,154,34,16,38,053,38,11,14,166,32*7C
$GPGSV,3,3,11,03,72,090,26,06,47,057,40,27,57,067,47,,,,*44
$GPGST,025343.00,,207.46,207.31,046.0,014.40,014.40,014.43*4A
$GPRMC,025343.00,A,3917.26415,N,08203.79826,W,000.0,000.0,070214,0$GPZDA,025345.00,07,02,2014,,*61
$GPGGA,025345.00,3917.26415,N,08203.79827,W,1,11,0.90,00292,M,-033,M,,*54
$GPGLL,3917.26415,N,08203.79827,W,025345.00,A,A*7C
$GPVTG,000.0,T,007.2,M,000.0,N,000.0,K,A*26
$GPGSA,A,3,09,08,07,23,13,19,16,11,03,06,27,,1.56,0.90,1.27*07
$GPGSV,3,1,11,09,08,306,20,08,14,304,37,07,45,313,34,23,39,193,38*78
$GPGSV,3,2,11,13,60,239,38,19,61,154,33,16,38,053,38,11,14,166,32*74
$GPGSV,3,3,11,03,72,090,31,06,47,057,39,27,57,067,48,,,,*43
$GPGST,025345.00,,191.06,190.92,046.0,013.82,013.82,013.85*4D
$GPRMC,025345.00,A,3917.26415,N,08203.79827,W,000.0,000.0,070214,07.2,W,A*07
$PTNLRTF,V,A,442441,11,3,3917.26415,N,08203.79827,W,00292,+000.000,+000.000,+000.000,0,1*5B
$PTNLRBA,1,1*57
$GPZDA,025346.00,07,02,2014,,*62
$GPGGA,025346.00,3917.26417,N,08203.79828,W,1,11,0.90,00292,M,-033,M,,*5A
$GPGLL,3917.26417,N,08203.79828,W,025346.00,A,A*72
$GPVTG,000.0,T,007.2,M,000.0,N,000.0,K,A*26
$GPGSA,A,3,09,08,07,23,13,19,16,11,03,06,27,,1.56,0.90,1.27*07
$GPGSV,3,1,11,09,08,306,22,08,14,304,37,07,45,313,35,23,39,193,38*7B
$GPGSV,3,2,11,13,60,239,38,19,61,154,33,16,38,053,39,11,14,166,33*74
$GPGSV,3,3,11,03,72,090,31,06,47,057,38,27,57,067,48,,,,*42
$GPGST,025346.00,,191.55,191.41,046.0,013.84,013.84,013.87*45
$GPRMC,025346.00,A,3917.26417,N,08203.79828,W,000.0,000.0,070214,07.2,W,A*09
$PTNLRTF,V,A,442442,11,3,3917.26417,N,08203.79828,W,00292,+000.000,+000.000,+000.000,0,1*55
$PTNLRBA,1,1*57
$GPZDA,025348.00,07,02,2014,,*6C
$GPGGA,025348.00,3917.26419,N,08203.79826,W,1,11,0.90,00292,M,-033,M,,*54
$GPGLL,3917.26419,N,08203.79826,W,025348.00,A,A*7C
$GPVTG,000.0,T,007.2,M,000.0,N,000.0,K,A*26
$GPGSA,A,3,09,08,07,23,13,19,16,11,03,06,27,,1.56,0.90,1.27*07
$GPGSV,3,1,11,09,08,306,17,08,14,304,37,07,45,313,35,23,39,193,39*7C
$GPGSV,3,2,11,13,60,239,37,19,61,154,33,16,38,053,38,11,14,166,34*7D
$GPGSV,3,3,11,03,72,090,33,06,47,057,38,27,57,067,47,,,,*4F
$GPGST,025348.00,,184.59,184.45,046.0,013.58,013.58,013.62*48
$GPRMC,025348.00,A,3917.26419,N,08203.79826,W,000.0,000.0,070214,07.2,W,A*07
$PTNLRTF,V,A,442444,11,3,3917.26419,N,08203.79826,W,00292,+000.000,+000.000,+000.000,0,1*53
$PTNLRBA,1,1*57
$GPZDA,025349.00,07,02,2014,,*6D
$GPGGA,025349.00,3917.26421,N,08203.79825,W,1,10,0.94,00292,M,-033,M,,*58
$GPGLL,3917.26421,N,08203.79825,W,025349.00,A,A*75
$GPVTG,000.0,T,007.2,M,000.0,N,000.0,K,A*26
$GPGSA,A,3,08,07,23,13,19,16,11,03,06,27,,,1.69,0.94,1.41*06
$GPGSV,3,1,11,09,08,306,19,08,14,304,38,07,45,313,35,23,39,193,39*7D
$GPGSV,3,2,11,13,60,239,37,19,61,154,33,16,38,053,37,11,14,166,34*72
$GPGSV,3,3,11,03,72,090,31,06,47,057,37,27,57,067,47,,,,*42
$GPGST,025349.00,,186.93,186.80,046.0,013.67,013.67,013.70*45
$GPRMC,025349.00,A,3917.26421,N,08203.79825,W,000.0,000.0,070214,07.2,W,A*0E
$PTNLRTF,V,A,442445,10,3,3917.26421,N,08203.79825,W,00292,+000.000,+000.000,+000.000,0,1*5B
$PTNLRBA,1,1*57
$GPZDA,025351.00,07,02,2014,,*64
$GPGGA,025351.00,3917.26424,N,08203.79822,W,1,11,0.90,00292,M,-033,M,,*56
$GPGLL,3917.26424,N,08203.79822,W,025351.00,A,A*7E
$GPVTG,000.0,T,007.2,M,000.0,N,000.0,K,A*26
$GPGSA,A,3,09,08,07,23,13,19,16,11,03,06,27,,1.56,0.90,1.27*07
$GPGSV,3,1,11,09,08,306,20,08,14,304,38,07,45,313,36,23,39,193,39*74
$GPGSV,3,2,11,13,60,239,38,19,61,154,33,16,38,053,39,11,14,166,34*73
$GPGSV,3,3,11,03,72,090,30,06,47,057,37,27,57,067,47,,,,*43
$GPGST,025351.00,,202.54,202.41,045.9,014.23,014.23,014.26*44
$GPRMC,025351.00,A,3917.26424,N,08203.79822,W,000.0,000.0,070214,07.2,W,A*05
$PTNLRTF,V,A,442447,11,3,3917.26424,N,08203.79822,W,00292,+000.000,+000.000,+000.000,0,1*5A
$PTNLRBA,1,1*57
$GPZDA,025352.00,07,02,2014,,*67
$GPGGA,025352.00,3917.26425,N,08203.79821,W,1,11,0.90,00292,M,-033,M,,*57
$GPGLL,3917.26425,N,08203.79821,W,025352.00,A,A*7F
$GPVTG,000.0,T,007.2,M,000.0,N,000.0,K,A*26
$GPGSA,A,3,09,08,07,23,13,19,16,11,03,06,27,,1.56,0.90,1.27*07
$GPGSV,3,1,11,09,08,306,19,08,14,304,38,07,45,313,36,23,39,193,38*7F
$GPGSV,3,2,11,13,60,239,38,19,61,154,32,16,38,053,39,11,14,166,34*72
$GPGSV,3,3,11,03,72,090,30,06,47,057,37,27,57,067,47,,,,*43
$GPGST,025352.00,,219.59,219.46,045.9,014.82,014.82,014.85*44
$GPRMC,025352.00,A,3917.26425,N,08203.79821,W,000.0,000.0,070214,07.2,W,A*04
$PTNLRTF,V,A,442448,11,3,3917.26425,N,08203.79821,W,00292,+000.000,+000.000,+000.000,0,1*57
$PTNLRBA,1,1*57
$GPZDA,025354.00,07,02,2014,,*61
$GPGGA,025354.00,3917.26425,N,08203.79818,W,1,11,0.90,00292,M,-033,M,,*5B
$GPGLL,3917.26425,N,08203.79818,W,025354.00,A,A*73
$GPVTG,000.0,T,007.2,M,000.0,N,000.0,K,A*26
$GPGSA,A,3,09,08,07,23,13,19,16,11,03,06,27,,1.56,0.90,1.27*07
$GPGSV,3,1,11,09,08,306,21,08,14,304,38,07,45,313,37,23,39,193,39*74
$GPGSV,3,2,11,13,60,239,38,19,61,154,32,16,38,053,39,11,14,166,34*72
$GPGSV,3,3,11,03,72,090,30,06,47,057,38,27,57,067,47,,,,*4C
$GPGST,025354.00,,223.56,223.43,045.8,014.95,014.95,014.98*45
$GPRMC,025354.00,A,3917.26425,N,08203.79818,W,000.0,000.0,070214,07.2,W,A*08
$PTNLRTF,V,A,442450,11,3,3917.26425,N,08203.79818,W,00292,+000.000,+000.000,+000.000,0,1*54
$PTNLRBA,1,1*57
$GPZDA,025355.00,07,02,2014,,*60
$GPGGA,025355.00,3917.26426,N,08203.79818,W,1,11,0.90,00292,M,-033,M,,*59
$GPGLL,3917.26426,N,08203.79818,W,025355.00,A,A*71
$GPVTG,000.0,T,007.2,M,000.0,N,000.0,K,A*26
$GPGSA,A,3,09,08,07,23,13,19,16,11,03,06,27,,1.56,0.90,1.27*07
$GPGSV,3,1,11,09,08,306,22,08,14,304,38,07,45,313,37,23,39,193,39*77
$GPGSV,3,2,11,13,60,239,38,19,61,154,33,16,38,053,39,11,14,166,35*72
$GPGSV,3,3,11,03,72,090,30,06,47,057,38,27,57,067,47,,,,*4C
$GPGST,025355.00,,223.48,223.36,045.7,014.95,014.95,014.98*46
$GPRMC,025355.00,A,3917.26426,N,08203.79818,W,000.0,000.0,070214,07.2,W,A*0A
$PTNLRTF,V,A,442451,11,3,3917.26426,N,08203.79818,W,00292,+000.000,+000.000,+000.000,0,1*56
$PTNLRBA,1,1*57
$GPZDA,025357.00,07,02,2014,,*62
$GPGGA,025357.00,3917.26430,N,08203.79815,W,1,11,0.90,00292,M,-033,M,,*51
$GPGLL,3917.26430,N,08203.79815,W,025357.00,A,A*79
$GPVTG,000.0,T,007.2,M,000.0,N,000.0,K,A*26
$GPGSA,A,3,09,08,07,23,13,19,16,11,03,06,27,,1.56,0.90,1.27*07
$GPGSV,3,1,11,09,08,306,23,08,14,304,38,07,45,313,37,23,39,193,40*78
$GPGSV,3,2,11,13,60,239,38,19,61,154,33,16,38,053,40,11,14,166,35*7C
$GPGSV,3,3,11,03,72,090,31,06,47,057,38,27,57,067,47,,,,*4D
$GPGST,025357.00,,232.90,232.78,045.7,015.26,015.26,015.29*40
$GPRMC,025357.00,A,3917.26430,N,08203.79815,W,000.0,000.0,070214,07.2,W,A*02
$PTNLRTF,V,A,442453,11,3,3917.26430,N,08203.79815,W,00292,+000.000,+000.000,+000.000,0,1*5E
$PTNLRBA,1,1*57
$GPZDA,025358.00,07,02,2014,,*6D
$GPGGA,025358.00,3917.26431,N,08203.79815,W,1,11,0.90,00292,M,-033,M,,*5F
$GPGLL,3917.26431,N,08203.79815,W,025358.00,A,A*77
$GPVTG,000.0,T,007.2,M,000.0,N,000.0,K,A*26
$GPGSA,A,3,09,08,07,23,13,19,16,11,03,06,27,,1.56,0.90,1.27*07
$GPGSV,3,1,11,09,08,306,24,08,14,304,38,07,45,313,37,23,39,193,40*7F
$GPGSV,3,2,11,13,60,239,39,19,61,154,32,16,38,053,39,11,14,166,35*72
$GPGSV,3,3,11,03,72,090,31,06,47,057,37,27,57,067,47,,,,*42
$GPGST,025358.00,,223.23,223.12,045.6,014.94,014.94,014.97*4E
$GPRMC,025358.00,A,3917.26431,N,08203.79815,W,000.0,000.0,070214,07.2,W,A*0C
$PTNLRTF,V,A,442454,11,3,3917.26431,N,08203.79815,W,00292,+000.000,+000.000,+000.000,0,1*58
$PTNLRBA,1,1*57
$GPZDA,025400.00,07,02,2014,,*67
$GPGGA,025400.00,3917.26433,N,08203.79813,W,1,10,0.94,00292,M,-033,M,,*54
$GPGLL,3917.26433,N,08203.79813,W,025400.00,A,A*79
$GPVTG,000.0,T,007.2,M,000.0,N,000.0,K,A*26
$GPGSA,A,3,08,07,23,13,19,16,11,03,06,27,,,1.69,0.94,1.41*06
$GPGSV,3,1,11,09,08,306,25,08,14,304,37,07,45,313,37,23,39,193,38*7E
$GPGSV,3,2,11,13,60,239,39,19,61,154,32,16,38,053,39,11,14,166,35*72
$GPGSV,3,3,11,03,72,090,31,06,47,057,38,27,57,067,47,,,,*4D
$GPGST,025400.00,,210.13,210.02,045.4,014.49,014.49,014.52*4D
$GPRMC,025400.00,A,3917.26433,N,08203.79813,W,000.0,000.0,070214,07.2,W,A*02
$PTNLRTF,V,A,442456,10,3,3917.26433,N,08203.79813,W,00292,+000.000,+000.000,+000.000,0,1*5F
$PTNLRBA,1,1*57
$GPZDA,025401.00,07,02,2014,,*66
$GPGGA,025401.00,3917.26433,N,08203.79811,W,1,10,0.94,00292,M,-033,M,,*57
$GPGLL,3917.26433,N,08203.79811,W,025401.00,A,A*7A
$GPVTG,000.0,T,007.2,M,000.0,N,000.0,K,A*26
$GPGSA,A,3,08,07,23,13,19,16,11,03,06,27,,,1.69,0.94,1.41*06
$GPGSV,3,1,11,09,08,306,26,08,14,304,37,07,45,313,37,23,39,193,39*7C
$GPGSV,3,2,11,13,60,239,38,19,61,154,33,16,38,053,39,11,14,166,35*72
$GPGSV,3,3,11,03,72,090,31,06,47,057,38,27,57,067,47,,,,*4D
$GPGST,025401.00,,203.36,203.25,045.3,014.26,014.26,014.29*45
$GPRMC,025401.00,A,3917.26433,N,08203.79811,W,000.0,000.0,070214,07.2,W,A*01
$PTNLRTF,V,A,442457,10,3,3917.26433,N,08203.79811,W,00292,+000.000,+000.000,+000.000,0,1*5C
$PTNLRBA,1,1*57
$GPZDA,025403.00,07,02,2014,,*64
$GPGGA,025403.00,3917.26434,N,08203.79811,W,1,11,0.90,00292,M,-033,M,,*57
$GPGLL,3917.26434,N,08203.79811,W,025403.00,A,A*7F
$GPVTG,000.0,T,007.2,M,000.0,N,000.0,K,A*26
$GPGSA,A,3,09,08,07,23,13,19,16,11,03,06,27,,1.56,0.90,1.27*07
$GPGSV,3,1,11,09,08,306,25,08,14,304,37,07,45,313,38,23,39,193,39*70
$GPGSV,3,2,11,13,60,239,37,19,61,154,32,16,38,053,38,11,14,166,35*7D
$GPGSV,3,3,11,03,72,090,31,06,47,057,37,27,57,067,47,,,,*42
$GPGST,025403.00,,195.33,195.22,045.2,013.97,013.97,014.00*4F
$GPRMC,025403.00,A,3917.26434,N,08203.79811,W,000.0,000.0,070214,07.2,W,A*04
$PTNLRTF,V,A,442459,11,3,3917.26434,N,08203.79811,W,00292,+000.000,+000.000,+000.000,0,1*54
$PTNLRBA,1,1*57
$GPZDA,025404.00,07,02,2014,,*63
$GPGGA,025404.00,3917.26434,N,08203.79813,W,1,11,0.90,00292,M,-033,M,,*52
$GPGLL,3917.26434,N,08203.79813,W,025404.00,A,A*7A
$GPVTG,000.0,T,007.2,M,000.0,N,000.0,K,A*26
$GPGSA,A,3,09,08,07,23,13,19,16,11,03,06,27,,1.56,0.90,1.27*07
$GPGSV,3,1,11,09,08,306,29,08,14,304,37,07,45,313,37,23,39,193,38*72
$GPGSV,3,2,11,13,60,239,37,19,61,154,33,16,38,053,39,11,14,166,34*7C
$GPGSV,3,3,11,03,72,090,29,06,47,057,38,27,57,067,47,,,,*44
$GPGST,025404.00,,195.09,194.98,045.2,013.97,013.97,013.99*46
$GPRMC,025404.00,A,3917.26434,N,08203.79813,W,000.0,000.0,070214,07.2,W,A*01
$PTNLRTF,V,A,442460,11,3,3917.26434,N,08203.79813,W,00292,+000.000,+000.000,+000.000,0,1*5C
$PTNLRBA,1,1*57
$GPZDA,025406.00,07,02,2014,,*61
$GPGGA,025406.00,3917.26434,N,08203.79814,W,1,11,0.90,00292,M,-033,M,,*57
$GPGLL,3917.26434,N,08203.79814,W,025406.00,A,A*7F
$GPVTG,000.0,T,007.2,M,000.0,N,000.0,K,A*26
$GPGSA,A,3,09,08,07,23,13,19,16,11,03,06,27,,1.56,0.90,1.28*08
$GPGSV,3,1,11,09,08,306,29,08,14,304,36,07,45,313,36,23,39,193,38*72
$GPGSV,3,2,11,13,60,239,38,19,61,154,32,16,38,053,39,11,14,166,34*72
$GPGSV,3,3,11,03,72,090,27,06,47,057,38,27,57,067,47,,,,*4A
$GPGST,025406.00,,192.50,192.40,045.1,013.87,013.87,013.90*46
$GPRMC,025406.00,A,3917.26434,N,08203.79814,W,000.0,000.0,070214,07.2,W,A*04
$PTNLRTF,V,A,442462,11,3,3917.26434,N,08203.79814,W,00292,+000.000,+000.000,+000.000,0,1*59
$PTNLRBA,1,1*57
