$GPZDA,015125.00,24,12,2013,,*61
$GPGGA,015125.00,4003.50189,N,08254.66416,W,2,07,0.98,00251,M,-033,M,,*58
$GPGLL,4003.50189,N,08254.66416,W,015125.00,A,D*76
$GPVTG,013.5,T,020.1,M,007.22,N,013.37,K,D*23
$GPGSA,A,3,25,31,32,14,20,16,23,,,,,,1.92,0.98,1.65*0E
$GPGSV,3,1,09,25,20,042,45,29,13,074,38,31,64,031,49,32,60,249,49*7B
$GPGSV,3,2,09,14,31,107,37,20,37,296,48,16,26,193,48,46,43,203,46*71
$GPGSV,3,3,09,23,14,303,47,,,,,,,,,,,,*47
$GPGST,015125.00,,051.69,051.57,088.7,007.19,007.18,007.22*47
$GPRMC,015125.00,A,4003.50189,N,08254.66416,W,007.22,013.5,241213,06.7,W,D*3E
$PTNLRTF,V,A$GPZDA,015128.00,24,12,2013,,*6C
$GPGGA,015128.00,4003.50661,N,08254.65995,W,2,08,0.93,00252,M,-033,M,,*56
$GPGLL,4003.50661,N,08254.65995,W,015128.00,A,D*7F
$GPVTG,038.9,T,045.6,M,006.93,N,012.83,K,D*27
$GPGSA,A,3,25,29,31,32,14,20,16,23,,,,,1.78,0.93,1.52*0E
$GPGSV,3,1,09,25,20,042,40,29,13,074,46,31,64,031,50,32,60,249,49*7F
$GPGSV,3,2,09,14,31,107,47,20,37,296,48,16,26,193,47,46,43,203,44*7B
$GPGSV,3,3,09,23,14,303,48,,,,,,,,,,,,*48
$GPGST,015128.00,,043.99,043.87,065.4,006.63,006.63,006.67*49
$GPRMC,015128.00,A,4003.50661,N,08254.65995,W,006.93,038.9,241213,06.7,W,D*39
$PTNLRTF,V,A,179504,08,3,4003.50661,N,08254.65995,W,00252,+002.240,+002.772,+000.040,0,1*5E
$PTNLRBA,1,1*57
$GPZDA,015130.00,24,12,2013,,*65
$GPGGA,015130.00,4003.50954,N,08254.65827,W,2,08,0.93,00252,M,-033,M,,*5E
$GPGLL,4003.50954,N,08254.65827,W,015130.00,A,D*77
$GPVTG,019.7,T,026.4,M,005.38,N,009.96,K,D*21
$GPGSA,A,3,25,29,31,32,14,20,16,23,,,,,1.78,0.93,1.52*0E
$GPGSV,3,1,09,25,20,042,43,29,13,074,45,31,64,031,50,32,60,249,50*77
$GPGSV,3,2,09,14,31,107,47,20,37,296,47,16,26,193,47,46,43,203,43*73
$GPGSV,3,3,09,23,14,303,47,,,,,,,,,,,,*47
$GPGST,015130.00,,040.43,040.38,035.0,006.36,006.36,006.40*47
$GPRMC,015130.00,A,4003.50954,N,08254.65827,W,005.38,019.7,241213,06.7,W,D*3E
$PTNLRTF,V,A,179506,08,3,4003.50954,N,08254.65827,W,00252,+000.933,+002.605,+000.141,0,1*51
$PTNLRBA,1,1*57
$GPZDA,015131.00,24,12,2013,,*64
$GPGGA,015131.00,4003.51080,N,08254.65790,W,2,08,0.93,00252,M,-033,M,,*5D
$GPGLL,4003.51080,N,08254.65790,W,015131.00,A,D*74
$GPVTG,013.7,T,020.4,M,004.69,N,008.68,K,D*28
$GPGSA,A,3,25,29,31,32,14,20,16,23,,,,,1.78,0.93,1.52*0E
$GPGSV,3,1,09,25,20,042,44,29,13,074,45,31,64,031,50,32,60,249,50*70
$GPGSV,3,2,09,14,31,107,47,20,37,296,48,16,26,193,46,46,43,203,44*7A
$GPGSV,3,3,09,23,14,303,47,,,,,,,,,,,,*47
$GPGST,015131.00,,037.90,037.87,030.6,006.15,006.16,006.20*4A
$GPRMC,015131.00,A,4003.51080,N,08254.65790,W,004.69,013.7,241213,06.7,W,D*32
$PTNLRTF,V,A,179507,08,3,4003.51080,N,08254.65790,W,00252,+000.572,+002.342,-000.041,0,1*5A
$PTNLRBA,1,1*57
$GPZDA,015133.00,24,12,2013,,*66
$GPGGA,015133.00,4003.51205,N,08254.65775,W,2,08,0.93,00252,M,-033,M,,*5B
$GPGLL,4003.51205,N,08254.65775,W,015133.00,A,D*72
$GPVTG,002.7,T,009.4,M,001.07,N,001.99,K,D*29
$GPGSA,A,3,25,29,31,32,14,20,16,23,,,,,1.78,0.93,1.52*0E
$GPGSV,3,1,09,25,20,042,44,29,13,074,44,31,64,031,49,32,60,249,50*79
$GPGSV,3,2,09,14,31,107,48,20,37,296,48,16,26,193,48,46,43,203,46*79
$GPGSV,3,3,09,23,14,303,45,,,,,,,,,,,,*45
$GPGST,015133.00,,033.78,033.60,076.3,005.81,005.80,005.85*4E
$GPRMC,015133.00,A,4003.51205,N,08254.65775,W,001.07,002.7,241213,06.7,W,D*39
$PTNLRTF,V,A,179509,08,3,4003.51205,N,08254.65775,W,00252,+000.026,+000.551,-000.028,0,1*5D
$PTNLRBA,1,1*57
$GPZDA,015134.00,24,12,2013,,*61
$GPGGA,015134.00,4003.51237,N,08254.65771,W,2,08,0.93,00252,M,-033,M,,*59
$GPGLL,4003.51237,N,08254.65771,W,015134.00,A,D*70
$GPVTG,006.4,T,013.1,M,001.16,N,002.14,K,D*26
$GPGSA,A,3,25,29,31,32,14,20,16,23,,,,,1.78,0.93,1.52*0E
$GPGSV,3,1,09,25,20,042,45,29,13,074,43,31,64,031,49,32,60,249,49*77
$GPGSV,3,2,09,14,31,107,47,20,37,296,48,16,26,193,47,46,43,203,46*79
$GPGSV,3,3,09,23,14,303,46,,,,,,,,,,,,*46
$GPGST,015134.00,,031.77,031.60,077.2,005.64,005.62,005.68*42
$GPRMC,015134.00,A,4003.51237,N,08254.65771,W,001.16,006.4,241213,06.7,W,D*3C
$PTNLRTF,V,A,179510,08,3,4003.51237,N,08254.65771,W,00252,+000.067,+000.592,+000.000,0,1*56
$PTNLRBA,1,1*57
$GPZDA,015136.00,24,12,2013,,*63
$GPGGA,015136.00,4003.51550,N,08254.65709,W,2,08,0.93,00252,M,-033,M,,*52
$GPGLL,4003.51550,N,08254.65709,W,015136.00,A,D*7B
$GPVTG,009.4,T,016.1,M,007.25,N,013.43,K,D*28
$GPGSA,A,3,25,29,31,32,14,20,16,23,,,,,1.79,0.93,1.52*0F
$GPGSV,3,1,09,25,20,042,45,29,13,074,45,31,64,031,49,32,60,249,50*79
$GPGSV,3,2,09,14,31,107,48,20,37,296,48,16,26,193,48,46,43,203,46*79
$GPGSV,3,3,09,23,14,303,47,,,,,,,,,,,,*47
$GPGST,015136.00,,028.98,028.35,081.3,005.38,005.33,005.39*40
$GPRMC,015136.00,A,4003.51550,N,08254.65709,W,007.25,009.4,241213,06.7,W,D*3E
$PTNLRTF,V,A,179512,08,3,4003.51550,N,08254.65709,W,00252,+000.610,+003.680,+000.068,0,1*56
$PTNLRBA,1,1*57
$GPZDA,015137.00,24,12,2013,,*62
$GPGGA,015137.00,4003.51796,N,08254.65666,W,2,08,0.93,00252,M,-033,M,,*53
$GPGLL,4003.51796,N,08254.65666,W,015137.00,A,D*7A
$GPVTG,008.4,T,015.0,M,008.92,N,016.53,K,D*2C
$GPGSA,A,3,25,29,31,32,14,20,16,23,,,,,1.79,0.93,1.52*0F
$GPGSV,3,1,09,25,20,042,44,29,13,074,46,31,64,031,47,32,60,249,49*7D
$GPGSV,3,2,09,14,31,107,48,20,37,296,47,16,26,193,48,46,43,203,45*75
$GPGSV,3,3,09,23,14,303,46,,,,,,,,,,,,*46
$GPGST,015137.00,,027.35,026.70,082.5,005.23,005.17,005.23*44
$GPRMC,015137.00,A,4003.51796,N,08254.65666,W,008.92,008.4,241213,06.7,W,D*3D
$PTNLRTF,V,A,179513,08,3,4003.51796,N,08254.65666,W,00252,+000.667,+004.543,-000.023,0,1*55
$PTNLRBA,1,1*57
$GPZDA,015139.00,24,12,2013,,*6C
$GPGGA,015139.00,4003.52249,N,08254.65610,W,2,08,0.93,00252,M,-033,M,,*58
$GPGLL,4003.52249,N,08254.65610,W,015139.00,A,D*71
$GPVTG,005.6,T,012.3,M,008.00,N,014.82,K,D*22
$GPGSA,A,3,25,29,31,32,14,20,16,23,,,,,1.79,0.93,1.52*0F
$GPGSV,3,1,09,25,20,042,47,29,13,074,43,31,64,031,49,32,60,249,48*74
$GPGSV,3,2,09,14,31,107,47,20,37,296,48,16,26,193,46,46,43,203,46*78
$GPGSV,3,3,09,23,14,303,46,,,,,,,,,,,,*46
$GPGST,015139.00,,024.34,023.78,082.2,004.93,004.88,004.95*43
$GPRMC,015139.00,A,4003.52249,N,08254.65610,W,008.00,005.6,241213,06.7,W,D*32
$PTNLRTF,V,A,179515,08,3,4003.52249,N,08254.65610,W,00252,+000.403,+004.097,-000.152,0,1*5D
$PTNLRBA,1,1*57
$GPZDA,015140.00,24,12,2013,,*62
$GPGGA,015140.00,4003.52464,N,08254.65594,W,2,08,0.93,00252,M,-033,M,,*50
$GPGLL,4003.52464,N,08254.65594,W,015140.00,A,D*79
$GPVTG,003.7,T,010.4,M,007.77,N,014.40,K,D*21
$GPGSA,A,3,25,29,31,32,14,20,16,23,,,,,1.79,0.93,1.52*0F
$GPGSV,3,1,09,25,20,042,45,29,13,073,45,31,64,031,49,32,60,248,49*77
$GPGSV,3,2,09,14,31,107,46,20,37,296,47,16,26,193,47,46,43,203,47*76
$GPGSV,3,3,09,23,14,303,47,,,,,,,,,,,,*47
$GPGST,015140.00,,023.01,022.50,082.3,004.80,004.74,004.82*41
$GPRMC,015140.00,A,4003.52464,N,08254.65594,W,007.77,003.7,241213,06.7,W,D*32
$PTNLRTF,V,A,179517,08,3,4003.52464,N,08254.65594,W,00252,+000.259,+003.991,-000.027,0,1*5B
$PTNLRBA,1,1*57
$GPZDA,015142.00,24,12,2013,,*60
$GPGGA,015142.00,4003.52887,N,08254.65567,W,2,08,0.93,00253,M,-033,M,,*5E
$GPGLL,4003.52887,N,08254.65567,W,015142.00,A,D*76
$GPVTG,003.2,T,009.9,M,007.65,N,014.16,K,D*21
$GPGSA,A,3,25,29,31,32,14,20,16,23,,,,,1.79,0.93,1.52*0F
$GPGSV,3,1,09,25,20,042,46,29,13,073,46,31,64,031,49,32,60,248,50*7F
$GPGSV,3,2,09,14,31,107,46,20,37,296,47,16,26,193,47,46,43,203,46*77
$GPGSV,3,3,09,23,14,303,46,,,,,,,,,,,,*46
$GPGST,015142.00,,020.64,020.21,082.9,004.54,004.50,004.58*45
$GPRMC,015142.00,A,4003.52887,N,08254.65567,W,007.65,003.2,241213,06.7,W,D*3B
$PTNLRTF,V,A,179518,08,3,4003.52887,N,08254.65567,W,00253,+000.220,+003.928,+000.017,0,1*51
$PTNLRBA,1,1*57
$GPZDA,015144.00,24,12,2013,,*66
$GPGGA,015144.00,4003.53304,N,08254.65533,W,2,08,0.93,00253,M,-033,M,,*58
$GPGLL,4003.53304,N,08254.65533,W,015144.00,A,D*70
$GPVTG,003.5,T,010.2,M,007.49,N,013.86,K,D*25
$GPGSA,A,3,25,29,31,32,14,20,16,23,,,,,1.79,0.93,1.53*0E
$GPGSV,3,1,09,25,20,042,46,29,13,073,46,31,64,031,49,32,60,248,50*7F
$GPGSV,3,2,09,14,31,107,47,20,37,296,49,16,26,193,47,46,43,203,47*79
$GPGSV,3,3,09,23,14,303,47,,,,,,,,,,,,*47
$GPGST,015144.00,,018.82,018.45,083.6,004.34,004.30,004.39*40
$GPRMC,015144.00,A,4003.53304,N,08254.65533,W,007.49,003.5,241213,06.7,W,D*34
$PTNLRTF,V,A,179520,08,3,4003.53304,N,08254.65533,W,00253,+000.237,+003.843,-000.031,0,1*52
$PTNLRBA,1,1*57
$GPZDA,015145.00,24,12,2013,,*67
$GPGGA,015145.00,4003.53495,N,08254.65514,W,2,08,0.93,00253,M,-033,M,,*53
$GPGLL,4003.53495,N,08254.65514,W,015145.00,A,D*7B
$GPVTG,004.6,T,011.3,M,006.88,N,012.75,K,D*20
$GPGSA,A,3,25,29,31,32,14,20,16,23,,,,,1.79,0.93,1.53*0E
$GPGSV,3,1,09,25,20,042,45,29,13,073,46,31,64,031,48,32,60,248,49*75
$GPGSV,3,2,09,14,31,107,47,20,37,296,48,16,26,193,47,46,43,203,46*79
$GPGSV,3,3,09,23,14,303,47,,,,,,,,,,,,*47
$GPGST,015145.00,,018.03,017.68,084.1,004.25,004.21,004.30*41
$GPRMC,015145.00,A,4003.53495,N,08254.65514,W,006.88,004.6,241213,06.7,W,D*37
$PTNLRTF,V,A,179521,08,3,4003.53495,N,08254.65514,W,00253,+000.283,+003.529,+000.012,0,1*50
$PTNLRBA,1,1*57
$GPZDA,015147.00,24,12,2013,,*65
$GPGGA,015147.00,4003.53839,N,08254.65484,W,2,08,0.93,00253,M,-033,M,,*53
$GPGLL,4003.53839,N,08254.65484,W,015147.00,A,D*7B
$GPVTG,003.9,T,010.6,M,006.00,N,011.12,K,D*2E
$GPGSA,A,3,25,29,31,32,14,20,16,23,,,,,1.79,0.93,1.53*0E
$GPGSV,3,1,09,25,20,042,44,29,13,073,47,31,64,031,49,32,60,248,49*74
$GPGSV,3,2,09,14,31,107,46,20,37,296,48,16,26,193,49,46,43,203,47*77
$GPGSV,3,3,09,23,14,303,47,,,,,,,,,,,,*47
$GPGST,015147.00,,016.62,016.31,084.5,004.08,004.04,004.14*4D
$GPRMC,015147.00,A,4003.53839,N,08254.65484,W,006.00,003.9,241213,06.7,W,D*3F
$PTNLRTF,V,A,179523,08,3,4003.53839,N,08254.65484,W,00253,+000.208,+003.081,+000.011,0,1*57
$PTNLRBA,1,1*57
$GPZDA,015148.00,24,12,2013,,*6A
$GPGGA,015148.00,4003.54013,N,08254.65472,W,2,08,0.93,00253,M,-033,M,,*52
$GPGLL,4003.54013,N,08254.65472,W,015148.00,A,D*7A
$GPVTG,003.3,T,010.0,M,006.26,N,011.58,K,D*28
$GPGSA,A,3,25,29,31,32,14,20,16,23,,,,,1.79,0.93,1.53*0E
$GPGSV,3,1,09,25,20,042,45,29,13,073,46,31,64,031,49,32,60,248,50*7C
$GPGSV,3,2,09,14,31,107,46,20,37,296,48,16,26,193,49,46,43,203,46*76
$GPGSV,3,3,09,23,14,303,46,,,,,,,,,,,,*46
$GPGST,015148.00,,015.77,015.48,085.1,003.97,003.93,004.04*44
$GPRMC,015148.00,A,4003.54013,N,08254.65472,W,006.26,003.3,241213,06.7,W,D*30
$PTNLRTF,V,A,179524,08,3,4003.54013,N,08254.65472,W,00253,+000.186,+003.213,+000.190,0,1*5A
$PTNLRBA,1,1*57
$GPZDA,015150.00,24,12,2013,,*63
$GPGGA,015150.00,4003.54409,N,08254.65460,W,2,08,0.93,00253,M,-033,M,,*57
$GPGLL,4003.54409,N,08254.65460,W,015150.00,A,D*7F
$GPVTG,001.2,T,007.9,M,007.34,N,013.59,K,D*25
$GPGSA,A,3,25,29,31,32,14,20,16,23,,,,,1.79,0.93,1.53*0E
$GPGSV,3,1,09,25,20,042,46,29,13,073,45,31,64,031,49,32,60,248,50*7C
$GPGSV,3,2,09,14,31,107,47,20,37,296,48,16,26,193,48,46,43,203,47*77
$GPGSV,3,3,09,23,14,303,43,,,,,,,,,,,,*43
$GPGST,015150.00,,014.36,014.09,087.1,003.79,003.75,003.86*4A
$GPRMC,015150.00,A,4003.54409,N,08254.65460,W,007.34,001.2,241213,06.7,W,D*34
$PTNLRTF,V,A,179526,08,3,4003.54409,N,08254.65460,W,00253,+000.081,+003.773,+000.061,0,1*5E
$PTNLRBA,1,1*57
