$GPZDA,200306.00,05,03,2014,,*60
$GPGGA,200306.00,3919.83090,N,08206.08864,W,1,05,5.57,00249,M,-033,M,,*57
$GPGLL,3919.83090,N,08206.08864,W,200306.00,A,A*72
$GPVTG,153.7,T,160.9,M,000.9,N,001.6,K,A*23
$GPGSA,A,3,31,32,25,14,20,,,,,,,,7.84,5.57,5.52*0F
$GPGSV,2,1,05,31,77,299,37,32,59,290,35,25,38,056,34,14,48,084,30*75
$GPGSV,2,2,05,20,23,313,30,,,,,,,,,,,,*4D
$GPGST,200306.00,,174.10,119.74,085.9,013.18,010.96,012.25*42
$GPRMC,200306.00,A,3919.83090,N,08206.08864,W,000.9,153.7,050314,07.2,W,A*03
$PTNLRTF,V,A,331403,05,3,3919.83090,N,08206.08864,W,00249,+000.202,-000.410,+000.018,0,1*$GPZDA,200307.00,05,03,2014,,*61
$GPGGA,200307.00,3919.83101,N,08206.08868,W,1,05,5.57,00249,M,-033,M,,*53
$GPVTG,152.6,T,159.8,M,000.2,N,000.3,K,A*27
$GPGSA,A,3,31,32,25,14,20,,,,,,,,7.83,5.56,5.52*09
$GPGSV,2,1,05,31,77,299,37,32,59,290,35,25,38,056,34,14,48,084,29*7D
$GPGSV,2,2,05,20,23,313,31,,,,,,,,,,,,*4C
$GPGST,200307.00,,166.53,112.40,086.1,012.89,010.61,011.93*4F
$GPRMC,200307.00,A,3919.83101,N,08206.08868,W,000.2,152.6,050314,07.2,W,A*0C
$PTNLRTF,V,A,331404,05,3,3919.83101,N,08206.08868,W,00249,+000.036,-000.069,-000.009,0,1*50
$PTNLRBA,1,1*57
$GPZDA,200309.00,05,03,2014,,*6F
$GPGGA,200309.00,3919.83149,N,08206.08872,W,1,05,5.56,00249,M,-033,M,,*5B
$GPGLL,3919.83149,N,08206.08872,W,200309.00,A,A*7F
$GPVTG,001.4,T,008.6,M,000.7,N,001.4,K,A*2A
$GPGSA,A,3,31,32,25,14,20,,,,,,,,7.83,5.56,5.51*0A
$GPGSV,2,1,05,31,77,299,37,32,59,290,34,25,38,056,35,14,48,084,29*7D
$GPGSV,2,2,05,20,23,313,31,,,,,,,,,,,,*4C
$GPGST,200309.00,,161.49,108.08,086.5,012.70,010.41,011.74*43
$GPRMC,200309.00,A,3919.83149,N,08206.08872,W,000.7,001.4,050314,07.2,W,A*05
$PTNLRTF,V,A,331405,05,3,3919.83149,N,08206.08872,W,00249,+000.009,+000.376,-000.025,0,1*5F
$PTNLRBA,1,1*57
$GPZDA,200310.00,05,03,2014,,*67
$GPGGA,200310.00,3919.83115,N,08206.08880,W,1,05,5.55,00249,M,-033,M,,*54
$GPGLL,3919.83115,N,08206.08880,W,200310.00,A,A*73
$GPVTG,190.7,T,197.9,M,000.3,N,000.5,K,A*2C
$GPGSA,A,3,31,32,25,14,20,,,,,,,,7.82,5.55,5.51*08
$GPGSV,2,1,05,31,77,299,37,32,59,290,35,25,38,056,34,14,48,084,28*7C
$GPGSV,2,2,05,20,23,313,31,,,,,,,,,,,,*4C
$GPGST,200310.00,,156.12,102.94,086.6,012.49,010.16,011.51*42
$GPRMC,200310.00,A,3919.83115,N,08206.08880,W,000.3,190.7,050314,07.2,W,A*07
$PTNLRTF,V,A,331406,05,3,3919.83115,N,08206.08880,W,00249,-000.025,-000.131,+000.021,0,1*55
$PTNLRBA,1,1*57
$GPZDA,200311.00,05,03,2014,,*66
$GPGGA,200311.00,3919.83111,N,08206.08893,W,1,05,5.55,00248,M,-033,M,,*52
$GPGLL,3919.83111,N,08206.08893,W,200311.00,A,A*74
$GPVTG,305.7,T,312.9,M,000.0,N,000.1,K,A*2A
$GPGSA,A,3,31,32,25,14,20,,,,,,,,7.81,5.54,5.50*0B
$GPGSV,2,1,05,31,77,299,37,32,59,290,35,25,38,056,35,14,48,084,30*74
$GPGSV,2,2,05,20,23,313,32,,,,,,,,,,,,*4F
$GPGST,200311.00,,151.99,099.05,086.8,012.32,009.96,011.33*4A
$GPRMC,200311.00,A,3919.83111,N,08206.08893,W,000.0,305.7,050314,07.2,W,A*0D
$PTNLRTF,V,A,331408,05,3,3919.83111,N,08206.08893,W,00248,-000.017,+000.012,-000.010,0,1*5F
$PTNLRBA,1,1*57
$GPZDA,200312.00,05,03,2014,,*65
$GPGGA,200312.00,3919.83107,N,08206.08907,W,1,05,5.54,00248,M,-033,M,,*5B
$GPVTG,189.6,T,196.8,M,000.3,N,000.6,K,A*26
$GPGSA,A,3,31,32,25,14,20,,,,,,,,7.80,5.54,5.49*02
$GPGSV,2,1,05,31,77,299,36,32,59,290,35,25,38,056,35,14,48,084,30*75
$GPGSV,2,2,05,20,23,313,31,,,,,,,,,,,,*4C
$GPGST,200312.00,,148.08,095.59,086.9,012.16,009.78,011.17*4D
$GPRMC,200312.00,A,3919.83107,N,08206.08907,W,000.3,189.6,050314,07.2,W,A*01
$PTNLRTF,V,A,331409,05,3,3919.83107,N,08206.08907,W,00248,-000.029,-000.172,-000.026,0,1*5C
$PTNLRBA,1,1*57
$GPZDA,200314.00,05,03,2014,,*63
$GPGGA,200314.00,3919.83014,N,08206.08942,W,1,05,5.53,00248,M,-033,M,,*58
$GPGLL,3919.83014,N,08206.08942,W,200314.00,A,A*78
$GPVTG,214.9,T,222.1,M,000.4,N,000.7,K,A*2D
$GPGSA,A,3,31,32,25,14,20,,,,,,,,7.79,5.53,5.49*03
$GPGSV,2,1,05,31,77,299,37,32,59,290,35,25,38,056,34,14,48,084,29*7D
$GPGSV,2,2,05,20,23,313,31,,,,,,,,,,,,*4C
$GPGST,200314.00,,138.10,086.80,087.2,011.75,009.32,010.75*44
$GPRMC,200314.00,A,3919.83014,N,08206.08942,W,000.4,214.9,050314,07.2,W,A*0A
$PTNLRTF,V,A,331410,05,3,3919.83014,N,08206.08942,W,00248,-000.117,-000.168,-000.012,0,1*56
$PTNLRBA,1,1*57
$GPZDA,200315.00,05,03,2014,,*62
$GPGGA,200315.00,3919.82989,N,08206.08937,W,1,05,5.53,00248,M,-033,M,,*57
$GPGLL,3919.82989,N,08206.08937,W,200315.00,A,A*77
$GPVTG,083.9,T,091.1,M,000.2,N,000.3,K,A*29
$GPGSA,A,3,31,32,25,14,20,,,,,,,,7.78,5.53,5.48*03
$GPGSV,2,1,05,31,77,300,37,32,59,290,35,25,37,056,35,14,48,084,29*72
$GPGSV,2,2,05,20,23,313,31,,,,,,,,,,,,*4C
$GPGST,200315.00,,140.85,090.22,087.2,011.86,009.50,010.90*4A
$GPRMC,200315.00,A,3919.82989,N,08206.08937,W,000.2,083.9,050314,07.2,W,A*0F
$PTNLRTF,V,A,331411,05,3,3919.82989,N,08206.08937,W,00248,+000.085,+000.009,+000.011,0,1*50
$PTNLRBA,1,1*57
$GPZDA,200316.00,05,03,2014,,*61
$GPGGA,200316.00,3919.83010,N,08206.08936,W,1,05,5.52,00248,M,-033,M,,*5C
$GPGLL,3919.83010,N,08206.08936,W,200316.00,A,A*7D
$GPVTG,004.8,T,012.0,M,000.3,N,000.5,K,A*2A
$GPGSA,A,3,31,32,25,14,20,,,,,,,,7.77,5.51,5.47*01
$GPGSV,2,1,05,31,77,300,37,32,59,290,35,25,37,056,35,14,48,084,29*72
$GPGSV,2,2,05,20,23,313,31,,,,,,,,,,,,*4C
$GPGST,200316.00,,139.86,089.54,087.4,011.82,009.47,010.86*4E
$GPRMC,200316.00,A,3919.83010,N,08206.08936,W,000.3,004.8,050314,07.2,W,A*0A
$PTNLRTF,V,A,331413,05,3,3919.83010,N,08206.08936,W,00248,+000.012,+000.146,-000.006,0,1*5F
$PTNLRBA,1,1*57
$GPZDA,200317.00,05,03,2014,,*60
$GPGGA,200317.00,3919.82969,N,08206.08940,W,1,05,5.51,00248,M,-033,M,,*59
$GPVTG,019.4,T,026.6,M,000.2,N,000.4,K,A*2B
$GPGSA,A,3,31,32,25,14,20,,,,,,,,7.76,5.51,5.47*00
$GPGSV,2,1,05,31,77,300,37,32,59,290,35,25,37,056,34,14,48,084,30*7B
$GPGSV,2,2,05,20,23,313,31,,,,,,,,,,,,*4C
$GPGST,200317.00,,148.68,098.89,087.4,012.19,009.95,011.28*42
$GPRMC,200317.00,A,3919.82969,N,08206.08940,W,000.2,019.4,050314,07.2,W,A*0D
$PTNLRTF,V,A,331414,05,3,3919.82969,N,08206.08940,W,00248,+000.033,+000.092,-000.002,0,1*50
$PTNLRBA,1,1*57
$GPZDA,200319.00,05,03,2014,,*6E
$GPGGA,200319.00,3919.82949,N,08206.08956,W,1,05,5.50,00247,M,-033,M,,*5C
$GPGLL,3919.82949,N,08206.08956,W,200319.00,A,A*70
$GPVTG,208.4,T,215.6,M,000.3,N,000.6,K,A*28
$GPGSA,A,3,31,32,25,14,20,,,,,,,,7.76,5.50,5.47*01
$GPGSV,2,1,05,31,77,300,36,32,59,290,35,25,37,056,34,14,48,084,29*72
$GPGSV,2,2,05,20,23,313,31,,,,,,,,,,,,*4C
$GPGST,200319.00,,151.42,101.87,087.6,012.30,010.10,011.40*41
$GPRMC,200319.00,A,3919.82949,N,08206.08956,W,000.3,208.4,050314,07.2,W,A*05
$PTNLRTF,V,A,331415,05,3,3919.82949,N,08206.08956,W,00247,-000.083,-000.154,+000.014,0,1*5A
$PTNLRBA,1,1*57
$GPZDA,200320.00,05,03,2014,,*64
$GPGGA,200320.00,3919.82950,N,08206.08958,W,1,05,5.50,00248,M,-033,M,,*5F
$GPGLL,3919.82950,N,08206.08958,W,200320.00,A,A*7C
$GPVTG,183.8,T,191.0,M,000.5,N,001.0,K,A*2C
$GPGSA,A,3,31,32,25,14,20,,,,,,,,7.75,5.50,5.46*03
$GPGSV,2,1,05,31,77,300,37,32,59,290,35,25,37,056,35,14,48,084,29*72
$GPGSV,2,2,05,20,23,313,31,,,,,,,,,,,,*4C
$GPGST,200320.00,,150.97,101.59,087.7,012.28,010.08,011.38*4F
$GPRMC,200320.00,A,3919.82950,N,08206.08958,W,000.5,183.8,050314,07.2,W,A*03
$PTNLRTF,V,A,331416,05,3,3919.82950,N,08206.08958,W,00248,-000.019,-000.280,-000.018,0,1*53
$PTNLRBA,1,1*57
$GPZDA,200321.00,05,03,2014,,*65
$GPGGA,200321.00,3919.82955,N,08206.08947,W,1,05,5.49,00248,M,-033,M,,*5D
$GPGLL,3919.82955,N,08206.08947,W,200321.00,A,A*76
$GPVTG,057.5,T,064.7,M,000.3,N,000.6,K,A*24
$GPGSA,A,3,31,32,25,14,20,,,,,,,,7.74,5.49,5.45*09
$GPGSV,2,1,05,31,77,300,37,32,59,290,35,25,37,056,34,14,48,084,30*7B
$GPGSV,2,2,05,20,23,313,31,,,,,,,,,,,,*4C
$GPGST,200321.00,,147.39,098.16,087.8,012.14,009.91,011.22*45
$GPRMC,200321.00,A,3919.82955,N,08206.08947,W,000.3,057.5,050314,07.2,W,A*0A
$PTNLRTF,V,A,331418,05,3,3919.82955,N,08206.08947,W,00248,+000.139,+000.089,-000.006,0,1*51
$PTNLRBA,1,1*57
$GPZDA,200322.00,05,03,2014,,*66
$GPGGA,200322.00,3919.82923,N,08206.08957,W,1,05,5.49,00247,M,-033,M,,*51
$GPGLL,3919.82923,N,08206.08957,W,200322.00,A,A*75
$GPVTG,353.7,T,000.9,M,000.2,N,000.4,K,A*2E
$GPGSA,A,3,31,32,25,14,20,,,,,,,,7.73,5.48,5.45*0F
$GPGSV,2,1,05,31,77,300,37,32,59,290,36,25,37,056,34,14,48,084,30*78
$GPGSV,2,2,05,20,23,313,31,,,,,,,,,,,,*4C
$GPGST,200322.00,,144.80,096.01,087.8,012.03,009.80,011.12*4A
$GPRMC,200322.00,A,3919.82923,N,08206.08957,W,000.2,353.7,050314,07.2,W,A*0D
$PTNLRTF,V,A,331419,05,3,3919.82923,N,08206.08957,W,00247,-000.012,+000.113,+000.009,0,1*5A
$PTNLRBA,1,1*57
$GPZDA,200324.00,05,03,2014,,*60
$GPGLL,3919.82904,N,08206.08969,W,200324.00,A,A*7B
$GPVTG,221.2,T,228.4,M,000.3,N,000.6,K,A*29
$GPGSA,A,3,31,32,25,14,20,,,,,,,,7.72,5.48,5.44*0F
$GPGSV,2,1,05,31,77,300,36,32,59,290,35,25,37,056,34,14,48,084,30*7A
$GPGSV,2,2,05,20,23,313,31,,,,,,,,,,,,*4C
$GPGST,200324.00,,141.33,094.30,087.8,011.89,009.71,011.03*4E
$GPRMC,200324.00,A,3919.82904,N,08206.08969,W,000.3,221.2,050314,07.2,W,A*03
$PTNLRTF,V,A,331420,05,3,3919.82904,N,08206.08969,W,00247,-000.109,-000.124,+000.001,0,1*59
$PTNLRBA,1,1*57
$GPZDA,200325.00,05,03,2014,,*61
$GPGGA,200325.00,3919.82931,N,08206.08980,W,1,05,5.47,00247,M,-033,M,,*51
$GPGLL,3919.82931,N,08206.08980,W,200325.00,A,A*7B
$GPGSA,A,3,31,32,25,14,20,,,,,,,,7.72,5.47,5.44*00
$GPGSV,2,1,05,31,77,300,37,32,59,290,35,25,37,056,35,14,48,084,30*7A
$GPGSV,2,2,05,20,23,313,32,,,,,,,,,,,,*4F
$GPGST,200325.00,,141.53,094.78,087.9,011.89,009.74,011.05*47
$GPRMC,200325.00,A,3919.82931,N,08206.08980,W,000.9,352.3,050314,07.2,W,A*0D
$PTNLRTF,V,A,331421,05,3,3919.82931,N,08206.08980,W,00247,-000.064,+000.473,+000.018,0,1*5A
$PTNLRBA,1,1*57
$GPZDA,200326.00,05,03,2014,,*62
$GPGGA,200326.00,3919.82883,N,08206.08980,W,1,05,5.47,00247,M,-033,M,,*5A
$GPGLL,3919.82883,N,08206.08980,W,200326.00,A,A*70
$GPVTG,196.9,T,204.1,M,000.4,N,000.8,K,A*2F
$GPGSA,A,3,31,32,25,14,20,,,,,,,,7.70,5.46,5.43*04
$GPGSV,2,1,05,31,77,300,37,32,59,290,36,25,37,056,35,14,48,084,30*79
$GPGSV,2,2,05,20,23,313,31,,,,,,,,,,,,*4C
$GPGST,200326.00,,140.25,093.46,088.0,011.84,009.67,010.98*42
$GPRMC,200326.00,A,3919.82883,N,08206.08980,W,000.4,196.9,050314,07.2,W,A*0B
$PTNLRTF,V,A,331423,05,3,3919.82883,N,08206.08980,W,00247,-000.067,-000.221,+000.010,0,1*5C
$PTNLRBA,1,1*57
$GPZDA,200328.00,05,03,2014,,*6C
$GPGGA,200328.00,3919.82773,N,08206.08993,W,1,05,5.46,00247,M,-033,M,,*57
$GPGLL,3919.82773,N,08206.08993,W,200328.00,A,A*7C
$GPVTG,191.3,T,198.5,M,001.4,N,002.5,K,A*2E
$GPGSA,A,3,31,32,25,14,20,,,,,,,,7.70,5.46,5.43*04
$GPGSV,2,1,05,31,77,300,37,32,59,290,35,25,37,056,34,14,48,084,30*7B
$GPGSV,2,2,05,20,23,313,32,,,,,,,,,,,,*4F
$GPGST,200328.00,,139.90,093.70,088.1,011.83,009.68,010.98*40
$GPRMC,200328.00,A,3919.82773,N,08206.08993,W,001.4,191.3,050314,07.2,W,A*0B
$PTNLRTF,V,A,331424,05,3,3919.82773,N,08206.08993,W,00247,-000.138,-000.689,-000.006,0,1*55
$PTNLRBA,1,1*57
$GPZDA,200329.00,05,03,2014,,*6D
$GPGLL,3919.82733,N,08206.08976,W,200329.00,A,A*72
$GPVTG,152.8,T,160.0,M,000.8,N,001.5,K,A*26
$GPGSA,A,3,31,32,25,14,20,,,,,,,,7.69,5.45,5.42*0E
$GPGSV,2,1,05,31,77,300,37,32,59,290,36,25,37,056,34,14,48,084,29*70
$GPGSV,2,2,05,20,23,313,31,,,,,,,,,,,,*4C
$GPGST,200329.00,,142.77,096.94,088.0,011.95,009.85,011.12*4D
$GPRMC,200329.00,A,3919.82733,N,08206.08976,W,000.8,152.8,050314,07.2,W,A*0C
$PTNLRTF,V,A,331425,05,3,3919.82733,N,08206.08976,W,00247,+000.185,-000.360,+000.016,0,1*5E
$PTNLRBA,1,1*57
$GPZDA,200330.00,05,03,2014,,*65
$GPGGA,200330.00,3919.82692,N,08206.08980,W,1,05,5.45,00247,M,-033,M,,*51
$GPGLL,3919.82692,N,08206.08980,W,200330.00,A,A*79
$GPGSA,A,3,31,32,25,14,20,,,,,,,,7.68,5.45,5.42*0F
$GPGSV,2,1,05,31,77,300,36,32,59,290,35,25,37,056,34,14,48,084,30*7A
$GPGSV,2,2,05,20,23,313,31,,,,,,,,,,,,*4C
$GPGST,200330.00,,141.39,095.68,088.1,011.89,009.78,011.05*44
$GPRMC,200330.00,A,3919.82692,N,08206.08980,W,000.8,186.1,050314,07.2,W,A*07
$PTNLRTF,V,A,331426,05,3,3919.82692,N,08206.08980,W,00247,-000.045,-000.427,-000.007,0,1*57
$PTNLRBA,1,1*57
$GPZDA,200331.00,05,03,2014,,*64
$GPGGA,200331.00,3919.82682,N,08206.08981,W,1,05,5.44,00247,M,-033,M,,*51
$GPGLL,3919.82682,N,08206.08981,W,200331.00,A,A*78
$GPVTG,182.3,T,189.5,M,000.5,N,000.9,K,A*22
$GPGSA,A,3,31,32,25,14,20,,,,,,,,7.67,5.44,5.41*02
$GPGSV,2,1,05,31,77,300,36,32,59,290,35,25,37,056,34,14,48,084,30*7A
$GPGSV,2,2,05,20,23,313,32,,,,,,,,,,,,*4F
$GPGST,200331.00,,139.94,094.39,088.2,011.83,009.72,010.99*4F
$GPRMC,200331.00,A,3919.82682,N,08206.08981,W,000.5,182.3,050314,07.2,W,A*0D
$PTNLRTF,V,A,331428,05,3,3919.82682,N,08206.08981,W,00247,-000.010,-000.251,-000.016,0,1*5E
$PTNLRBA,1,1*57
$GPZDA,200333.00,05,03,2014,,*66
$GPGGA,200333.00,3919.82672,N,08206.08963,W,1,05,5.43,00247,M,-033,M,,*57
$GPGLL,3919.82672,N,08206.08963,W,200333.00,A,A*79
$GPVTG,150.1,T,157.3,M,000.6,N,001.1,K,A*20
$GPGSA,A,3,31,32,25,14,20,,,,,,,,7.66,5.43,5.40*05
$GPGSV,2,1,05,31,77,300,37,32,59,290,35,25,37,056,34,14,48,084,30*7B
$GPGSV,2,2,05,20,23,313,31,,,,,,,,,,,,*4C
$GPGST,200333.00,,141.59,096.18,088.5,011.90,009.81,011.06*4C
$GPRMC,200333.00,A,3919.82672,N,08206.08963,W,000.6,150.1,050314,07.2,W,A*02
$PTNLRTF,V,A,331429,05,3,3919.82672,N,08206.08963,W,00247,+000.158,-000.274,+000.005,0,1*54
$PTNLRBA,1,1*57
$GPZDA,200334.00,05,03,2014,,*61
$GPGLL,3919.82664,N,08206.08960,W,200334.00,A,A*7A
$GPVTG,161.6,T,168.8,M,000.6,N,001.1,K,A*22
$GPGSA,A,3,31,32,25,14,20,,,,,,,,7.66,5.43,5.40*05
$GPGSV,2,1,05,31,77,300,37,32,59,290,35,25,37,056,33,14,48,084,30*7C
$GPGSV,2,2,05,20,23,313,31,,,,,,,,,,,,*4C
$GPGST,200334.00,,143.01,097.62,088.5,011.96,009.88,011.11*41
$GPRMC,200334.00,A,3919.82664,N,08206.08960,W,000.6,161.6,050314,07.2,W,A*04
$PTNLRTF,V,A,331430,05,3,3919.82664,N,08206.08960,W,00247,+000.096,-000.290,-000.010,0,1*53
$PTNLRBA,1,1*57
$GPZDA,200335.00,05,03,2014,,*60
$GPGGA,200335.00,3919.82674,N,08206.08945,W,1,05,5.42,00247,M,-033,M,,*52
$GPGLL,3919.82674,N,08206.08945,W,200335.00,A,A*7D
$GPVTG,057.5,T,064.7,M,000.3,N,000.6,K,A*24
$GPGSA,A,3,31,32,25,14,20,,,,,,,,7.64,5.42,5.39*08
$GPGSV,2,1,05,31,77,300,37,32,59,290,36,25,37,056,33,14,48,084,30*7F
$GPGSV,2,2,05,20,23,313,30,,,,,,,,,,,,*4D
$GPGST,200335.00,,142.49,097.13,088.6,011.94,009.86,011.09*4D
$GPRMC,200335.00,A,3919.82674,N,08206.08945,W,000.3,057.5,050314,07.2,W,A*01
$PTNLRTF,V,A,331432,05,3,3919.82674,N,08206.08945,W,00247,+000.140,+000.090,-000.022,0,1*58
$PTNLRBA,1,1*57
$GPZDA,200336.00,05,03,2014,,*63
$GPGGA,200336.00,3919.82688,N,08206.08949,W,1,05,5.42,00247,M,-033,M,,*5E
$GPGLL,3919.82688,N,08206.08949,W,200336.00,A,A*71
$GPVTG,349.4,T,356.6,M,000.6,N,001.0,K,A*28
$GPGSA,A,3,31,32,25,14,20,,,,,,,,7.64,5.41,5.39*0B
$GPGSV,2,1,05,31,77,300,36,32,59,290,36,25,37,056,33,14,48,084,30*7E
$GPGSV,2,2,05,20,23,313,30,,,,,,,,,,,,*4D
$GPGST,200336.00,,139.04,093.82,088.7,011.79,009.69,010.93*46
$GPRMC,200336.00,A,3919.82688,N,08206.08949,W,000.6,349.4,050314,07.2,W,A*05
$PTNLRTF,V,A,331433,05,3,3919.82688,N,08206.08949,W,00247,-000.052,+000.280,-000.001,0,1*50
$PTNLRBA,1,1*57
$GPZDA,200338.00,05,03,2014,,*6D
$GPGLL,3919.82610,N,08206.08955,W,200338.00,A,A*73
$GPVTG,187.0,T,194.2,M,000.7,N,001.4,K,A*21
$GPGSA,A,3,31,32,25,14,20,,,,,,,,7.63,5.41,5.38*0D
$GPGSV,2,1,05,31,77,300,36,32,59,290,36,25,37,056,33,14,48,084,30*7E
$GPGSV,2,2,05,20,23,313,30,,,,,,,,,,,,*4D
$GPGST,200338.00,,138.57,093.22,088.9,011.77,009.66,010.89*41
$GPRMC,200338.00,A,3919.82610,N,08206.08955,W,000.7,187.0,050314,07.2,W,A*02
$PTNLRTF,V,A,331434,05,3,3919.82610,N,08206.08955,W,00247,-000.047,-000.382,+000.013,0,1*5F
$PTNLRBA,1,1*57
$GPZDA,200339.00,05,03,2014,,*6C
$GPGGA,200339.00,3919.82629,N,08206.08931,W,1,05,5.40,00247,M,-033,M,,*57
$GPVTG,088.1,T,095.3,M,000.7,N,001.2,K,A*29
$GPGSA,A,3,31,32,25,14,20,,,,,,,,7.62,5.40,5.38*0D
$GPGSV,2,1,05,31,77,300,36,32,59,290,36,25,37,056,33,14,48,084,30*7E
$GPGSV,2,2,05,20,23,313,30,,,,,,,,,,,,*4D
$GPGST,200339.00,,134.65,089.33,088.9,011.60,009.45,010.70*47
$GPRMC,200339.00,A,3919.82629,N,08206.08931,W,000.7,088.1,050314,07.2,W,A*04
$PTNLRTF,V,A,331435,05,3,3919.82629,N,08206.08931,W,00247,+000.343,+000.012,-000.009,0,1*56
$PTNLRBA,1,1*57
$GPZDA,200340.00,05,03,2014,,*62
$GPGGA,200340.00,3919.82598,N,08206.08959,W,1,05,5.40,00247,M,-033,M,,*5E
$GPGLL,3919.82598,N,08206.08959,W,200340.00,A,A*73
$GPVTG,232.1,T,239.3,M,000.8,N,001.5,K,A*26
$GPGSA,A,3,31,32,25,14,20,,,,,,,,7.61,5.39,5.37*0F
$GPGSV,2,1,05,31,77,300,37,32,59,290,36,25,37,056,32,14,48,084,30*7E
$GPGSV,2,2,05,20,23,313,30,,,,,,,,,,,,*4D
$GPGST,200340.00,,132.93,087.60,088.9,011.53,009.36,010.61*4A
$GPRMC,200340.00,A,3919.82598,N,08206.08959,W,000.8,232.1,050314,07.2,W,A*01
$PTNLRTF,V,A,331437,05,3,3919.82598,N,08206.08959,W,00247,-000.335,-000.261,+000.013,0,1*59
$PTNLRBA,1,1*57
$GPZDA,200341.00,05,03,2014,,*63
$GPGGA,200341.00,3919.82597,N,08206.08948,W,1,05,5.39,00247,M,-033,M,,*5E
$GPVTG,153.2,T,160.4,M,000.7,N,001.4,K,A*27
$GPGSA,A,3,31,32,25,14,20,,,,,,,,7.60,5.39,5.36*0F
$GPGSV,2,1,05,31,77,300,37,32,59,290,36,25,37,056,33,14,48,084,29*77
$GPGSV,2,2,05,20,23,313,30,,,,,,,,,,,,*4D
$GPGST,200341.00,,140.82,095.67,088.9,011.87,009.78,010.98*4F
$GPRMC,200341.00,A,3919.82597,N,08206.08948,W,000.7,153.2,050314,07.2,W,A*07
$PTNLRTF,V,A,331438,05,3,3919.82597,N,08206.08948,W,00247,+000.171,-000.338,-000.010,0,1*55
$PTNLRBA,1,1*57
$GPZDA,200343.00,05,03,2014,,*61
$GPGGA,200343.00,3919.82607,N,08206.08945,W,1,05,5.38,00247,M,-033,M,,*5A
$GPGLL,3919.82607,N,08206.08945,W,200343.00,A,A*78
$GPVTG,173.9,T,181.1,M,000.3,N,000.6,K,A*23
$GPGSA,A,3,31,32,25,14,20,,,,,,,,7.60,5.38,5.36*0E
$GPGSV,2,1,05,31,77,300,37,32,59,290,36,25,37,056,32,14,48,084,31*7F
$GPGSV,2,2,05,20,23,313,30,,,,,,,,,,,,*4D
$GPGST,200343.00,,142.94,097.62,088.9,011.96,009.88,011.06*46
$GPRMC,200343.00,A,3919.82607,N,08206.08945,W,000.3,173.9,050314,07.2,W,A*0F
$PTNLRTF,V,A,331439,05,3,3919.82607,N,08206.08945,W,00247,+000.019,-000.175,-000.011,0,1*56
$PTNLRBA,1,1*57
$GPZDA,200344.00,05,03,2014,,*66
$GPGGA,200344.00,3919.82567,N,08206.08952,W,1,05,5.38,00247,M,-033,M,,*5E
$GPGLL,3919.82567,N,08206.08952,W,200344.00,A,A*7C
$GPVTG,191.4,T,198.6,M,001.3,N,002.5,K,A*2D
$GPGSA,A,3,31,32,25,14,20,,,,,,,,7.59,5.38,5.36*04
$GPGSV,2,1,05,31,77,301,37,32,59,290,36,25,37,056,32,14,48,084,30*7F
$GPGSV,2,2,05,20,23,313,29,,,,,,,,,,,,*45
$GPGST,200344.00,,143.93,098.58,088.9,012.00,009.93,011.10*40
$GPRMC,200344.00,A,3919.82567,N,08206.08952,W,001.3,191.4,050314,07.2,W,A*0B
$PTNLRTF,V,A,331440,05,3,3919.82567,N,08206.08952,W,00247,-000.136,-000.674,+000.004,0,1*55
$PTNLRBA,1,1*57
$GPZDA,200345.00,05,03,2014,,*67
$GPGGA,200345.00,3919.82554,N,08206.08968,W,1,05,5.37,00247,M,-033,M,,*59
$GPGLL,3919.82554,N,08206.08968,W,200345.00,A,A*74
$GPVTG,197.8,T,205.0,M,000.8,N,001.5,K,A*2F
$GPGSA,A,3,31,32,25,14,20,,,,,,,,7.58,5.37,5.35*09
$GPGSV,2,1,05,31,77,301,37,32,59,290,36,25,37,056,32,14,48,084,30*7F
$GPGSV,2,2,05,20,23,313,30,,,,,,,,,,,,*4D
$GPGST,200345.00,,141.98,096.48,088.9,011.91,009.82,010.99*4C
$GPRMC,200345.00,A,3919.82554,N,08206.08968,W,000.8,197.8,050314,07.2,W,A*03
$PTNLRTF,V,A,331442,05,3,3919.82554,N,08206.08968,W,00247,-000.129,-000.400,-000.014,0,1*56
$PTNLRBA,1,1*57
$GPZDA,200346.00,05,03,2014,,*64
$GPGGA,200346.00,3919.82564,N,08206.08966,W,1,05,5.37,00247,M,-033,M,,*57
$GPVTG,200.9,T,208.1,M,000.1,N,000.2,K,A*20
$GPGSA,A,3,31,32,25,14,20,,,,,,,,7.57,5.36,5.34*06
$GPGSV,2,1,05,31,77,301,36,32,59,290,36,25,37,056,32,14,48,084,30*7E
$GPGSV,2,2,05,20,23,313,30,,,,,,,,,,,,*4D
$GPGST,200346.00,,140.50,094.81,088.8,011.85,009.74,010.91*48
$GPRMC,200346.00,A,3919.82564,N,08206.08966,W,000.1,200.9,050314,07.2,W,A*08
$PTNLRTF,V,A,331443,05,3,3919.82564,N,08206.08966,W,00247,-000.024,-000.064,-000.005,0,1*50
$PTNLRBA,1,1*57
$GPZDA,200348.00,05,03,2014,,*6A
$GPGGA,200348.00,3919.82552,N,08206.08935,W,1,05,5.36,00248,M,-033,M,,*54
$GPGLL,3919.82552,N,08206.08935,W,200348.00,A,A*77
$GPVTG,161.5,T,168.7,M,000.6,N,001.1,K,A*2E
$GPGSA,A,3,31,32,25,14,20,,,,,,,,7.56,5.36,5.34*07
$GPGSV,2,1,05,31,77,301,37,32,59,290,36,25,37,056,32,14,48,084,30*7F
$GPGSV,2,2,05,20,23,313,30,,,,,,,,,,,,*4D
$GPGST,200348.00,,151.98,105.97,088.6,012.33,010.30,011.40*49
$GPRMC,200348.00,A,3919.82552,N,08206.08935,W,000.6,161.5,050314,07.2,W,A*0A
$PTNLRTF,V,A,331444,05,3,3919.82552,N,08206.08935,W,00248,+000.101,-000.302,-000.016,0,1*5A
$PTNLRBA,1,1*57
$GPZDA,200349.00,05,03,2014,,*6B
$GPGGA,200349.00,3919.82541,N,08206.08913,W,1,05,5.35,00248,M,-033,M,,*50
$GPGLL,3919.82541,N,08206.08913,W,200349.00,A,A*70
$GPVTG,121.0,T,128.2,M,000.6,N,001.1,K,A*2E
$GPGSA,A,3,31,32,25,14,20,,,,,,,,7.56,5.35,5.33*03
$GPGSV,2,1,05,31,77,301,37,32,59,290,36,25,37,056,32,14,48,084,30*7F
$GPGSV,2,2,05,20,23,313,30,,,,,,,,,,,,*4D
$GPGST,200349.00,,156.60,110.50,088.5,012.51,010.51,011.59*4F
$GPRMC,200349.00,A,3919.82541,N,08206.08913,W,000.6,121.0,050314,07.2,W,A*0C
$PTNLRTF,V,A,331445,05,3,3919.82541,N,08206.08913,W,00248,+000.268,-000.161,+000.026,0,1*53
$PTNLRBA,1,1*57
$GPZDA,200350.00,05,03,2014,,*63
$GPGGA,200350.00,3919.82531,N,08206.08889,W,1,05,5.35,00248,M,-033,M,,*5D
$GPGLL,3919.82531,N,08206.08889,W,200350.00,A,A*7D
$GPVTG,132.8,T,140.0,M,000.8,N,001.5,K,A*22
$GPGSA,A,3,31,32,25,14,20,,,,,,,,7.54,5.34,5.33*00
$GPGSV,2,1,05,31,77,301,37,32,59,290,36,25,37,056,32,14,48,084,29*77
$GPGSV,2,2,05,20,23,313,30,,,,,,,,,,,,*4D
$GPGST,200350.00,,167.49,121.30,088.5,012.94,011.02,012.04*4F
$GPRMC,200350.00,A,3919.82531,N,08206.08889,W,000.8,132.8,050314,07.2,W,A*05
$PTNLRTF,V,A,331447,05,3,3919.82531,N,08206.08889,W,00248,+000.306,-000.283,+000.002,0,1*54
$PTNLRBA,1,1*57
$GPZDA,200351.00,05,03,2014,,*62
$GPGGA,200351.00,3919.82515,N,08206.08882,W,1,05,5.34,00248,M,-033,M,,*50
$GPVTG,147.5,T,154.7,M,000.6,N,001.0,K,A*24
$GPGSA,A,3,31,32,25,14,20,,,,,,,,7.54,5.34,5.32*01
$GPGSV,2,1,05,31,77,301,37,32,59,290,36,25,37,056,32,14,48,084,29*77
$GPGSV,2,2,05,20,23,313,30,,,,,,,,,,,,*4D
$GPGST,200351.00,,171.58,125.17,088.5,013.10,011.19,012.19*43
$GPRMC,200351.00,A,3919.82515,N,08206.08882,W,000.6,147.5,050314,07.2,W,A*08
$PTNLRTF,V,A,331448,05,3,3919.82515,N,08206.08882,W,00248,+000.154,-000.241,+000.007,0,1*58
$PTNLRBA,1,1*57
$GPZDA,200353.00,05,03,2014,,*60
$GPGGA,200353.00,3919.82481,N,08206.08875,W,1,05,5.33,00248,M,-033,M,,*51
$GPGLL,3919.82481,N,08206.08875,W,200353.00,A,A*77
$GPVTG,182.6,T,189.8,M,001.3,N,002.4,K,A*22
$GPGSA,A,3,31,32,25,14,20,,,,,,,,7.53,5.33,5.32*01
$GPGSV,2,1,05,31,77,301,37,32,59,290,36,25,37,056,31,14,48,084,29*74
$GPGSV,2,2,05,20,23,313,30,,,,,,,,,,,,*4D
$GPGST,200353.00,,177.28,130.50,088.4,013.31,011.43,012.39*48
$GPRMC,200353.00,A,3919.82481,N,08206.08875,W,001.3,182.6,050314,07.2,W,A*00
$PTNLRTF,V,A,331449,05,3,3919.82481,N,08206.08875,W,00248,-000.031,-000.675,-000.005,0,1*5E
$PTNLRBA,1,1*57
$GPZDA,200354.00,05,03,2014,,*67
$GPGGA,200354.00,3919.82489,N,08206.08876,W,1,05,5.33,00248,M,-033,M,,*5D
$GPGLL,3919.82489,N,08206.08876,W,200354.00,A,A*7B
$GPVTG,187.7,T,194.9,M,000.7,N,001.2,K,A*2B
$GPGSA,A,3,31,32,25,14,20,,,,,,,,7.52,5.33,5.31*03
$GPGSV,2,1,05,31,77,301,37,32,59,290,36,25,37,056,32,14,48,084,29*77
$GPGSV,2,2,05,20,23,313,29,,,,,,,,,,,,*45
$GPGST,200354.00,,172.96,125.95,088.4,013.15,011.22,012.20*4B
$GPRMC,200354.00,A,3919.82489,N,08206.08876,W,000.7,187.7,050314,07.2,W,A*0D
$PTNLRTF,V,A,331450,05,3,3919.82489,N,08206.08876,W,00248,-000.047,-000.344,+000.008,0,1*50
$PTNLRBA,1,1*57
$GPZDA,200355.00,05,03,2014,,*66
$GPGGA,200355.00,3919.82533,N,08206.08877,W,1,05,5.32,00248,M,-033,M,,*5C
$GPGLL,3919.82533,N,08206.08877,W,200355.00,A,A*7B
$GPVTG,336.5,T,343.7,M,000.2,N,000.4,K,A*25
$GPGSA,A,3,31,32,25,14,20,,,,,,,,7.51,5.32,5.31*01
$GPGSV,2,1,05,31,77,301,37,32,59,290,36,25,37,056,32,14,48,084,29*77
$GPGSV,2,2,05,20,23,313,29,,,,,,,,,,,,*45
$GPGST,200355.00,,169.69,122.64,088.5,013.03,011.08,012.06*43
$GPRMC,200355.00,A,3919.82533,N,08206.08877,W,000.2,336.5,050314,07.2,W,A*02
$PTNLRTF,V,A,331452,05,3,3919.82533,N,08206.08877,W,00248,-000.040,+000.092,-000.028,0,1*5E
$PTNLRBA,1,1*57
$GPZDA,200356.00,05,03,2014,,*65
$GPGGA,200356.00,3919.82547,N,08206.08891,W,1,05,5.32,00248,M,-033,M,,*54
$GPVTG,220.9,T,228.1,M,000.5,N,000.9,K,A*2F
$GPGSA,A,3,31,32,25,14,20,,,,,,,,7.50,5.31,5.30*02
$GPGSV,2,1,05,31,77,301,37,32,59,290,36,25,37,056,32,14,48,084,29*77
$GPGSV,2,2,05,20,23,313,30,,,,,,,,,,,,*4D
$GPGST,200356.00,,166.45,119.58,088.6,012.90,010.94,011.93*45
$GPRMC,200356.00,A,3919.82547,N,08206.08891,W,000.5,220.9,050314,07.2,W,A*07
$PTNLRTF,V,A,331453,05,3,3919.82547,N,08206.08891,W,00248,-000.165,-000.190,-000.032,0,1*5C
$PTNLRBA,1,1*57
$GPZDA,200358.00,05,03,2014,,*6B
$GPGGA,200358.00,3919.82501,N,08206.08866,W,1,05,5.31,00248,M,-033,M,,*53
$GPGLL,3919.82501,N,08206.08866,W,200358.00,A,A*77
$GPVTG,358.4,T,005.6,M,000.4,N,000.7,K,A*29
$GPGSA,A,3,31,32,25,14,20,,,,,,,,7.50,5.31,5.30*02
$GPGSV,2,1,05,31,77,301,38,32,59,290,36,25,37,056,32,14,48,084,29*78
$GPGSV,2,2,05,20,23,313,29,,,,,,,,,,,,*45
$GPGST,200358.00,,163.76,117.13,088.9,012.80,010.82,011.82*46
$GPRMC,200358.00,A,3919.82501,N,08206.08866,W,000.4,358.4,050314,07.2,W,A*01
$PTNLRTF,V,A,331454,05,3,3919.82501,N,08206.08866,W,00248,-000.006,+000.206,+000.025,0,1*5F
$PTNLRBA,1,1*57
$GPZDA,200359.00,05,03,2014,,*6A
$GPGGA,200359.00,3919.82531,N,08206.08874,W,1,05,5.30,00248,M,-033,M,,*53
$GPGLL,3919.82531,N,08206.08874,W,200359.00,A,A*76
$GPVTG,328.8,T,336.0,M,000.5,N,000.9,K,A*28
$GPGSA,A,3,31,32,25,14,20,,,,,,,,7.49,5.30,5.29*03
$GPGSV,2,1,05,31,77,301,38,32,59,290,36,25,37,056,32,14,48,084,29*78
$GPGSV,2,2,05,20,23,313,30,,,,,,,,,,,,*4D
$GPGST,200359.00,,171.41,124.96,089.0,013.09,011.18,012.14*4B
$GPRMC,200359.00,A,3919.82531,N,08206.08874,W,000.5,328.8,050314,07.2,W,A*0A
$PTNLRTF,V,A,331455,05,3,3919.82531,N,08206.08874,W,00248,-000.127,+000.210,+000.006,0,1*5A
$PTNLRBA,1,1*57
$GPZDA,200400.00,05,03,2014,,*61
$GPGGA,200400.00,3919.82572,N,08206.08865,W,1,05,5.30,00248,M,-033,M,,*5F
$GPGLL,3919.82572,N,08206.08865,W,200400.00,A,A*7A
$GPVTG,052.3,T,059.5,M,000.5,N,000.9,K,A*22
$GPGSA,A,3,31,32,25,14,20,,,,,,,,7.48,5.29,5.28*0B
$GPGSV,2,1,05,31,77,301,37,32,59,290,36,25,37,056,31,14,48,084,30*7C
$GPGSV,2,2,05,20,23,313,30,,,,,,,,,,,,*4D
$GPGST,200400.00,,176.95,130.59,089.0,013.30,011.43,012.37*4D
$GPRMC,200400.00,A,3919.82572,N,08206.08865,W,000.5,052.3,050314,07.2,W,A*03
$PTNLRTF,V,A,331457,05,3,3919.82572,N,08206.08865,W,00248,+000.195,+000.151,+000.002,0,1*52
$PTNLRBA,1,1*57
$GPZDA,200401.00,05,03,2014,,*60
$GPGGA,200401.00,3919.82541,N,08206.08855,W,1,05,5.29,00248,M,-033,M,,*55
$GPGLL,3919.82541,N,08206.08855,W,200401.00,A,A*78
$GPVTG,152.3,T,159.5,M,000.5,N,001.0,K,A*2A
$GPGSA,A,3,31,32,25,14,20,,,,,,,,7.47,5.29,5.28*04
$GPGSV,2,1,05,31,77,301,38,32,59,290,36,25,37,056,32,14,48,084,29*78
$GPGSV,2,2,05,20,23,313,29,,,,,,,,,,,,*45
$GPGST,200401.00,,170.86,124.29,089.0,013.07,011.15,012.10*48
$GPRMC,200401.00,A,3919.82541,N,08206.08855,W,000.5,152.3,050314,07.2,W,A*00
$PTNLRTF,V,A,331458,05,3,3919.82541,N,08206.08855,W,00248,+000.125,-000.239,+000.006,0,1*5A
$PTNLRBA,1,1*57
$GPZDA,200403.00,05,03,2014,,*62
$GPGLL,3919.82522,N,08206.08841,W,200403.00,A,A*7A
$GPVTG,148.9,T,156.1,M,000.6,N,001.2,K,A*21
$GPGSA,A,3,31,32,25,14,20,,,,,,,,7.47,5.28,5.28*05
$GPGSV,2,1,05,31,77,301,38,32,59,290,36,25,37,056,32,14,48,084,28*79
$GPGSV,2,2,05,20,23,313,29,,,,,,,,,,,,*45
$GPGST,200403.00,,168.06,121.51,089.1,012.96,011.02,011.98*4C
$GPRMC,200403.00,A,3919.82522,N,08206.08841,W,000.6,148.9,050314,07.2,W,A*00
$PTNLRTF,V,A,331459,05,3,3919.82522,N,08206.08841,W,00248,+000.169,-000.280,+000.007,0,1*50
$PTNLRBA,1,1*57
$GPZDA,200404.00,05,03,2014,,*65
$GPGGA,200404.00,3919.82512,N,08206.08817,W,1,05,5.28,00248,M,-033,M,,*51
$GPGLL,3919.82512,N,08206.08817,W,200404.00,A,A*7D
$GPGSA,A,3,31,32,25,14,20,,,,,,,,7.46,5.28,5.27*0B
$GPGSV,2,1,05,31,77,301,38,32,59,290,36,25,37,056,32,14,48,084,28*79
$GPGSV,2,2,05,20,23,313,29,,,,,,,,,,,,*45
$GPGST,200404.00,,172.58,125.98,089.1,013.14,011.22,012.16*46
$GPRMC,200404.00,A,3919.82512,N,08206.08817,W,000.5,124.8,050314,07.2,W,A*0F
$PTNLRTF,V,A,331460,05,3,3919.82512,N,08206.08817,W,00248,+000.225,-000.156,-000.001,0,1*59
$PTNLRBA,1,1*57
$GPZDA,200405.00,05,03,2014,,*64
$GPGGA,200405.00,3919.82481,N,08206.08817,W,1,05,5.27,00247,M,-033,M,,*5B
$GPGLL,3919.82481,N,08206.08817,W,200405.00,A,A*77
$GPVTG,190.9,T,198.1,M,000.6,N,001.1,K,A*25
$GPGSA,A,3,31,32,25,14,20,,,,,,,,7.45,5.27,5.26*06
$GPGSV,2,1,05,31,77,301,38,32,59,290,36,25,37,056,32,14,48,084,28*79
$GPGSV,2,2,05,20,23,313,30,,,,,,,,,,,,*4D
$GPGST,200405.00,,172.40,125.94,089.2,013.13,011.22,012.16*46
$GPRMC,200405.00,A,3919.82481,N,08206.08817,W,000.6,190.9,050314,07.2,W,A*08
$PTNLRTF,V,A,331462,05,3,3919.82481,N,08206.08817,W,00247,-000.060,-000.313,-000.006,0,1*5E
$PTNLRBA,1,1*57
$GPZDA,200407.00,05,03,2014,,*66
$GPGGA,200407.00,3919.82460,N,08206.08807,W,1,05,5.26,00247,M,-033,M,,*56
$GPGLL,3919.82460,N,08206.08807,W,200407.00,A,A*7B
$GPVTG,105.7,T,112.9,M,000.4,N,000.7,K,A*28
$GPGSA,A,3,31,32,25,14,20,,,,,,,,7.44,5.26,5.26*06
$GPGSV,2,1,05,31,77,301,37,32,59,290,37,25,37,056,32,14,48,084,28*77
$GPGSV,2,2,05,20,23,313,29,,,,,,,,,,,,*45
$GPGST,200407.00,,170.49,123.91,089.1,013.06,011.13,012.06*48
$GPRMC,200407.00,A,3919.82460,N,08206.08807,W,000.4,105.7,050314,07.2,W,A*04
$PTNLRTF,V,A,331463,05,3,3919.82460,N,08206.08807,W,00247,+000.179,-000.051,+000.021,0,1*58
$PTNLRBA,1,1*57
$GPZDA,200408.00,05,03,2014,,*69
$GPGLL,3919.82416,N,08206.08810,W,200408.00,A,A*73
$GPVTG,168.4,T,175.5,M,000.9,N,001.7,K,A*21
$GPGSA,A,3,31,32,25,14,20,,,,,,,,7.43,5.26,5.26*01
$GPGSV,2,1,05,31,77,301,38,32,59,290,37,25,37,056,32,14,48,084,28*78
$GPGSV,2,2,05,20,23,313,30,,,,,,,,,,,,*4D
$GPGST,200408.00,,174.56,127.75,089.1,013.21,011.30,012.22*41
$GPRMC,200408.00,A,3919.82416,N,08206.08810,W,000.9,168.4,050314,07.2,W,A*09
$PTNLRTF,V,A,331464,05,3,3919.82416,N,08206.08810,W,00247,+000.093,-000.449,-000.001,0,1*54
$PTNLRBA,1,1*57
$GPZDA,200409.00,05,03,2014,,*68
$GPGGA,200409.00,3919.82400,N,08206.08822,W,1,05,5.25,00247,M,-033,M,,*5A
$GPGLL,3919.82400,N,08206.08822,W,200409.00,A,A*74
$GPGSA,A,3,31,32,25,14,20,,,,,,,,7.43,5.25,5.25*01
$GPGSV,2,1,05,31,77,301,37,32,59,290,37,25,37,056,32,14,48,084,28*77
$GPGSV,2,2,05,20,23,313,29,,,,,,,,,,,,*45
$GPGST,200409.00,,169.26,122.50,089.2,013.01,011.07,012.00*4C
$GPRMC,200409.00,A,3919.82400,N,08206.08822,W,000.5,203.3,050314,07.2,W,A*0B
$PTNLRTF,V,A,331465,05,3,3919.82400,N,08206.08822,W,00247,-000.107,-000.250,-000.011,0,1*56
$PTNLRBA,1,1*57
$GPZDA,200410.00,05,03,2014,,*60
$GPGGA,200410.00,3919.82346,N,08206.08830,W,1,05,5.25,00247,M,-033,M,,*54
$GPGLL,3919.82346,N,08206.08830,W,200410.00,A,A*7A
$GPVTG,185.3,T,192.5,M,001.5,N,002.8,K,A*2D
$GPGSA,A,3,31,32,25,14,20,,,,,,,,7.42,5.24,5.24*00
$GPGSV,2,1,05,31,77,301,37,32,59,290,37,25,37,056,32,14,48,084,28*77
$GPGSV,2,2,05,20,23,313,29,,,,,,,,,,,,*45
$GPGST,200410.00,,173.92,127.22,089.3,013.19,011.28,012.19*4D
$GPRMC,200410.00,A,3919.82346,N,08206.08830,W,001.5,185.3,050314,07.2,W,A*09
$PTNLRTF,V,A,331467,05,3,3919.82346,N,08206.08830,W,00247,-000.070,-000.767,-000.019,0,1*5A
$PTNLRBA,1,1*57
$GPZDA,200412.00,05,03,2014,,*62
$GPGGA,200412.00,3919.82310,N,08206.08867,W,1,05,5.24,00247,M,-033,M,,*56
$GPGLL,3919.82310,N,08206.08867,W,200412.00,A,A*79
$GPVTG,215.8,T,223.0,M,000.7,N,001.3,K,A*2B
$GPGSA,A,3,31,32,25,14,20,,,,,,,,7.41,5.24,5.24*03
$GPGSV,2,1,05,31,77,301,38,32,59,290,38,25,37,056,33,14,48,084,28*76
$GPGSV,2,2,05,20,23,313,29,,,,,,,,,,,,*45
$GPGST,200412.00,,176.25,129.37,089.3,013.28,011.37,012.26*4C
$GPRMC,200412.00,A,3919.82310,N,08206.08867,W,000.7,215.8,050314,07.2,W,A*08
$PTNLRTF,V,A,331468,05,3,3919.82310,N,08206.08867,W,00247,-000.208,-000.289,-000.002,0,1*56
$PTNLRBA,1,1*57
$GPZDA,200413.00,05,03,2014,,*63
$GPGLL,3919.82352,N,08206.08875,W,200413.00,A,A*7D
$GPVTG,341.1,T,348.3,M,000.4,N,000.8,K,A*24
$GPGSA,A,3,31,32,25,14,20,,,,,,,,7.40,5.23,5.23*02
$GPGSV,2,1,05,31,77,301,38,32,59,290,37,25,37,056,33,14,48,084,29*78
$GPGSV,2,2,05,20,23,313,30,,,,,,,,,,,,*4D
$GPGST,200413.00,,179.86,133.08,089.4,013.41,011.54,012.41*40
$GPRMC,200413.00,A,3919.82352,N,08206.08875,W,000.4,341.1,050314,07.2,W,A*06
$PTNLRTF,V,A,331469,05,3,3919.82352,N,08206.08875,W,00247,-000.071,+000.208,-000.024,0,1*55
$PTNLRBA,1,1*57
$GPZDA,200414.00,05,03,2014,,*64
$GPGGA,200414.00,3919.82325,N,08206.08881,W,1,05,5.23,00246,M,-033,M,,*58
$GPGLL,3919.82325,N,08206.08881,W,200414.00,A,A*71
$GPVTG,325.6,T,332.8,M,000.1,N,000.2,K,A*28
$GPGSA,A,3,31,32,25,14,20,,,,,,,,7.39,5.22,5.23*0D
$GPGSV,2,1,05,31,77,302,38,32,59,289,38,25,37,056,32,14,47,084,28*73
$GPGSV,2,2,05,20,23,313,29,,,,,,,,,,,,*45
$GPGST,200414.00,,180.13,133.44,089.6,013.42,011.55,012.42*46
$GPRMC,200414.00,A,3919.82325,N,08206.08881,W,000.1,325.6,050314,07.2,W,A*0A
$PTNLRTF,V,A,331471,05,3,3919.82325,N,08206.08881,W,00246,-000.039,+000.057,+000.019,0,1*5A
$PTNLRBA,1,1*57
$GPZDA,200415.00,05,03,2014,,*65
$GPGGA,200415.00,3919.82324,N,08206.08874,W,1,05,5.22,00246,M,-033,M,,*53
$GPGLL,3919.82324,N,08206.08874,W,200415.00,A,A*7B
$GPVTG,116.3,T,123.5,M,000.3,N,000.6,K,A*26
$GPGSA,A,3,31,32,25,14,20,,,,,,,,7.38,5.22,5.22*0D
$GPGSV,2,1,05,31,77,302,38,32,59,289,37,25,37,056,32,14,47,084,29*7D
$GPGSV,2,2,05,20,23,313,29,,,,,,,,,,,,*45
$GPGST,200415.00,,181.04,134.23,089.6,013.45,011.59,012.45*4A
$GPRMC,200415.00,A,3919.82324,N,08206.08874,W,000.3,116.3,050314,07.2,W,A*05
$PTNLRTF,V,A,331472,05,3,3919.82324,N,08206.08874,W,00246,+000.144,-000.071,+000.012,0,1*56
$PTNLRBA,1,1*57
$GPZDA,200417.00,05,03,2014,,*67
$GPGLL,3919.82321,N,08206.08857,W,200417.00,A,A*7D
$GPVTG,129.8,T,137.0,M,000.6,N,001.1,K,A*22
$GPGSA,A,3,31,32,25,14,20,,,,,,,,7.38,5.21,5.22*0E
$GPGSV,2,1,05,31,77,302,38,32,59,289,37,25,37,056,32,14,47,084,28*7C
$GPGSV,2,2,05,20,23,313,29,,,,,,,,,,,,*45
$GPGST,200417.00,,184.16,137.53,089.6,013.57,011.73,012.58*4D
$GPRMC,200417.00,A,3919.82321,N,08206.08857,W,000.6,129.8,050314,07.2,W,A*01
$PTNLRTF,V,A,331473,05,3,3919.82321,N,08206.08857,W,00246,+000.242,-000.201,+000.028,0,1*5A
$PTNLRBA,1,1*57
$GPZDA,200418.00,05,03,2014,,*68
$GPGGA,200418.00,3919.82298,N,08206.08856,W,1,05,5.21,00246,M,-033,M,,*5B
$GPVTG,157.9,T,165.1,M,001.3,N,002.5,K,A*2F
$GPGSA,A,3,31,32,25,14,20,,,,,,,,7.37,5.21,5.21*02
$GPGSV,2,1,05,31,77,302,38,32,59,289,38,25,37,056,33,14,47,084,29*73
$GPGSV,2,2,05,20,23,313,29,,,,,,,,,,,,*45
$GPGST,200418.00,,180.29,133.85,089.7,013.43,011.57,012.43*4D
$GPRMC,200418.00,A,3919.82298,N,08206.08856,W,001.3,157.9,050314,07.2,W,A*00
$PTNLRTF,V,A,331474,05,3,3919.82298,N,08206.08856,W,00246,+000.258,-000.635,-000.008,0,1*53
$PTNLRBA,1,1*57
$GPZDA,200419.00,05,03,2014,,*69
$GPGGA,200419.00,3919.82336,N,08206.08862,W,1,05,5.21,00246,M,-033,M,,*58
$GPGLL,3919.82336,N,08206.08862,W,200419.00,A,A*73
$GPVTG,171.8,T,179.0,M,001.1,N,002.0,K,A*21
$GPGSA,A,3,31,32,25,14,20,,,,,,,,7.36,5.20,5.21*02
$GPGSV,2,1,05,31,77,302,38,32,59,289,38,25,37,056,32,14,47,084,29*72
$GPGSV,2,2,05,20,23,313,28,,,,,,,,,,,,*44
$GPGST,200419.00,,198.73,152.15,089.9,014.10,012.34,013.14*4E
$GPRMC,200419.00,A,3919.82336,N,08206.08862,W,001.1,171.8,050314,07.2,W,A*04
$PTNLRTF,V,A,331476,05,3,3919.82336,N,08206.08862,W,00246,+000.078,-000.543,-000.053,0,1*5F
$PTNLRBA,1,1*57
$GPZDA,200421.00,05,03,2014,,*62
$GPGGA,200421.00,3919.82335,N,08206.08891,W,1,05,5.20,00246,M,-033,M,,*5D
$GPVTG,307.3,T,314.5,M,000.4,N,000.7,K,A*24
$GPGSA,A,3,31,32,25,14,20,,,,,,,,7.35,5.20,5.20*00
$GPGSV,2,1,05,31,77,302,38,32,59,289,38,25,37,056,32,14,47,084,30*7A
$GPGSV,2,2,05,20,23,313,27,,,,,,,,,,,,*4B
$GPGST,200421.00,,195.68,149.18,089.8,013.99,012.21,013.02*41
$GPRMC,200421.00,A,3919.82335,N,08206.08891,W,000.4,307.3,050314,07.2,W,A*0C
$PTNLRTF,V,A,331477,05,3,3919.82335,N,08206.08891,W,00246,-000.166,+000.126,-000.011,0,1*5E
$PTNLRBA,1,1*57
$GPZDA,200422.00,05,03,2014,,*61
$GPGGA,200422.00,3919.82276,N,08206.08877,W,1,05,5.19,00245,M,-033,M,,*59
$GPGLL,3919.82276,N,08206.08877,W,200422.00,A,A*7A
$GPVTG,162.9,T,170.1,M,001.2,N,002.2,K,A*2B
$GPGSA,A,3,31,32,25,14,20,,,,,,,,7.35,5.19,5.20*0A
$GPGSV,2,1,05,31,77,302,38,32,59,289,38,25,37,056,32,14,47,084,29*72
$GPGSV,2,2,05,20,23,313,28,,,,,,,,,,,,*44
$GPGST,200422.00,,196.48,149.88,089.7,014.02,012.24,013.05*42
$GPRMC,200422.00,A,3919.82276,N,08206.08877,W,001.2,162.9,050314,07.2,W,A*0D
$PTNLRTF,V,A,331478,05,3,3919.82276,N,08206.08877,W,00245,+000.177,-000.577,+000.026,0,1*5E
$PTNLRBA,1,1*57
$GPZDA,200423.00,05,03,2014,,*60
$GPGGA,200423.00,3919.82216,N,08206.08863,W,1,05,5.19,00245,M,-033,M,,*5B
$GPGLL,3919.82216,N,08206.08863,W,200423.00,A,A*78
$GPVTG,175.4,T,182.6,M,001.2,N,002.2,K,A*2A
$GPGSA,A,3,31,32,25,14,20,,,,,,,,7.34,5.19,5.19*01
$GPGSV,2,1,05,31,77,302,38,32,59,289,38,25,37,056,32,14,47,084,29*72
$GPGSV,2,2,05,20,23,313,28,,,,,,,,,,,,*44
$GPGST,200423.00,,194.65,148.04,089.8,013.95,012.17,012.97*47
$GPRMC,200423.00,A,3919.82216,N,08206.08863,W,001.2,175.4,050314,07.2,W,A*04
$PTNLRTF,V,A,331479,05,3,3919.82216,N,08206.08863,W,00245,+000.051,-000.622,+000.040,0,1*5A
$PTNLRBA,1,1*57
$GPZDA,200424.00,05,03,2014,,*67
$GPGGA,200424.00,3919.82205,N,08206.08856,W,1,05,5.18,00245,M,-033,M,,*59
$GPGLL,3919.82205,N,08206.08856,W,200424.00,A,A*7B
$GPVTG,157.9,T,165.1,M,001.3,N,002.3,K,A*29
$GPGSA,A,3,31,32,25,14,20,,,,,,,,7.33,5.18,5.19*07
$GPGSV,2,1,05,31,77,302,39,32,59,289,38,25,37,056,33,14,47,084,29*72
$GPGSV,2,2,05,20,23,313,28,,,,,,,,,,,,*44
$GPGST,200424.00,,193.88,147.44,089.7,013.92,012.14,012.95*46
$GPRMC,200424.00,A,3919.82205,N,08206.08856,W,001.3,157.9,050314,07.2,W,A*0B
$PTNLRTF,V,A,331481,05,3,3919.82205,N,08206.08856,W,00245,+000.246,-000.604,-000.018,0,1*52
$PTNLRBA,1,1*57
$GPZDA,200425.00,05,03,2014,,*66
$GPGGA,200425.00,3919.82211,N,08206.08862,W,1,05,5.18,00245,M,-033,M,,*5A
$GPVTG,126.8,T,134.0,M,000.2,N,000.4,K,A*2E
$GPGSA,A,3,31,32,25,14,20,,,,,,,,7.32,5.17,5.18*08
$GPGSV,2,1,05,31,77,302,38,32,59,289,38,25,37,056,32,14,47,084,28*73
$GPGSV,2,2,05,20,23,313,27,,,,,,,,,,,,*4B
$GPGST,200425.00,,192.83,146.52,089.6,013.89,012.10,012.91*40
$GPRMC,200425.00,A,3919.82211,N,08206.08862,W,000.2,126.8,050314,07.2,W,A*0F
$PTNLRTF,V,A,331482,05,3,3919.82211,N,08206.08862,W,00245,+000.084,-000.063,-000.020,0,1*53
$PTNLRBA,1,1*57
$GPZDA,200427.00,05,03,2014,,*64
$GPGGA,200427.00,3919.82208,N,08206.08868,W,1,05,5.17,00245,M,-033,M,,*55
$GPGLL,3919.82208,N,08206.08868,W,200427.00,A,A*78
$GPVTG,227.1,T,234.3,M,000.2,N,000.4,K,A*25
$GPGSA,A,3,31,32,25,14,20,,,,,,,,7.32,5.17,5.18*08
$GPGSV,2,1,05,31,77,302,38,32,59,289,38,25,37,056,32,14,47,084,29*72
$GPGSV,2,2,05,20,23,313,28,,,,,,,,,,,,*44
$GPGST,200427.00,,187.22,141.08,089.5,013.68,011.88,012.69*4C
$GPRMC,200427.00,A,3919.82208,N,08206.08868,W,000.2,227.1,050314,07.2,W,A*04
$PTNLRTF,V,A,331483,05,3,3919.82208,N,08206.08868,W,00245,-000.080,-000.075,-000.005,0,1*52
$PTNLRBA,1,1*57
$GPZDA,200428.00,05,03,2014,,*6B
$GPGGA,200428.00,3919.82235,N,08206.08874,W,1,05,5.16,00245,M,-033,M,,*58
$GPGLL,3919.82235,N,08206.08874,W,200428.00,A,A*74
$GPVTG,344.1,T,351.3,M,000.1,N,000.3,K,A*27
$GPGSA,A,3,31,32,25,14,20,,,,,,,,7.31,5.16,5.17*05
$GPGSV,2,1,05,31,77,302,38,32,59,289,38,25,37,056,32,14,47,084,29*72
$GPGSV,2,2,05,20,23,313,27,,,,,,,,,,,,*4B
$GPGST,200428.00,,199.15,153.10,089.4,014.11,012.37,013.15*47
$GPRMC,200428.00,A,3919.82235,N,08206.08874,W,000.1,344.1,050314,07.2,W,A*0F
$PTNLRTF,V,A,331484,05,3,3919.82235,N,08206.08874,W,00245,-000.020,+000.070,+000.002,0,1*5E
$PTNLRBA,1,1*57
$GPZDA,200429.00,05,03,2014,,*6A
$GPGGA,200429.00,3919.82256,N,08206.08891,W,1,05,5.16,00245,M,-033,M,,*57
$GPGLL,3919.82256,N,08206.08891,W,200429.00,A,A*7B
$GPVTG,214.5,T,221.7,M,000.3,N,000.6,K,A*22
$GPGSA,A,3,31,32,25,14,20,,,,,,,,7.30,5.15,5.17*07
$GPGSV,2,1,05,31,77,302,38,32,59,289,38,25,37,056,32,14,47,084,29*72
$GPGSV,2,2,05,20,23,313,27,,,,,,,,,,,,*4B
$GPGST,200429.00,,206.91,160.81,089.5,014.38,012.68,013.44*43
$GPRMC,200429.00,A,3919.82256,N,08206.08891,W,000.3,214.5,050314,07.2,W,A*02
$PTNLRTF,V,A,331486,05,3,3919.82256,N,08206.08891,W,00245,-000.095,-000.139,+000.002,0,1*56
$PTNLRBA,1,1*57
$GPZDA,200430.00,05,03,2014,,*62
$GPGGA,200430.00,3919.82256,N,08206.08899,W,1,05,5.15,00245,M,-033,M,,*54
$GPVTG,196.5,T,203.7,M,000.2,N,000.4,K,A*28
$GPGSA,A,3,31,32,25,14,20,,,,,,,,7.29,5.15,5.16*0E
$GPGSV,2,1,05,31,77,302,38,32,59,289,38,25,37,056,32,14,47,084,29*72
$GPGSV,2,2,05,20,23,313,26,,,,,,,,,,,,*4A
$GPGST,200430.00,,218.21,172.00,089.5,014.77,013.11,013.85*4C
$GPRMC,200430.00,A,3919.82256,N,08206.08899,W,000.2,196.5,050314,07.2,W,A*0A
$PTNLRTF,V,A,331487,05,3,3919.82256,N,08206.08899,W,00245,-000.030,-000.101,-000.007,0,1*58
$PTNLRBA,1,1*57
$GPZDA,200432.00,05,03,2014,,*60
$GPGGA,200432.00,3919.82361,N,08206.08916,W,1,05,5.14,00245,M,-033,M,,*54
$GPGLL,3919.82361,N,08206.08916,W,200432.00,A,A*7A
$GPVTG,005.5,T,012.7,M,000.8,N,001.5,K,A*2B
$GPGSA,A,3,31,32,25,14,20,,,,,,,,7.29,5.14,5.16*0F
$GPGSV,2,1,05,31,77,302,38,32,59,289,38,25,37,056,32,14,47,084,29*72
$GPGSV,2,2,05,20,23,313,26,,,,,,,,,,,,*4A
$GPGST,200432.00,,221.95,175.51,089.4,014.90,013.25,013.97*44
$GPRMC,200432.00,A,3919.82361,N,08206.08916,W,000.8,005.5,050314,07.2,W,A*0A
$PTNLRTF,V,A,331488,05,3,3919.82361,N,08206.08916,W,00245,+000.040,+000.415,+000.020,0,1*50
$PTNLRBA,1,1*57
$GPZDA,200433.00,05,03,2014,,*61
$GPGGA,200433.00,3919.82354,N,08206.08913,W,1,05,5.14,00245,M,-033,M,,*56
$GPGLL,3919.82354,N,08206.08913,W,200433.00,A,A*78
$GPVTG,068.1,T,075.3,M,000.1,N,000.1,K,A*2D
$GPGSA,A,3,31,32,25,14,20,,,,,,,,7.28,5.14,5.16*0E
$GPGSV,2,1,05,31,77,302,38,32,59,289,38,25,37,056,32,14,47,084,29*72
$GPGSV,2,2,05,20,23,313,26,,,,,,,,,,,,*4A
$GPGST,200433.00,,216.38,169.82,089.5,014.71,013.03,013.76*40
$GPRMC,200433.00,A,3919.82354,N,08206.08913,W,000.1,068.1,050314,07.2,W,A*0E
$PTNLRTF,V,A,331489,05,3,3919.82354,N,08206.08913,W,00245,+000.039,+000.016,-000.004,0,1*5B
$PTNLRBA,1,1*57
$GPZDA,200434.00,05,03,2014,,*66
$GPGGA,200434.00,3919.82330,N,08206.08924,W,1,05,5.14,00245,M,-033,M,,*57
$GPGLL,3919.82330,N,08206.08924,W,200434.00,A,A*79
$GPVTG,211.6,T,218.8,M,000.6,N,001.1,K,A*22
$GPGSA,A,3,31,32,25,14,20,,,,,,,,7.27,5.13,5.15*05
$GPGSV,2,1,05,31,77,302,38,32,59,289,38,25,37,056,32,14,47,084,29*72
$GPGSV,2,2,05,20,23,313,26,,,,,,,,,,,,*4A
$GPGST,200434.00,,207.42,161.04,089.4,014.40,012.69,013.43*44
$GPRMC,200434.00,A,3919.82330,N,08206.08924,W,000.6,211.6,050314,07.2,W,A*03
$PTNLRTF,V,A,331491,05,3,3919.82330,N,08206.08924,W,00245,-000.164,-000.267,-000.007,0,1*5A
$PTNLRBA,1,1*57
$GPZDA,200435.00,05,03,2014,,*67
$GPGGA,200435.00,3919.82294,N,08206.08915,W,1,05,5.13,00244,M,-033,M,,*5D
$GPVTG,165.1,T,172.3,M,000.6,N,001.2,K,A*22
$GPGSA,A,3,31,32,25,14,20,,,,,,,,7.26,5.13,5.14*05
$GPGSV,2,1,05,31,77,302,38,32,59,289,39,25,37,056,32,14,47,084,29*73
$GPGSV,2,2,05,20,23,313,25,,,,,,,,,,,,*49
$GPGST,200435.00,,212.16,165.74,089.5,014.57,012.87,013.60*45
$GPRMC,200435.00,A,3919.82294,N,08206.08915,W,000.6,165.1,050314,07.2,W,A*08
$PTNLRTF,V,A,331492,05,3,3919.82294,N,08206.08915,W,00244,+000.085,-000.318,+000.017,0,1*53
$PTNLRBA,1,1*57
$GPZDA,200437.00,05,03,2014,,*65
$GPGGA,200437.00,3919.82270,N,08206.08905,W,1,05,5.12,00244,M,-033,M,,*55
$GPGLL,3919.82270,N,08206.08905,W,200437.00,A,A*7C
$GPVTG,195.1,T,202.3,M,000.5,N,000.8,K,A*21
$GPGSA,A,3,31,32,25,14,20,,,,,,,,7.26,5.12,5.14*04
$GPGSV,2,1,05,31,77,302,38,32,59,289,38,25,37,056,31,14,47,084,29*71
$GPGSV,2,2,05,20,23,313,26,,,,,,,,,,,,*4A
$GPGST,200437.00,,219.01,171.85,089.6,014.80,013.11,013.82*4A
$GPRMC,200437.00,A,3919.82270,N,08206.08905,W,000.5,195.1,050314,07.2,W,A*0D
$PTNLRTF,V,A,331493,05,3,3919.82270,N,08206.08905,W,00244,-000.061,-000.225,-000.007,0,1*5D
$PTNLRBA,1,1*57
$GPZDA,200438.00,05,03,2014,,*6A
$GPGGA,200438.00,3919.82270,N,08206.08896,W,1,05,5.12,00244,M,-033,M,,*51
$GPGLL,3919.82270,N,08206.08896,W,200438.00,A,A*78
$GPVTG,095.0,T,102.2,M,000.1,N,000.3,K,A*2C
$GPGSA,A,3,31,32,25,14,20,,,,,,,,7.25,5.12,5.14*07
$GPGSV,2,1,05,31,77,302,38,32,59,289,38,25,37,056,30,14,47,084,30*78
$GPGSV,2,2,05,20,23,313,26,,,,,,,,,,,,*4A
$GPGST,200438.00,,212.09,164.22,089.6,014.56,012.81,013.53*40
$GPRMC,200438.00,A,3919.82270,N,08206.08896,W,000.1,095.0,050314,07.2,W,A*0D
$PTNLRTF,V,A,331494,05,3,3919.82270,N,08206.08896,W,00244,+000.072,-000.006,+000.010,0,1*56
$PTNLRBA,1,1*57
$GPZDA,200439.00,05,03,2014,,*6B
$GPGGA,200439.00,3919.82230,N,08206.08904,W,1,05,5.11,00244,M,-033,M,,*5D
$GPGLL,3919.82230,N,08206.08904,W,200439.00,A,A*77
$GPVTG,224.4,T,231.6,M,000.7,N,001.2,K,A*21
$GPGSA,A,3,31,32,25,14,20,,,,,,,,7.24,5.11,5.13*02
$GPGSV,2,1,05,31,77,302,38,32,59,289,38,25,37,056,30,14,47,084,30*78
$GPGSV,2,2,05,20,23,313,26,,,,,,,,,,,,*4A
$GPGST,200439.00,,211.36,163.42,089.7,014.54,012.78,013.50*49
$GPRMC,200439.00,A,3919.82230,N,08206.08904,W,000.7,224.4,050314,07.2,W,A*08
$PTNLRTF,V,A,331496,05,3,3919.82230,N,08206.08904,W,00244,-000.239,-000.244,-000.001,0,1*53
$PTNLRBA,1,1*57
$GPZDA,200440.00,05,03,2014,,*65
$GPGGA,200440.00,3919.82241,N,08206.08891,W,1,05,5.11,00244,M,-033,M,,*58
$GPVTG,152.5,T,159.7,M,000.5,N,001.0,K,A*2E
$GPGSA,A,3,31,32,25,14,20,,,,,,,,7.23,5.10,5.12*05
$GPGSV,2,1,05,31,77,302,38,32,59,289,39,25,37,056,30,14,47,084,29*71
$GPGSV,2,2,05,20,23,313,26,,,,,,,,,,,,*4A
$GPGST,200440.00,,216.34,168.43,089.8,014.71,012.98,013.68*45
$GPRMC,200440.00,A,3919.82241,N,08206.08891,W,000.5,152.5,050314,07.2,W,A*0C
$PTNLRTF,V,A,331497,05,3,3919.82241,N,08206.08891,W,00244,+000.129,-000.248,+000.003,0,1*55
$PTNLRBA,1,1*57
$GPZDA,200442.00,05,03,2014,,*67
$GPGGA,200442.00,3919.82292,N,08206.08877,W,1,05,5.10,00244,M,-033,M,,*5D
$GPGLL,3919.82292,N,08206.08877,W,200442.00,A,A*76
$GPVTG,042.8,T,050.0,M,000.1,N,000.2,K,A*2B
$GPGSA,A,3,31,32,25,14,20,,,,,,,,7.23,5.10,5.12*05
$GPGSV,2,1,05,31,77,302,39,32,59,289,39,25,37,056,30,14,47,084,29*70
$GPGSV,2,2,05,20,23,313,26,,,,,,,,,,,,*4A
$GPGST,200442.00,,235.33,186.41,089.9,015.34,013.65,014.32*49
$GPRMC,200442.00,A,3919.82292,N,08206.08877,W,000.1,042.8,050314,07.2,W,A*01
$PTNLRTF,V,A,331498,05,3,3919.82292,N,08206.08877,W,00244,+000.039,+000.042,+000.000,0,1*51
$PTNLRBA,1,1*57
$GPZDA,200443.00,05,03,2014,,*66
$GPGGA,200443.00,3919.82350,N,08206.08877,W,1,05,5.09,00244,M,-033,M,,*5B
$GPGLL,3919.82350,N,08206.08877,W,200443.00,A,A*78
$GPVTG,354.1,T,001.3,M,001.1,N,002.1,K,A*21
$GPGSA,A,3,31,32,25,14,20,,,,,,,,7.22,5.09,5.12*0C
$GPGSV,2,1,05,31,77,302,38,32,59,289,38,25,37,056,29,14,47,084,30*70
$GPGSV,2,2,05,20,23,313,28,,,,,,,,,,,,*44
$GPGST,200443.00,,233.06,184.05,090.0,015.27,013.57,014.23*48
$GPRMC,200443.00,A,3919.82350,N,08206.08877,W,001.1,354.1,050314,07.2,W,A*03
$PTNLRTF,V,A,331499,05,3,3919.82350,N,08206.08877,W,00244,-000.060,+000.580,-000.021,0,1*5B
$PTNLRBA,1,1*57
$GPZDA,200444.00,05,03,2014,,*61
$GPGGA,200444.00,3919.82399,N,08206.08864,W,1,05,5.09,00243,M,-033,M,,*5C
$GPGLL,3919.82399,N,08206.08864,W,200444.00,A,A*78
$GPVTG,007.4,T,014.6,M,001.2,N,002.2,K,A*20
$GPGSA,A,3,31,32,25,14,20,,,,,,,,7.21,5.08,5.11*0D
$GPGSV,2,1,05,31,77,302,39,32,59,289,38,25,37,056,29,14,47,084,29*79
$GPGSV,2,2,05,20,23,313,27,,,,,,,,,,,,*4B
$GPGST,200444.00,,253.94,204.96,089.9,015.94,014.32,014.94*42
$GPRMC,200444.00,A,3919.82399,N,08206.08864,W,001.2,007.4,050314,07.2,W,A*00
$PTNLRTF,V,A,331501,05,3,3919.82399,N,08206.08864,W,00243,+000.077,+000.593,+000.016,0,1*5B
$PTNLRBA,1,1*57
$GPZDA,200445.00,05,03,2014,,*60
$GPGGA,200445.00,3919.82427,N,08206.08845,W,1,05,5.08,00243,M,-033,M,,*5D
$GPGLL,3919.82427,N,08206.08845,W,200445.00,A,A*78
$GPVTG,022.1,T,029.3,M,000.9,N,001.7,K,A*25
$GPGSA,A,3,31,32,25,14,20,,,,,,,,7.20,5.08,5.10*0D
$GPGSV,2,1,05,31,77,302,39,32,59,289,38,25,37,056,30,14,47,084,28*70
$GPGSV,2,2,05,20,23,313,27,,,,,,,,,,,,*4B
$GPGST,200445.00,,260.53,211.43,089.8,016.14,014.54,015.15*46
$GPRMC,200445.00,A,3919.82427,N,08206.08845,W,000.9,022.1,050314,07.2,W,A*08
$PTNLRTF,V,A,331502,05,3,3919.82427,N,08206.08845,W,00243,+000.176,+000.434,+000.002,0,1*50
$PTNLRBA,1,1*57
$GPZDA,200447.00,05,03,2014,,*62
$GPGLL,3919.82468,N,08206.08829,W,200447.00,A,A*7B
$GPVTG,001.2,T,008.4,M,001.1,N,002.0,K,A*2E
$GPGSA,A,3,31,32,25,14,20,,,,,,,,7.20,5.08,5.10*0D
$GPGSV,2,1,05,31,77,303,38,32,59,289,38,25,37,056,29,14,47,085,28*79
$GPGSV,2,2,05,20,23,313,27,,,,,,,,,,,,*4B
$GPGST,200447.00,,270.67,221.38,089.6,016.45,014.88,015.47*41
$GPRMC,200447.00,A,3919.82468,N,08206.08829,W,001.1,001.2,050314,07.2,W,A*00
$PTNLRTF,V,A,331503,05,3,3919.82468,N,08206.08829,W,00243,+000.012,+000.554,+000.006,0,1*50
$PTNLRBA,1,1*57
$GPZDA,200448.00,05,03,2014,,*6D
$GPGGA,200448.00,3919.82457,N,08206.08809,W,1,05,5.07,00243,M,-033,M,,*50
$GPGLL,3919.82457,N,08206.08809,W,200448.00,A,A*7A
$GPGSA,A,3,31,32,25,14,20,,,,,,,,7.19,5.07,5.10*08
$GPGSV,2,1,05,31,77,303,38,32,59,289,39,25,37,056,29,14,47,085,29*79
$GPGSV,2,2,05,20,23,313,27,,,,,,,,,,,,*4B
$GPGST,200448.00,,275.02,225.64,089.6,016.58,015.02,015.61*4E
$GPRMC,200448.00,A,3919.82457,N,08206.08809,W,000.4,106.1,050314,07.2,W,A*00
$PTNLRTF,V,A,331504,05,3,3919.82457,N,08206.08809,W,00243,+000.175,-000.050,-000.017,0,1*58
$PTNLRBA,1,1*57
$GPZDA,200449.00,05,03,2014,,*6C
$GPGGA,200449.00,3919.82411,N,08206.08787,W,1,05,5.07,00243,M,-033,M,,*5A
$GPGLL,3919.82411,N,08206.08787,W,200449.00,A,A*70
$GPVTG,162.1,T,169.3,M,001.2,N,002.3,K,A*28
$GPGSA,A,3,31,32,25,14,20,,,,,,,,7.18,5.06,5.09*00
$GPGSV,2,1,05,31,77,303,38,32,59,289,38,25,37,056,29,14,47,085,29*78
$GPGSV,2,2,05,20,23,313,27,,,,,,,,,,,,*4B
$GPGST,200449.00,,275.92,226.47,089.6,016.61,015.05,015.63*4B
$GPRMC,200449.00,A,3919.82411,N,08206.08787,W,001.2,162.1,050314,07.2,W,A*0F
$PTNLRTF,V,A,331506,05,3,3919.82411,N,08206.08787,W,00243,+000.198,-000.612,+000.010,0,1*53
$PTNLRBA,1,1*57
$GPZDA,200451.00,05,03,2014,,*65
$GPGGA,200451.00,3919.82460,N,08206.08772,W,1,05,5.06,00243,M,-033,M,,*5E
$GPGLL,3919.82460,N,08206.08772,W,200451.00,A,A*75
$GPVTG,225.2,T,232.4,M,000.3,N,000.6,K,A*26
$GPGSA,A,3,31,32,25,14,20,,,,,,,,7.17,5.06,5.09*0F
$GPGSV,2,1,05,31,77,303,38,32,59,289,38,25,37,056,27,14,47,085,29*76
$GPGSV,2,2,05,20,23,313,27,,,,,,,,,,,,*4B
$GPGST,200451.00,,279.85,230.13,089.4,016.73,015.17,015.74*4A
$GPRMC,200451.00,A,3919.82460,N,08206.08772,W,000.3,225.2,050314,07.2,W,A*09
$PTNLRTF,V,A,331507,05,3,3919.82460,N,08206.08772,W,00243,-000.127,-000.126,-000.018,0,1*52
$PTNLRBA,1,1*57
$GPZDA,200452.00,05,03,2014,,*66
$GPGLL,3919.82415,N,08206.08770,W,200452.00,A,A*76
$GPVTG,195.6,T,202.8,M,001.1,N,002.0,K,A*22
$GPGSA,A,3,31,32,25,14,20,,,,,,,,7.17,5.05,5.08*0D
$GPGSV,2,1,05,31,77,303,38,32,59,289,38,25,37,056,26,14,47,085,29*77
$GPGSV,2,2,05,20,23,313,27,,,,,,,,,,,,*4B
$GPGST,200452.00,,307.43,257.60,089.3,017.53,016.05,016.59*46
$GPRMC,200452.00,A,3919.82415,N,08206.08770,W,001.1,195.6,050314,07.2,W,A*05
$PTNLRTF,V,A,331508,05,3,3919.82415,N,08206.08770,W,00242,-000.147,-000.527,+000.021,0,1*53
$PTNLRBA,1,1*57
$GPZDA,200453.00,05,03,2014,,*67
$GPGGA,200453.00,3919.82420,N,08206.08749,W,1,05,5.05,00242,M,-033,M,,*52
$GPGLL,3919.82420,N,08206.08749,W,200453.00,A,A*7B
$GPGSA,A,3,31,32,25,14,20,,,,,,,,7.16,5.05,5.08*0C
$GPGSV,2,1,05,31,77,303,38,32,59,289,38,25,37,056,26,14,47,085,29*77
$GPGSV,2,2,05,20,23,313,26,,,,,,,,,,,,*4A
$GPGST,200453.00,,302.54,252.60,089.2,017.39,015.89,016.43*40
$GPRMC,200453.00,A,3919.82420,N,08206.08749,W,000.6,090.4,050314,07.2,W,A*08
$PTNLRTF,V,A,331509,05,3,3919.82420,N,08206.08749,W,00242,+000.289,-000.002,+000.006,0,1*5E
$PTNLRBA,1,1*57
$GPZDA,200454.00,05,03,2014,,*60
$GPGGA,200454.00,3919.82440,N,08206.08751,W,1,05,5.04,00242,M,-033,M,,*5B
$GPGLL,3919.82440,N,08206.08751,W,200454.00,A,A*73
$GPVTG,355.2,T,002.4,M,000.3,N,000.6,K,A*21
$GPGSA,A,3,31,32,25,14,20,,,,,,,,7.15,5.04,5.07*01
$GPGSV,2,1,05,31,77,303,37,32,59,289,38,25,37,056,26,14,47,085,30*70
$GPGSV,2,2,05,20,23,313,28,,,,,,,,,,,,*44
$GPGST,200454.00,,291.33,241.07,089.0,017.07,015.53,016.07*46
$GPRMC,200454.00,A,3919.82440,N,08206.08751,W,000.3,355.2,050314,07.2,W,A*09
$PTNLRTF,V,A,331511,05,3,3919.82440,N,08206.08751,W,00242,-000.013,+000.153,-000.004,0,1*58
$PTNLRBA,1,1*57
$GPZDA,200456.00,05,03,2014,,*62
$GPGGA,200456.00,3919.82413,N,08206.08712,W,1,04,5.17,00242,M,-033,M,,*5B
$GPGLL,3919.82413,N,08206.08712,W,200456.00,A,A*70
$GPVTG,120.2,T,127.4,M,000.6,N,001.0,K,A*25
$GPGSA,A,3,31,25,14,20,,,,,,,,,7.24,5.17,5.07*00
$GPGSV,2,1,05,31,77,303,38,32,59,289,38,25,37,056,27,14,47,085,29*76
$GPGSV,2,2,05,20,23,313,27,,,,,,,,,,,,*4B
$GPGST,200456.00,,263.46,212.81,088.6,016.23,014.59,015.16*4B
$GPRMC,200456.00,A,3919.82413,N,08206.08712,W,000.6,120.2,050314,07.2,W,A*0F
$PTNLRTF,V,A,331512,04,3,3919.82413,N,08206.08712,W,00242,+000.249,-000.145,+000.013,0,1*51
$PTNLRBA,1,1*57
$GPZDA,200457.00,05,03,2014,,*63
$GPGLL,3919.82443,N,08206.08732,W,200457.00,A,A*76
$GPVTG,237.8,T,245.0,M,000.7,N,001.2,K,A*2A
$GPGSA,A,3,31,25,14,20,,,,,,,,,7.23,5.16,5.07*06
$GPGSV,2,1,05,31,77,303,37,32,59,289,38,25,37,056,26,14,47,085,30*70
$GPGSV,2,2,05,20,23,313,29,,,,,,,,,,,,*45
$GPGST,200457.00,,271.19,220.66,088.5,016.47,014.86,015.41*4A
$GPRMC,200457.00,A,3919.82443,N,08206.08732,W,000.7,237.8,050314,07.2,W,A*07
$PTNLRTF,V,A,331513,04,3,3919.82443,N,08206.08732,W,00242,-000.292,-000.184,+000.011,0,1*58
$PTNLRBA,1,1*57
$GPZDA,200458.00,05,03,2014,,*6C
$GPGGA,200458.00,3919.82458,N,08206.08752,W,1,05,5.03,00242,M,-033,M,,*5A
$GPGLL,3919.82458,N,08206.08752,W,200458.00,A,A*75
$GPVTG,283.1,T,290.3,M,000.4,N,000.7,K,A*20
$GPGSA,A,3,31,32,25,14,20,,,,,,,,7.13,5.02,5.06*00
$GPGSV,2,1,05,31,77,303,38,32,59,289,38,25,37,056,26,14,47,085,29*77
$GPGSV,2,2,05,20,23,313,28,,,,,,,,,,,,*44
$GPGST,200458.00,,266.54,215.89,088.5,016.33,014.69,015.25*4D
$GPRMC,200458.00,A,3919.82458,N,08206.08752,W,000.4,283.1,050314,07.2,W,A*01
$PTNLRTF,V,A,331515,05,3,3919.82458,N,08206.08752,W,00242,-000.182,+000.042,+000.000,0,1*5C
$PTNLRBA,1,1*57
$GPZDA,200459.00,05,03,2014,,*6D
$GPGGA,200459.00,3919.82463,N,08206.08752,W,1,05,5.02,00242,M,-033,M,,*52
$GPGLL,3919.82463,N,08206.08752,W,200459.00,A,A*7C
$GPVTG,166.0,T,173.2,M,000.5,N,000.9,K,A*29
$GPGSA,A,3,31,32,25,14,20,,,,,,,,7.12,5.02,5.05*02
$GPGSV,2,1,05,31,77,303,37,32,59,289,38,25,37,056,27,14,47,085,29*79
$GPGSV,2,2,05,20,23,313,29,,,,,,,,,,,,*45
$GPGST,200459.00,,263.11,212.41,088.4,016.22,014.58,015.13*4D
$GPRMC,200459.00,A,3919.82463,N,08206.08752,W,000.5,166.0,050314,07.2,W,A*00
$PTNLRTF,V,A,331516,05,3,3919.82463,N,08206.08752,W,00242,+000.062,-000.247,-000.011,0,1*59
$PTNLRBA,1,1*57
$GPZDA,200501.00,05,03,2014,,*61
$GPGGA,200501.00,3919.82386,N,08206.08753,W,1,05,5.01,00242,M,-033,M,,*50
$GPGLL,3919.82386,N,08206.08753,W,200501.00,A,A*7D
$GPVTG,188.6,T,195.8,M,001.3,N,002.3,K,A*22
$GPGSA,A,3,31,32,25,14,20,,,,,,,,7.11,5.01,5.05*02
$GPGSV,2,1,05,31,77,303,37,32,59,289,38,25,37,056,25,14,47,085,30*73
$GPGSV,2,2,05,20,23,313,29,,,,,,,,,,,,*45
$GPGST,200501.00,,262.15,211.42,088.2,016.19,014.54,015.10*45
$GPRMC,200501.00,A,3919.82386,N,08206.08753,W,001.3,188.6,050314,07.2,W,A*00
$PTNLRTF,V,A,331517,05,3,3919.82386,N,08206.08753,W,00242,-000.096,-000.637,-000.008,0,1*53
$PTNLRBA,1,1*57
$GPZDA,200502.00,05,03,2014,,*62
$GPGLL,3919.82306,N,08206.08749,W,200502.00,A,A*7D
$GPVTG,185.9,T,193.1,M,001.9,N,003.6,K,A*21
$GPGSA,A,3,31,32,25,14,20,,,,,,,,7.11,5.01,5.04*03
$GPGSV,2,1,05,31,77,303,38,32,59,289,38,25,37,056,24,14,47,085,29*75
$GPGSV,2,2,05,20,23,313,29,,,,,,,,,,,,*45
$GPGST,200502.00,,268.19,217.16,088.0,016.37,014.74,015.28*40
$GPRMC,200502.00,A,3919.82306,N,08206.08749,W,001.9,185.9,050314,07.2,W,A*08
$PTNLRTF,V,A,331518,05,3,3919.82306,N,08206.08749,W,00242,-000.104,-000.993,+000.009,0,1*53
$PTNLRBA,1,1*57
$GPZDA,200503.00,05,03,2014,,*63
$GPGGA,200503.00,3919.82313,N,08206.08745,W,1,05,5.00,00242,M,-033,M,,*58
$GPGLL,3919.82313,N,08206.08745,W,200503.00,A,A*74
$GPVTG,179.1,T,186.3,M,000.5,N,001.0,K,A*25
$GPGSA,A,3,31,32,25,14,20,,,,,,,,7.10,5.00,5.04*03
$GPGSV,2,1,05,31,77,303,37,32,59,289,38,25,37,056,23,14,47,085,29*7D
$GPGSV,2,2,05,20,23,313,30,,,,,,,,,,,,*4D
$GPGST,200503.00,,262.53,211.33,087.9,016.20,014.54,015.08*44
$GPRMC,200503.00,A,3919.82313,N,08206.08745,W,000.5,179.1,050314,07.2,W,A*07
$PTNLRTF,V,A,331520,05,3,3919.82313,N,08206.08745,W,00242,+000.004,-000.266,-000.001,0,1*58
$PTNLRBA,1,1*57
$GPZDA,200504.00,05,03,2014,,*64
$GPGGA,200504.00,3919.82296,N,08206.08761,W,1,05,5.00,00242,M,-033,M,,*55
$GPGLL,3919.82296,N,08206.08761,W,200504.00,A,A*79
$GPVTG,207.7,T,214.9,M,001.0,N,001.9,K,A*26
$GPGSA,A,3,31,32,25,14,20,,,,,,,,7.09,5.00,5.03*0C
$GPGSV,2,1,05,31,77,303,38,32,59,289,37,25,37,056,25,14,47,085,30*73
$GPGSV,2,2,05,20,23,313,30,,,,,,,,,,,,*4D
$GPGST,200504.00,,257.70,206.51,087.9,016.05,014.37,014.92*46
$GPRMC,200504.00,A,3919.82296,N,08206.08761,W,001.0,207.7,050314,07.2,W,A*02
$PTNLRTF,V,A,331521,05,3,3919.82296,N,08206.08761,W,00242,-000.245,-000.466,-000.012,0,1*56
$PTNLRBA,1,1*57
$GPZDA,200506.00,05,03,2014,,*66
$GPGLL,3919.82377,N,08206.08740,W,200506.00,A,A*76
$GPVTG,013.8,T,021.0,M,000.4,N,000.7,K,A*29
$GPGSA,A,3,31,32,25,14,20,,,,,,,,7.09,4.99,5.03*0D
$GPGSV,2,1,05,31,77,304,37,32,59,289,38,25,37,055,25,14,47,085,29*7F
$GPGSV,2,2,05,20,24,313,30,,,,,,,,,,,,*4A
$GPGST,200506.00,,256.12,204.69,087.5,016.00,014.31,014.85*41
$GPRMC,200506.00,A,3919.82377,N,08206.08740,W,000.4,013.8,050314,07.2,W,A*00
$PTNLRTF,V,A,331522,05,3,3919.82377,N,08206.08740,W,00242,+000.048,+000.194,-000.003,0,1*5F
$PTNLRBA,1,1*57
$GPZDA,200507.00,05,03,2014,,*67
$GPGGA,200507.00,3919.82428,N,08206.08737,W,1,05,4.99,00242,M,-033,M,,*57
$GPGLL,3919.82428,N,08206.08737,W,200507.00,A,A*7A
$GPGSA,A,3,31,32,25,14,20,,,,,,,,7.08,4.99,5.03*0C
$GPGSV,2,1,05,31,77,304,37,32,59,289,38,25,37,055,26,14,47,085,30*74
$GPGSV,2,2,05,20,24,313,30,,,,,,,,,,,,*4A
$GPGST,200507.00,,244.57,193.09,087.4,015.64,013.90,014.45*49
$GPRMC,200507.00,A,3919.82428,N,08206.08737,W,000.9,012.6,050314,07.2,W,A*0E
$PTNLRTF,V,A,331523,05,3,3919.82428,N,08206.08737,W,00242,+000.098,+000.438,-000.012,0,1*5D
$PTNLRBA,1,1*57
$GPZDA,200508.00,05,03,2014,,*68
$GPGGA,200508.00,3919.82441,N,08206.08731,W,1,05,4.98,00242,M,-033,M,,*50
$GPGLL,3919.82441,N,08206.08731,W,200508.00,A,A*7C
$GPVTG,358.4,T,005.6,M,000.8,N,001.4,K,A*27
$GPGSA,A,3,31,32,25,14,20,,,,,,,,7.07,4.98,5.02*03
$GPGSV,2,1,05,31,77,304,37,32,59,289,37,25,37,055,26,14,47,085,29*73
$GPGSV,2,2,05,20,24,313,30,,,,,,,,,,,,*4A
$GPGST,200508.00,,245.98,194.37,087.2,015.68,013.95,014.49*4D
$GPRMC,200508.00,A,3919.82441,N,08206.08731,W,000.8,358.4,050314,07.2,W,A*06
$PTNLRTF,V,A,331525,05,3,3919.82441,N,08206.08731,W,00242,-000.011,+000.395,+000.020,0,1*52
$PTNLRBA,1,1*57
$GPZDA,200509.00,05,03,2014,,*69
$GPGGA,200509.00,3919.82443,N,08206.08720,W,1,05,4.98,00242,M,-033,M,,*53
$GPGLL,3919.82443,N,08206.08720,W,200509.00,A,A*7F
$GPVTG,099.9,T,107.1,M,000.5,N,000.9,K,A*21
$GPGSA,A,3,31,32,25,14,20,,,,,,,,7.06,4.97,5.01*0E
$GPGSV,2,1,05,31,77,304,37,32,59,289,37,25,37,055,25,14,47,085,30*78
$GPGSV,2,2,05,20,24,313,30,,,,,,,,,,,,*4A
$GPGST,200509.00,,239.71,188.12,087.0,015.48,013.72,014.27*4B
$GPRMC,200509.00,A,3919.82443,N,08206.08720,W,000.5,099.9,050314,07.2,W,A*0B
$PTNLRTF,V,A,331526,05,3,3919.82443,N,08206.08720,W,00242,+000.234,-000.041,-000.000,0,1*58
$PTNLRBA,1,1*57
$GPZDA,200511.00,05,03,2014,,*60
$GPGGA,200511.00,3919.82338,N,08206.08748,W,1,04,5.11,00242,M,-033,M,,*5E
$GPGLL,3919.82338,N,08206.08748,W,200511.00,A,A*73
$GPVTG,198.1,T,205.3,M,002.1,N,003.9,K,A*2F
$GPGSA,A,3,31,25,14,20,,,,,,,,,7.16,5.11,5.01*01
$GPGSV,2,1,05,31,77,304,37,32,59,289,37,25,37,055,25,14,47,085,29*70
$GPGSV,2,2,05,20,24,313,30,,,,,,,,,,,,*4A
$GPGST,200511.00,,241.63,190.36,086.8,015.54,013.80,014.34*4A
$GPRMC,200511.00,A,3919.82338,N,08206.08748,W,002.1,198.1,050314,07.2,W,A*09
$PTNLRTF,V,A,331527,04,3,3919.82338,N,08206.08748,W,00242,-000.337,-001.031,+000.000,0,1*59
$PTNLRBA,1,1*57
$GPZDA,200512.00,05,03,2014,,*63
$GPGGA,200512.00,3919.82333,N,08206.08759,W,1,04,12.7,00242,M,-033,M,,*57
$GPVTG,214.5,T,221.7,M,000.9,N,001.7,K,A*28
$GPGSA,A,3,31,32,14,20,,,,,,,,,15.9,12.7,9.52*01
$GPGSV,2,1,05,31,77,304,37,32,59,289,37,25,37,055,26,14,47,085,30*7B
$GPGSV,2,2,05,20,24,313,30,,,,,,,,,,,,*4A
$GPGST,200512.00,,239.46,187.68,086.3,015.47,013.71,014.24*4A
$GPRMC,200512.00,A,3919.82333,N,08206.08759,W,000.9,214.5,050314,07.2,W,A*08
$PTNLRTF,V,A,331528,04,3,3919.82333,N,08206.08759,W,00242,-000.267,-000.389,-000.014,0,1*5B
$PTNLRBA,1,1*57
$GPZDA,200513.00,05,03,2014,,*62
$GPGGA,200513.00,3919.82392,N,08206.08750,W,1,05,4.96,00242,M,-033,M,,*5A
$GPGLL,3919.82392,N,08206.08750,W,200513.00,A,A*78
$GPGSA,A,3,31,32,25,14,20,,,,,,,,7.05,4.96,5.00*0D
$GPGSV,2,1,05,31,77,304,37,32,59,289,37,25,37,055,24,14,47,085,29*71
$GPGSV,2,2,05,20,24,313,31,,,,,,,,,,,,*4B
