$GPZDA,015058.00,24,12,2013,,*6A
$GPGGA,015058.00,4003.48139,N,08254.66265,W,2,05,1.59,00248,M,-033,M,,*55
$GPGLL,4003.48139,N,08254.66265,W,015058.00,A,D*7D
$GPVTG,180.5,T,187.2,M,001.23,N,002.28,K,D*2E
$GPGSA,A,3,25,29,32,20,16,,,,,,,,3.90,1.59,3.56*0D
$GPGSV,3,1,09,25,20,042,39,29,13,074,40,31,64,030,36,32,60,250,38*78
$GPGSV,3,2,09,14,31,107,42,20,37,297,34,16,26,193,45,46,43,203,43*71
$GPGSV,3,3,09,23,14,303,40,,,,,,,,,,,,*40
$GPGST,015058.00,,113.32,113.21,025.4,010.64,010.64,010.65*43
$GPRMC,015058.00,A,4003.48139,N,08254.66265,W,001.23,180.5,241213,06.7,W,D*39
$PTNLRTF,V,A,179$GPZDA,015101.00,24,12,2013,,*67
$GPGGA,015101.00,4003.47978,N,08254.66318,W,2,07,1.01,00248,M,-033,M,,*5E
$GPGLL,4003.47978,N,08254.66318,W,015101.00,A,D*79
$GPVTG,195.1,T,201.8,M,002.18,N,004.04,K,D*2A
$GPGSA,A,3,25,29,32,14,20,16,23,,,,,,2.35,1.01,2.12*0B
$GPGSV,3,1,09,25,20,042,34,29,13,074,32,31,64,030,44,32,60,250,49*73
$GPGSV,3,2,09,14,31,107,45,20,37,297,43,16,26,193,47,46,43,203,42*75
$GPGSV,3,3,09,23,14,303,45,,,,,,,,,,,,*45
$GPGST,015101.00,,106.95,106.87,028.7,010.34,010.34,010.35*44
$GPRMC,015101.00,A,4003.47978,N,08254.66318,W,002.18,195.1,241213,06.7,W,D*36
$PTNLRTF,V,A,179477,07,3,4003.47978,N,08254.66318,W,00248,-000.292,-001.084,+000.028,0,1*5C
$PTNLRBA,1,1*57
$GPZDA,015102.00,24,12,2013,,*64
$GPGGA,015102.00,4003.47919,N,08254.66371,W,2,08,0.93,00248,M,-033,M,,*50
$GPGLL,4003.47919,N,08254.66371,W,015102.00,A,D*72
$GPVTG,208.4,T,215.0,M,002.63,N,004.87,K,D*22
$GPGSA,A,3,25,29,31,32,14,20,16,23,,,,,1.78,0.93,1.51*0D
$GPGSV,3,1,09,25,20,042,37,29,13,074,34,31,64,030,48,32,60,250,50*72
$GPGSV,3,2,09,14,31,107,48,20,37,297,48,16,26,193,46,46,43,203,44*74
$GPGSV,3,3,09,23,14,303,46,,,,,,,,,,,,*46
$GPGST,015102.00,,102.40,102.33,023.1,010.12,010.12,010.13*49
$GPRMC,015102.00,A,4003.47919,N,08254.66371,W,002.63,208.4,241213,06.7,W,D*33
$PTNLRTF,V,A,179479,08,3,4003.47919,N,08254.66371,W,00248,-000.642,-001.190,-000.038,0,1*5F
$PTNLRBA,1,1*57
$GPZDA,015104.00,24,12,2013,,*62
$GPGGA,015104.00,4003.47815,N,08254.66639,W,2,08,0.93,00248,M,-033,M,,*52
$GPGLL,4003.47815,N,08254.66639,W,015104.00,A,D*70
$GPVTG,250.5,T,257.2,M,004.52,N,008.37,K,D*29
$GPGSA,A,3,25,29,31,32,14,20,16,23,,,,,1.78,0.93,1.51*0D
$GPGSV,3,1,09,25,20,042,30,29,13,074,35,31,64,030,50,32,60,250,50*7D
$GPGSV,3,2,09,14,31,107,48,20,37,297,49,16,26,193,46,46,43,203,45*74
$GPGSV,3,3,09,23,14,303,46,,,,,,,,,,,,*46
$GPGST,015104.00,,095.23,095.02,021.9,009.75,009.76,009.77*4B
$GPRMC,015104.00,A,4003.47815,N,08254.66639,W,004.52,250.5,241213,06.7,W,D*39
$PTNLRTF,V,A,179480,08,3,4003.47815,N,08254.66639,W,00248,-002.191,-000.775,-000.125,0,1*57
$PTNLRBA,1,1*57
$GPZDA,015106.00,24,12,2013,,*60
$GPGGA,015106.00,4003.47893,N,08254.66981,W,2,08,0.93,00248,M,-033,M,,*52
$GPGLL,4003.47893,N,08254.66981,W,015106.00,A,D*70
$GPVTG,298.3,T,304.9,M,004.80,N,008.89,K,D*2D
$GPGSA,A,3,25,29,31,32,14,20,16,23,,,,,1.78,0.93,1.51*0D
$GPGSV,3,1,09,25,20,042,29,29,13,074,37,31,64,030,48,32,60,250,50*7E
$GPGSV,3,2,09,14,31,107,47,20,37,297,48,16,26,193,48,46,43,203,46*77
$GPGSV,3,3,09,23,14,303,45,,,,,,,,,,,,*45
$GPGST,015106.00,,085.50,085.34,057.5,009.24,009.24,009.25*41
$GPRMC,015106.00,A,4003.47893,N,08254.66981,W,004.80,298.3,241213,06.7,W,D*34
$PTNLRTF,V,A,179482,08,3,4003.47893,N,08254.66981,W,00248,-002.175,+001.169,+000.025,0,1*56
$PTNLRBA,1,1*57
$GPZDA,015107.00,24,12,2013,,*61
$GPGGA,015107.00,4003.47990,N,08254.67093,W,2,07,1.02,00248,M,-033,M,,*5C
$GPGLL,4003.47990,N,08254.67093,W,015107.00,A,D*78
$GPVTG,318.8,T,325.5,M,004.52,N,008.38,K,D*25
$GPGSA,A,3,29,31,32,14,20,16,23,,,,,,1.84,1.02,1.53*02
$GPGSV,3,1,09,25,20,042,35,29,13,074,33,31,64,030,49,32,60,250,50*76
$GPGSV,3,2,09,14,31,107,46,20,37,297,47,16,26,193,49,46,43,203,47*79
$GPGSV,3,3,09,23,14,303,43,,,,,,,,,,,,*43
$GPGST,015107.00,,081.11,081.02,068.9,009.01,009.00,009.02*44
$GPRMC,015107.00,A,4003.47990,N,08254.67093,W,004.52,318.8,241213,06.7,W,D*31
$PTNLRTF,V,A,179483,07,3,4003.47990,N,08254.67093,W,00248,-001.532,+001.752,-000.016,0,1*5D
$PTNLRBA,1,1*57
$GPZDA,015109.00,24,12,2013,,*6F
$GPGGA,015109.00,4003.48201,N,08254.67173,W,2,08,0.93,00249,M,-033,M,,*56
$GPGLL,4003.48201,N,08254.67173,W,015109.00,A,D*75
$GPVTG,355.0,T,001.7,M,003.67,N,006.79,K,D*29
$GPGSA,A,3,25,29,31,32,14,20,16,23,,,,,1.78,0.93,1.52*0E
$GPGSV,3,1,09,25,20,042,37,29,13,074,32,31,64,030,49,32,60,250,49*7D
$GPGSV,3,2,09,14,31,107,46,20,37,297,48,16,26,193,49,46,43,203,46*77
$GPGSV,3,3,09,23,14,303,43,,,,,,,,,,,,*43
$GPGST,015109.00,,074.50,074.47,050.9,008.63,008.63,008.65*44
$GPRMC,015109.00,A,4003.48201,N,08254.67173,W,003.67,355.0,241213,06.7,W,D*3C
$PTNLRTF,V,A,179485,08,3,4003.48201,N,08254.67173,W,00249,-000.165,+001.880,+000.264,0,1*50
$PTNLRBA,1,1*57
$GPZDA,015110.00,24,12,2013,,*67
$GPGGA,015110.00,4003.48254,N,08254.67172,W,2,08,0.93,00249,M,-033,M,,*5F
$GPGLL,4003.48254,N,08254.67172,W,015110.00,A,D*7C
$GPVTG,005.9,T,012.6,M,001.89,N,003.49,K,D*21
$GPGSA,A,3,25,29,31,32,14,20,16,23,,,,,1.78,0.93,1.52*0E
$GPGSV,3,1,09,25,20,042,40,29,13,074,33,31,64,031,50,32,60,249,48*7C
$GPGSV,3,2,09,14,31,107,45,20,37,296,47,16,26,193,47,46,43,203,45*77
$GPGSV,3,3,09,23,14,303,45,,,,,,,,,,,,*45
$GPGST,015110.00,,069.86,069.75,072.7,008.36,008.35,008.37*4C
$GPRMC,015110.00,A,4003.48254,N,08254.67172,W,001.89,005.9,241213,06.7,W,D*38
$PTNLRTF,V,A,179486,08,3,4003.48254,N,08254.67172,W,00249,+000.100,+000.965,+000.071,0,1*5A
$PTNLRBA,1,1*57
$GPZDA,015112.00,24,12,2013,,*65
$GPGGA,015112.00,4003.48254,N,08254.67185,W,2,07,0.98,00249,M,-033,M,,*51
$GPGLL,4003.48254,N,08254.67185,W,015112.00,A,D*76
$GPVTG,000.0,T,006.7,M,000.00,N,000.00,K,D*27
$GPGSA,A,3,25,31,32,14,20,16,23,,,,,,1.92,0.98,1.65*0E
$GPGSV,3,1,09,25,20,042,45,29,13,074,22,31,64,031,49,32,60,249,49*70
$GPGSV,3,2,09,14,31,107,46,20,37,296,50,16,26,193,48,46,43,203,45*7D
$GPGSV,3,3,09,23,14,303,47,,,,,,,,,,,,*47
$GPGST,015112.00,,073.91,073.77,085.0,008.60,008.59,008.61*4F
$GPRMC,015112.00,A,4003.48254,N,08254.67185,W,000.00,000.0,241213,06.7,W,D*3E
$PTNLRTF,V,A,179488,07,3,4003.48254,N,08254.67185,W,00249,+000.000,+000.000,+000.000,0,1*5E
$PTNLRBA,1,1*57
$GPZDA,015113.00,24,12,2013,,*64
$GPGGA,015113.00,4003.48305,N,08254.67181,W,2,07,0.98,00249,M,-033,M,,*51
$GPGLL,4003.48305,N,08254.67181,W,015113.00,A,D*76
$GPVTG,008.4,T,015.1,M,001.79,N,003.32,K,D*22
$GPGSA,A,3,25,31,32,14,20,16,23,,,,,,1.92,0.98,1.65*0E
$GPGSV,3,1,09,25,20,042,45,29,13,074,28,31,64,031,48,32,60,249,48*7A
$GPGSV,3,2,09,14,31,107,44,20,37,296,49,16,26,193,48,46,43,203,45*77
$GPGSV,3,3,09,23,14,303,46,,,,,,,,,,,,*46
$GPGST,015113.00,,069.75,069.53,088.5,008.35,008.34,008.36*43
$GPRMC,015113.00,A,4003.48305,N,08254.67181,W,001.79,008.4,241213,06.7,W,D*3D
$PTNLRTF,V,A,179489,07,3,4003.48305,N,08254.67181,W,00249,+000.135,+000.912,+000.048,0,1*5F
$PTNLRBA,1,1*57
$GPZDA,015115.00,24,12,2013,,*62
$GPGGA,015115.00,4003.48500,N,08254.67088,W,2,07,1.01,00250,M,-033,M,,*55
$GPGLL,4003.48500,N,08254.67088,W,015115.00,A,D*7B
$GPVTG,029.8,T,036.4,M,003.41,N,006.32,K,D*25
$GPGSA,A,3,25,29,31,32,20,16,23,,,,,,1.83,1.01,1.52*05
$GPGSV,3,1,09,25,20,042,42,29,13,074,45,31,64,031,49,32,60,249,50*7E
$GPGSV,3,2,09,14,31,107,36,20,37,296,48,16,26,193,46,46,43,203,44*7C
$GPGSV,3,3,09,23,14,303,46,,,,,,,,,,,,*46
$GPGST,015115.00,,062.00,061.68,084.5,007.87,007.85,007.88*49
$GPRMC,015115.00,A,4003.48500,N,08254.67088,W,003.41,029.8,241213,06.7,W,D*36
$PTNLRTF,V,A,179491,07,3,4003.48500,N,08254.67088,W,00250,+000.871,+001.524,+000.082,0,1*52
$PTNLRBA,1,1*57
$GPZDA,015116.00,24,12,2013,,*61
$GPGGA,015116.00,4003.48558,N,08254.67048,W,2,08,0.93,00250,M,-033,M,,*52
$GPGLL,4003.48558,N,08254.67048,W,015116.00,A,D*79
$GPVTG,032.5,T,039.2,M,002.50,N,004.63,K,D*2C
$GPGSA,A,3,25,29,31,32,14,20,16,23,,,,,1.78,0.93,1.52*0E
$GPGSV,3,1,09,25,20,042,42,29,13,074,44,31,64,031,49,32,60,249,49*77
$GPGSV,3,2,09,14,31,107,30,20,37,296,48,16,26,193,46,46,43,203,45*7B
$GPGSV,3,3,09,23,14,303,48,,,,,,,,,,,,*48
$GPGST,015116.00,,068.08,067.77,082.8,008.25,008.23,008.26*44
$GPRMC,015116.00,A,4003.48558,N,08254.67048,W,002.50,032.5,241213,06.7,W,D*32
$PTNLRTF,V,A,179492,08,3,4003.48558,N,08254.67048,W,00250,+000.690,+001.085,-000.009,0,1*55
$PTNLRBA,1,1*57
$GPZDA,015117.00,24,12,2013,,*60
$GPGGA,015117.00,4003.48653,N,08254.66977,W,2,08,0.93,00250,M,-033,M,,*5F
$GPGLL,4003.48653,N,08254.66977,W,015117.00,A,D*74
$GPVTG,032.9,T,039.6,M,004.06,N,007.52,K,D*20
$GPGSA,A,3,25,29,31,32,14,20,16,23,,,,,1.78,0.93,1.52*0E
$GPGSV,3,1,09,25,20,042,41,29,13,074,44,31,64,031,49,32,60,249,49*74
$GPGSV,3,2,09,14,31,107,27,20,37,296,47,16,26,193,46,46,43,203,44*73
$GPGSV,3,3,09,23,14,303,46,,,,,,,,,,,,*46
$GPGST,015117.00,,064.05,063.72,080.3,008.00,007.98,008.01*41
$GPRMC,015117.00,A,4003.48653,N,08254.66977,W,004.06,032.9,241213,06.7,W,D*36
$PTNLRTF,V,A,179493,08,3,4003.48653,N,08254.66977,W,00250,+001.134,+001.753,+000.126,0,1*56
$PTNLRBA,1,1*57
$GPZDA,015119.00,24,12,2013,,*6E
$GPGGA,015119.00,4003.48945,N,08254.66741,W,2,08,0.93,00250,M,-033,M,,*52
$GPGLL,4003.48945,N,08254.66741,W,015119.00,A,D*79
$GPVTG,032.7,T,039.4,M,006.69,N,012.39,K,D*2E
$GPGSA,A,3,25,29,31,32,14,20,16,23,,,,,1.78,0.93,1.52*0E
$GPGSV,3,1,09,25,20,042,41,29,13,074,47,31,64,031,50,32,60,249,50*77
$GPGSV,3,2,09,14,31,107,48,20,37,296,48,16,26,193,39,46,43,203,41*78
$GPGSV,3,3,09,23,14,303,44,,,,,,,,,,,,*44
$GPGST,015119.00,,057.48,057.13,077.5,007.58,007.56,007.59*4A
$GPRMC,015119.00,A,4003.48945,N,08254.66741,W,006.69,032.7,241213,06.7,W,D*3E
$PTNLRTF,V,A,179495,08,3,4003.48945,N,08254.66741,W,00250,+001.859,+002.895,+000.004,0,1*56
$PTNLRBA,1,1*57
$GPZDA,015120.00,24,12,2013,,*64
$GPGGA,015120.00,4003.49131,N,08254.66622,W,2,08,0.93,00250,M,-033,M,,*56
$GPGLL,4003.49131,N,08254.66622,W,015120.00,A,D*7D
$GPVTG,026.9,T,033.6,M,007.57,N,014.03,K,D*2E
$GPGSA,A,3,25,29,31,32,14,20,16,23,,,,,1.78,0.93,1.52*0E
$GPGSV,3,1,09,25,20,042,42,29,13,074,47,31,64,031,49,32,60,249,51*7D
$GPGSV,3,2,09,14,31,107,47,20,37,296,48,16,26,193,46,46,43,203,46*78
$GPGSV,3,3,09,23,14,303,40,,,,,,,,,,,,*40
$GPGST,015120.00,,053.96,053.60,080.1,007.34,007.32,007.36*4A
$GPRMC,015120.00,A,4003.49131,N,08254.66622,W,007.57,026.9,241213,06.7,W,D*3D
$PTNLRTF,V,A,179497,08,3,4003.49131,N,08254.66622,W,00250,+001.764,+003.474,+000.065,0,1*5E
$PTNLRBA,1,1*57
$GPZDA,015122.00,24,12,2013,,*66
$GPGGA,015122.00,4003.49571,N,08254.66485,W,2,08,0.93,00251,M,-033,M,,*5A
$GPGLL,4003.49571,N,08254.66485,W,015122.00,A,D*70
$GPVTG,009.8,T,016.5,M,008.27,N,015.31,K,D*2E
$GPGSA,A,3,25,29,31,32,14,20,16,23,,,,,1.78,0.93,1.52*0E
$GPGSV,3,1,09,25,20,042,39,29,13,074,39,31,64,031,49,32,60,249,50*79
$GPGSV,3,2,09,14,31,107,47,20,37,296,48,16,26,193,47,46,43,203,46*79
$GPGSV,3,3,09,23,14,303,43,,,,,,,,,,,,*43
$GPGST,015122.00,,048.96,048.73,087.7,007.00,006.98,007.02*4A
$GPRMC,015122.00,A,4003.49571,N,08254.66485,W,008.27,009.8,241213,06.7,W,D*34
$PTNLRTF,V,A,179498,08,3,4003.49571,N,08254.66485,W,00251,+000.723,+004.192,+000.171,0,1*53
$PTNLRBA,1,1*57
