$GPZDA,030827.00,07,02,2014,,*6A
$GPGGA,030827.00,3917.26306,N,08203.79815,W,2,10,0.93,00295,M,-033,M,,*5D
$GPGLL,3917.26306,N,08203.79815,W,030827.00,A,D*76
$GPVTG,289.7,T,296.9,M,000.15,N,000.28,K,D*28
$GPGSA,A,3,09,08,07,13,19,16,11,03,06,27,,,1.68,0.93,1.39*07
$GPGSV,3,1,11,09,14,308,25,08,19,307,34,07,51,316,33,23,32,191,14*73
$GPGSV,3,2,11,13,56,228,39,19,67,144,42,16,33,057,39,11,19,163,38*7D
$GPGSV,3,3,11,03,68,071,27,06,42,052,40,27,53,059,42,,,,*4D
$GPGST,030827.00,,408.66,408.62,068.9,037.53,037.53,037.54*41
$GPRMC,030827.00,A,3917.26306,N,08203.79815,W,000.15,289.7,070214,$GPZDA,030829.00,07,02,2014,,*64
$GPGGA,030829.00,3917.26303,N,08203.79809,W,2,10,0.93,00295,M,-033,M,,*5B
$GPGLL,3917.26303,N,08203.79809,W,030829.00,A,D*70
$GPVTG,000.0,T,007.2,M,000.00,N,000.00,K,D*23
$GPGSA,A,3,09,08,07,13,19,16,11,03,06,27,,,1.68,0.93,1.39*07
$GPGSV,3,1,11,09,14,308,24,08,19,307,35,07,51,316,32,23,32,191,15*73
$GPGSV,3,2,11,13,56,228,39,19,67,144,42,16,33,057,39,11,19,163,37*72
$GPGSV,3,3,11,03,68,071,25,06,42,052,40,27,53,059,42,,,,*4F
$GPGST,030829.00,,178.25,178.22,073.6,034.33,034.33,034.33*4B
$GPRMC,030829.00,A,3917.26303,N,08203.79809,W,000.00,000.0,070214,07.2,W,D*3B
$PTNLRTF,V,A,443325,10,3,3917.26303,N,08203.79809,W,00295,+000.000,+000.000,+000.000,0,1*55
$PTNLRBA,1,1*57
$GPZDA,030830.00,07,02,2014,,*6C
$GPGGA,030830.00,3917.26302,N,08203.79809,W,2,10,0.93,00295,M,-033,M,,*52
$GPGLL,3917.26302,N,08203.79809,W,030830.00,A,D*79
$GPVTG,000.0,T,007.2,M,000.00,N,000.00,K,D*23
$GPGSA,A,3,09,08,07,13,19,16,11,03,06,27,,,1.68,0.93,1.39*07
$GPGSV,3,1,11,09,14,308,24,08,19,307,35,07,51,316,32,23,32,191,17*71
$GPGSV,3,2,11,13,56,228,39,19,67,144,43,16,33,057,39,11,19,163,37*73
$GPGSV,3,3,11,03,68,071,25,06,42,052,40,27,53,059,42,,,,*4F
$GPGST,030830.00,,072.61,072.58,074.1,032.75,032.75,032.75*4A
$GPRMC,030830.00,A,3917.26302,N,08203.79809,W,000.00,000.0,070214,07.2,W,D*32
$PTNLRTF,V,A,443326,10,3,3917.26302,N,08203.79809,W,00295,+000.000,+000.000,+000.000,0,1*57
$PTNLRBA,1,1*57
$GPZDA,030832.00,07,02,2014,,*6E
$GPGGA,030832.00,3917.26301,N,08203.79807,W,2,11,0.85,00295,M,-033,M,,*5B
$GPGLL,3917.26301,N,08203.79807,W,030832.00,A,D*76
$GPVTG,000.0,T,007.2,M,000.00,N,000.00,K,D*23
$GPGSA,A,3,09,08,07,23,13,19,16,11,03,06,27,,1.63,0.85,1.38*0B
$GPGSV,3,1,11,09,14,308,24,08,19,307,35,07,51,316,32,23,32,191,11*77
$GPGSV,3,2,11,13,56,228,40,19,67,144,42,16,33,057,39,11,19,163,38*73
$GPGSV,3,3,11,03,68,071,27,06,42,052,41,27,53,059,42,,,,*4C
$GPGST,030832.00,,955.04,955.01,074.6,030.90,030.90,030.91*48
$GPRMC,030832.00,A,3917.26301,N,08203.79807,W,000.00,000.0,070214,07.2,W,D*3D
$PTNLRTF,V,A,443328,11,3,3917.26301,N,08203.79807,W,00295,+000.000,+000.000,+000.000,0,1*55
$PTNLRBA,1,1*57
$GPZDA,030833.00,07,02,2014,,*6F
$GPGGA,030833.00,3917.26300,N,08203.79806,W,2,10,0.93,00295,M,-033,M,,*5C
$GPGLL,3917.26300,N,08203.79806,W,030833.00,A,D*77
$GPVTG,000.0,T,007.2,M,000.00,N,000.00,K,D*23
$GPGSA,A,3,09,08,07,13,19,16,11,03,06,27,,,1.68,0.93,1.39*07
$GPGSV,3,1,11,09,14,308,25,08,19,307,35,07,51,316,32,23,32,191,14*73
$GPGSV,3,2,11,13,56,228,40,19,67,144,42,16,33,057,38,11,19,163,37*7D
$GPGSV,3,3,11,03,68,071,28,06,42,052,41,27,53,059,43,,,,*42
$GPGST,030833.00,,868.86,868.83,074.8,029.48,029.48,029.48*4B
$GPRMC,030833.00,A,3917.26300,N,08203.79806,W,000.00,000.0,070214,07.2,W,D*3C
$PTNLRTF,V,A,443329,10,3,3917.26300,N,08203.79806,W,00295,+000.000,+000.000,+000.000,0,1*55
$PTNLRBA,1,1*57
$GPZDA,030835.00,07,02,2014,,*69
$GPGGA,030835.00,3917.26299,N,08203.79805,W,2,11,0.85,00295,M,-033,M,,*5E
$GPGLL,3917.26299,N,08203.79805,W,030835.00,A,D*73
$GPVTG,000.0,T,007.2,M,000.00,N,000.00,K,D*23
$GPGSA,A,3,09,08,07,23,13,19,16,11,03,06,27,,1.63,0.85,1.38*0B
$GPGSV,3,1,11,09,14,308,25,08,19,307,34,07,51,316,32,23,32,191,14*72
$GPGSV,3,2,11,13,56,228,40,19,67,144,42,16,33,057,38,11,19,163,38*72
$GPGSV,3,3,11,03,68,071,29,06,42,052,41,27,53,059,43,,,,*43
$GPGST,030835.00,,939.14,939.11,075.2,030.65,030.64,030.65*40
$GPRMC,030835.00,A,3917.26299,N,08203.79805,W,000.00,000.0,070214,07.2,W,D*38
$PTNLRTF,V,A,443331,11,3,3917.26299,N,08203.79805,W,00295,+000.000,+000.000,+000.000,0,1*5F
$PTNLRBA,1,1*57
$GPZDA,030836.00,07,02,2014,,*6A
$GPGGA,030836.00,3917.26294,N,08203.79801,W,2,10,0.93,00295,M,-033,M,,*52
$GPGLL,3917.26294,N,08203.79801,W,030836.00,A,D*79
$GPVTG,159.6,T,166.8,M,000.20,N,000.37,K,D*22
$GPGSA,A,3,09,08,07,13,19,16,11,03,06,27,,,1.68,0.93,1.39*07
$GPGSV,3,1,11,09,14,308,24,08,19,307,35,07,51,316,32,23,32,191,16*70
$GPGSV,3,2,11,13,56,227,41,19,67,143,42,16,33,057,38,11,19,163,38*7B
$GPGSV,3,3,11,03,68,071,25,06,42,052,41,27,52,059,42,,,,*4F
$GPGST,030836.00,,848.60,848.57,068.0,029.13,029.13,029.14*43
$GPRMC,030836.00,A,3917.26294,N,08203.79801,W,000.20,159.6,070214,07.2,W,D*3B
$PTNLRTF,V,A,443332,10,3,3917.26294,N,08203.79801,W,00295,+000.036,-000.096,+000.234,0,1*5D
$PTNLRBA,1,1*57
$GPZDA,030838.00,07,02,2014,,*64
$GPGGA,030838.00,3917.26295,N,08203.79800,W,2,11,0.85,00295,M,-033,M,,*5A
$GPGLL,3917.26295,N,08203.79800,W,030838.00,A,D*77
$GPVTG,000.0,T,007.2,M,000.00,N,000.00,K,D*23
$GPGSA,A,3,09,08,07,23,13,19,16,11,03,06,27,,1.63,0.85,1.39*0A
$GPGSV,3,1,11,09,14,308,25,08,19,307,35,07,51,316,32,23,32,191,17*70
$GPGSV,3,2,11,13,56,227,40,19,67,143,43,16,33,057,38,11,19,163,38*7B
$GPGSV,3,3,11,03,68,071,28,06,42,052,40,27,52,059,42,,,,*43
$GPGST,030838.00,,963.56,963.53,063.7,031.04,031.04,031.05*49
$GPRMC,030838.00,A,3917.26295,N,08203.79800,W,000.00,000.0,070214,07.2,W,D*3C
$PTNLRTF,V,A,443334,11,3,3917.26295,N,08203.79800,W,00295,+000.000,+000.000,+000.000,0,1*53
$PTNLRBA,1,1*57
$GPZDA,030839.00,07,02,2014,,*65
$GPGGA,030839.00,3917.26296,N,08203.79799,W,2,10,0.93,00295,M,-033,M,,*51
$GPGLL,3917.26296,N,08203.79799,W,030839.00,A,D*7A
$GPVTG,000.0,T,007.2,M,000.00,N,000.00,K,D*23
$GPGSA,A,3,09,08,07,13,19,16,11,03,06,27,,,1.68,0.93,1.40*09
$GPGSV,3,1,11,09,14,308,24,08,19,307,34,07,51,316,32,23,32,191,19*7E
$GPGSV,3,2,11,13,56,227,40,19,67,143,43,16,33,057,38,11,19,163,38*7B
$GPGSV,3,3,11,03,68,071,27,06,42,052,40,27,52,059,42,,,,*4C
$GPGST,030839.00,,871.84,871.81,064.3,029.53,029.53,029.53*41
$GPRMC,030839.00,A,3917.26296,N,08203.79799,W,000.00,000.0,070214,07.2,W,D*31
$PTNLRTF,V,A,443335,10,3,3917.26296,N,08203.79799,W,00295,+000.000,+000.000,+000.000,0,1*5F
$PTNLRBA,1,1*57
$GPZDA,030841.00,07,02,2014,,*6A
$GPGGA,030841.00,3917.26297,N,08203.79797,W,2,11,0.85,00295,M,-033,M,,*57
$GPGLL,3917.26297,N,08203.79797,W,030841.00,A,D*7A
$GPVTG,000.0,T,007.2,M,000.00,N,000.00,K,D*23
$GPGSA,A,3,09,08,07,23,13,19,16,11,03,06,27,,1.63,0.85,1.39*0A
$GPGSV,3,1,11,09,14,308,25,08,19,307,34,07,51,316,32,23,32,191,14*72
$GPGSV,3,2,11,13,56,227,40,19,67,143,43,16,33,057,38,11,19,163,38*7B
$GPGSV,3,3,11,03,68,071,28,06,42,052,39,27,52,059,42,,,,*4D
$GPGST,030841.00,,887.47,887.44,065.2,029.79,029.79,029.80*46
$GPRMC,030841.00,A,3917.26297,N,08203.79797,W,000.00,000.0,070214,07.2,W,D*31
$PTNLRTF,V,A,443337,11,3,3917.26297,N,08203.79797,W,00295,+000.000,+000.000,+000.000,0,1*53
$PTNLRBA,1,1*57
$GPZDA,030842.00,07,02,2014,,*69
$GPGGA,030842.00,3917.26297,N,08203.79796,W,2,10,0.93,00295,M,-033,M,,*53
$GPGLL,3917.26297,N,08203.79796,W,030842.00,A,D*78
$GPVTG,000.0,T,007.2,M,000.00,N,000.00,K,D*23
$GPGSA,A,3,09,08,07,13,19,16,11,03,06,27,,,1.68,0.93,1.40*09
$GPGSV,3,1,11,09,14,308,24,08,19,307,34,07,51,316,31,23,32,191,08*7D
$GPGSV,3,2,11,13,56,227,40,19,67,143,43,16,33,057,38,11,19,163,38*7B
$GPGSV,3,3,11,03,68,071,28,06,42,052,39,27,52,059,43,,,,*4C
$GPGST,030842.00,,805.71,805.68,065.6,028.38,028.38,028.39*49
$GPRMC,030842.00,A,3917.26297,N,08203.79796,W,000.00,000.0,070214,07.2,W,D*33
$PTNLRTF,V,A,443338,10,3,3917.26297,N,08203.79796,W,00295,+000.000,+000.000,+000.000,0,1*5C
$PTNLRBA,1,1*57
$GPZDA,030844.00,07,02,2014,,*6F
$GPGGA,030844.00,3917.26297,N,08203.79796,W,2,10,0.93,00295,M,-033,M,,*55
$GPGLL,3917.26297,N,08203.79796,W,030844.00,A,D*7E
$GPVTG,000.0,T,007.2,M,000.00,N,000.00,K,D*23
$GPGSA,A,3,09,08,07,13,19,16,11,03,06,27,,,1.68,0.93,1.40*09
$GPGSV,3,1,11,09,14,308,24,08,19,307,34,07,51,316,30,23,32,191,18*7D
$GPGSV,3,2,11,13,56,227,40,19,67,143,42,16,33,057,38,11,19,163,38*7A
$GPGSV,3,3,11,03,68,071,28,06,42,052,40,27,52,059,43,,,,*42
$GPGST,030844.00,,665.69,665.66,066.2,025.80,025.80,025.81*41
$GPRMC,030844.00,A,3917.26297,N,08203.79796,W,000.00,000.0,070214,07.2,W,D*35
$PTNLRTF,V,A,443340,10,3,3917.26297,N,08203.79796,W,00295,+000.000,+000.000,+000.000,0,1*53
$PTNLRBA,1,1*57
$GPZDA,030845.00,07,02,2014,,*6E
$GPGGA,030845.00,3917.26297,N,08203.79795,W,2,11,0.85,00295,M,-033,M,,*51
$GPGLL,3917.26297,N,08203.79795,W,030845.00,A,D*7C
$GPVTG,000.0,T,007.2,M,000.00,N,000.00,K,D*23
$GPGSA,A,3,09,08,07,23,13,19,16,11,03,06,27,,1.63,0.85,1.39*0A
$GPGSV,3,1,11,09,14,308,24,08,19,307,34,07,51,316,31,23,32,191,21*76
$GPGSV,3,2,11,13,56,227,40,19,67,143,42,16,33,057,38,11,19,163,39*7B
$GPGSV,3,3,11,03,68,071,28,06,42,052,40,27,52,059,43,,,,*42
$GPGST,030845.00,,622.94,622.91,066.4,024.96,024.96,024.96*4B
$GPRMC,030845.00,A,3917.26297,N,08203.79795,W,000.00,000.0,070214,07.2,W,D*37
$PTNLRTF,V,A,443341,11,3,3917.26297,N,08203.79795,W,00295,+000.000,+000.000,+000.000,0,1*50
$PTNLRBA,1,1*57
$GPZDA,030847.00,07,02,2014,,*6C
$GPGGA,030847.00,3917.26298,N,08203.79794,W,2,11,0.85,00295,M,-033,M,,*5D
$GPGLL,3917.26298,N,08203.79794,W,030847.00,A,D*70
$GPVTG,000.0,T,007.2,M,000.00,N,000.00,K,D*23
$GPGSA,A,3,09,08,07,23,13,19,16,11,03,06,27,,1.63,0.85,1.39*0A
$GPGSV,3,1,11,09,14,308,24,08,19,307,35,07,51,316,31,23,32,191,22*74
$GPGSV,3,2,11,13,56,227,40,19,67,143,42,16,33,057,38,11,19,163,39*7B
$GPGSV,3,3,11,03,68,071,28,06,42,052,40,27,52,059,43,,,,*42
$GPGST,030847.00,,518.64,518.62,066.8,022.77,022.77,022.78*40
$GPRMC,030847.00,A,3917.26298,N,08203.79794,W,000.00,000.0,070214,07.2,W,D*3B
$PTNLRTF,V,A,443343,11,3,3917.26298,N,08203.79794,W,00295,+000.000,+000.000,+000.000,0,1*5C
$PTNLRBA,1,1*57
$GPZDA,030848.00,07,02,2014,,*63
$GPGGA,030848.00,3917.26298,N,08203.79794,W,2,11,0.85,00295,M,-033,M,,*52
$GPGLL,3917.26298,N,08203.79794,W,030848.00,A,D*7F
$GPVTG,000.0,T,007.2,M,000.00,N,000.00,K,D*23
$GPGSA,A,3,09,08,07,23,13,19,16,11,03,06,27,,1.63,0.85,1.39*0A
$GPGSV,3,1,11,09,14,308,24,08,19,307,35,07,51,316,32,23,32,191,20*75
$GPGSV,3,2,11,13,56,227,40,19,67,143,42,16,33,057,38,11,19,163,39*7B
$GPGSV,3,3,11,03,68,071,27,06,42,052,40,27,52,059,43,,,,*4D
$GPGST,030848.00,,478.76,478.73,066.9,021.88,021.88,021.89*40
$GPRMC,030848.00,A,3917.26298,N,08203.79794,W,000.00,000.0,070214,07.2,W,D*34
$PTNLRTF,V,A,443344,11,3,3917.26298,N,08203.79794,W,00295,+000.000,+000.000,+000.000,0,1*5B
$PTNLRBA,1,1*57
$GPZDA,030850.00,07,02,2014,,*6A
$GPGGA,030850.00,3917.26300,N,08203.79794,W,2,11,0.85,00295,M,-033,M,,*5B
$GPGLL,3917.26300,N,08203.79794,W,030850.00,A,D*76
$GPVTG,000.0,T,007.2,M,000.00,N,000.00,K,D*23
$GPGSA,A,3,09,08,07,23,13,19,16,11,03,06,27,,1.63,0.85,1.39*0A
$GPGSV,3,1,11,09,14,308,24,08,19,307,35,07,51,316,32,23,32,191,20*75
$GPGSV,3,2,11,13,56,227,40,19,67,143,42,16,33,057,38,11,19,163,39*7B
$GPGSV,3,3,11,03,68,071,27,06,42,052,39,27,52,059,43,,,,*43
$GPGST,030850.00,,399.59,399.56,067.3,019.99,019.99,020.00*48
$GPRMC,030850.00,A,3917.26300,N,08203.79794,W,000.00,000.0,070214,07.2,W,D*3D
$PTNLRTF,V,A,443346,11,3,3917.26300,N,08203.79794,W,00295,+000.000,+000.000,+000.000,0,1*59
$PTNLRBA,1,1*57
$GPZDA,030851.00,07,02,2014,,*6B
$GPGGA,030851.00,3917.26300,N,08203.79794,W,2,11,0.85,00295,M,-033,M,,*5A
$GPGLL,3917.26300,N,08203.79794,W,030851.00,A,D*77
$GPVTG,000.0,T,007.2,M,000.00,N,000.00,K,D*23
$GPGSA,A,3,09,08,07,23,13,19,16,11,03,06,27,,1.63,0.85,1.39*0A
$GPGSV,3,1,11,09,14,308,25,08,19,307,36,07,51,316,33,23,32,191,17*72
$GPGSV,3,2,11,13,56,227,40,19,67,143,41,16,33,057,38,11,19,163,39*78
$GPGSV,3,3,11,03,68,071,27,06,42,052,40,27,52,059,43,,,,*4D
$GPGST,030851.00,,371.31,371.29,067.4,019.27,019.27,019.28*48
$GPRMC,030851.00,A,3917.26300,N,08203.79794,W,000.00,000.0,070214,07.2,W,D*3C
$PTNLRTF,V,A,443347,11,3,3917.26300,N,08203.79794,W,00295,+000.000,+000.000,+000.000,0,1*58
$PTNLRBA,1,1*57
$GPZDA,030853.00,07,02,2014,,*69
$GPGGA,030853.00,3917.26302,N,08203.79792,W,2,10,0.93,00295,M,-033,M,,*5A
$GPGLL,3917.26302,N,08203.79792,W,030853.00,A,D*71
$GPVTG,000.0,T,007.2,M,000.00,N,000.00,K,D*23
$GPGSA,A,3,09,08,07,13,19,16,11,03,06,27,,,1.68,0.93,1.40*09
$GPGSV,3,1,11,09,14,308,26,08,19,307,35,07,51,316,32,23,32,191,15*71
$GPGSV,3,2,11,13,56,227,40,19,67,143,41,16,33,057,37,11,19,163,40*79
$GPGSV,3,3,11,03,68,071,26,06,42,052,39,27,52,059,43,,,,*42
$GPGST,030853.00,,340.42,340.39,067.6,018.45,018.45,018.46*44
$GPRMC,030853.00,A,3917.26302,N,08203.79792,W,000.00,000.0,070214,07.2,W,D*3A
$PTNLRTF,V,A,443349,10,3,3917.26302,N,08203.79792,W,00295,+000.000,+000.000,+000.000,0,1*53
$PTNLRBA,1,1*57
$GPZDA,030854.00,07,02,2014,,*6E
$GPGGA,030854.00,3917.26303,N,08203.79792,W,2,10,0.93,00295,M,-033,M,,*5C
$GPGLL,3917.26303,N,08203.79792,W,030854.00,A,D*77
$GPVTG,000.0,T,007.2,M,000.00,N,000.00,K,D*23
$GPGSA,A,3,09,08,07,13,19,16,11,03,06,27,,,1.68,0.93,1.40*09
$GPGSV,3,1,11,09,14,308,26,08,19,307,35,07,51,316,31,23,32,191,16*71
$GPGSV,3,2,11,13,56,227,40,19,67,143,41,16,33,057,37,11,19,163,39*77
$GPGSV,3,3,11,03,68,071,24,06,42,052,39,27,52,059,43,,,,*40
$GPGST,030854.00,,334.30,334.27,067.7,018.28,018.28,018.29*41
$GPRMC,030854.00,A,3917.26303,N,08203.79792,W,000.00,000.0,070214,07.2,W,D*3C
$PTNLRTF,V,A,443350,10,3,3917.26303,N,08203.79792,W,00295,+000.000,+000.000,+000.000,0,1*5A
$PTNLRBA,1,1*57
$GPZDA,030856.00,07,02,2014,,*6C
$GPGGA,030856.00,3917.26305,N,08203.79791,W,2,11,0.85,00295,M,-033,M,,*5D
$GPGLL,3917.26305,N,08203.79791,W,030856.00,A,D*70
$GPVTG,000.0,T,007.2,M,000.00,N,000.00,K,D*23
$GPGSA,A,3,09,08,07,23,13,19,16,11,03,06,27,,1.63,0.85,1.39*0A
$GPGSV,3,1,11,09,14,308,27,08,19,307,36,07,51,316,31,23,32,191,11*74
$GPGSV,3,2,11,13,56,227,40,19,67,143,41,16,33,057,37,11,19,163,39*77
$GPGSV,3,3,11,03,68,071,24,06,42,052,40,27,52,059,43,,,,*4E
$GPGST,030856.00,,298.72,298.69,067.9,017.28,017.28,017.29*4E
$GPRMC,030856.00,A,3917.26305,N,08203.79791,W,000.00,000.0,070214,07.2,W,D*3B
$PTNLRTF,V,A,443352,11,3,3917.26305,N,08203.79791,W,00295,+000.000,+000.000,+000.000,0,1*5C
$PTNLRBA,1,1*57
$GPZDA,030857.00,07,02,2014,,*6D
$GPGGA,030857.00,3917.26305,N,08203.79791,W,2,10,0.93,00295,M,-033,M,,*5A
$GPGLL,3917.26305,N,08203.79791,W,030857.00,A,D*71
$GPVTG,000.0,T,007.2,M,000.00,N,000.00,K,D*23
$GPGSA,A,3,09,08,07,13,19,16,11,03,06,27,,,1.68,0.93,1.40*09
$GPGSV,3,1,11,09,14,308,26,08,19,307,36,07,51,316,31,23,32,191,18*7C
$GPGSV,3,2,11,13,56,227,40,19,67,143,41,16,33,057,37,11,19,163,39*77
$GPGSV,3,3,11,03,68,071,25,06,42,052,40,27,52,059,43,,,,*4F
$GPGST,030857.00,,275.38,275.36,067.9,016.59,016.59,016.60*47
$GPRMC,030857.00,A,3917.26305,N,08203.79791,W,000.00,000.0,070214,07.2,W,D*3A
$PTNLRTF,V,A,443353,10,3,3917.26305,N,08203.79791,W,00295,+000.000,+000.000,+000.000,0,1*5C
$PTNLRBA,1,1*57
$GPZDA,030900.00,07,02,2014,,*6E
$GPGGA,030900.00,3917.26305,N,08203.79790,W,2,10,0.93,00295,M,-033,M,,*58
$GPGLL,3917.26305,N,08203.79790,W,030900.00,A,D*73
$GPVTG,000.0,T,007.2,M,000.00,N,000.00,K,D*23
$GPGSA,A,3,09,08,07,13,19,16,11,03,06,27,,,1.68,0.93,1.40*09
$GPGSV,3,1,11,09,14,308,28,08,19,307,37,07,51,316,30,23,32,191,19*73
$GPGSV,3,2,11,13,56,227,39,19,67,143,41,16,33,057,37,11,19,163,40*77
$GPGSV,3,3,11,03,68,071,21,06,42,052,40,27,52,059,43,,,,*4B
$GPGST,030900.00,,242.14,242.11,068.0,015.56,015.56,015.57*4E
$GPRMC,030900.00,A,3917.26305,N,08203.79790,W,000.00,000.0,070214,07.2,W,D*38
$PTNLRTF,V,A,443356,10,3,3917.26305,N,08203.79790,W,00295,+000.000,+000.000,+000.000,0,1*58
$PTNLRBA,1,1*57
$GPZDA,030901.00,07,02,2014,,*6F
$GPGGA,030901.00,3917.26306,N,08203.79790,W,2,11,0.85,00295,M,-033,M,,*5C
$GPGLL,3917.26306,N,08203.79790,W,030901.00,A,D*71
$GPVTG,000.0,T,007.2,M,000.00,N,000.00,K,D*23
$GPGSA,A,3,09,08,07,23,13,19,16,11,03,06,27,,1.63,0.85,1.39*0A
$GPGSV,3,1,11,09,14,308,28,08,19,307,36,07,51,316,31,23,32,191,21*78
$GPGSV,3,2,11,13,56,227,39,19,67,143,41,16,33,057,38,11,19,163,39*76
$GPGSV,3,3,11,03,68,071,21,06,42,052,40,27,52,059,43,,,,*4B
$GPGST,030901.00,,671.63,671.60,067.9,025.92,025.92,025.92*45
$GPRMC,030901.00,A,3917.26306,N,08203.79790,W,000.00,000.0,070214,07.2,W,D*3A
$PTNLRTF,V,A,443357,11,3,3917.26306,N,08203.79790,W,00295,+000.000,+000.000,+000.000,0,1*5B
$PTNLRBA,1,1*57
$GPZDA,030902.00,07,02,2014,,*6C
$GPGGA,030902.00,3917.26303,N,08203.79786,W,2,10,0.86,00296,M,-033,M,,*5C
$GPGLL,3917.26303,N,08203.79786,W,030902.00,A,D*70
$GPVTG,134.7,T,141.9,M,000.15,N,000.28,K,D*24
$GPGSA,A,3,09,08,07,23,13,19,16,11,06,27,,,1.72,0.86,1.49*0D
$GPGSV,3,1,11,09,14,308,29,08,19,307,36,07,51,316,31,23,32,191,19*72
$GPGSV,3,2,11,13,56,227,38,19,67,143,41,16,33,057,37,11,19,163,39*78
$GPGSV,3,3,11,03,68,071,22,06,42,052,40,27,52,059,43,,,,*48
$GPGST,030902.00,,086.71,086.68,060.2,032.97,032.96,032.97*43
$GPRMC,030902.00,A,3917.26303,N,08203.79786,W,000.15,134.7,070214,07.2,W,D*3E
$PTNLRTF,V,A,443358,10,3,3917.26303,N,08203.79786,W,00296,+000.056,-000.055,+000.271,0,1*55
$PTNLRBA,1,1*57
$GPZDA,030903.00,07,02,2014,,*6D
$GPGGA,030903.00,3917.26305,N,08203.79786,W,2,10,0.93,00296,M,-033,M,,*5F
$GPGLL,3917.26305,N,08203.79786,W,030903.00,A,D*77
$GPVTG,037.4,T,044.6,M,000.04,N,000.08,K,D*2C
$GPGSA,A,3,09,08,07,13,19,16,11,03,06,27,,,1.68,0.93,1.40*09
$GPGSV,3,1,11,09,14,308,28,08,19,307,36,07,51,316,32,23,32,191,19*70
$GPGSV,3,2,11,13,56,227,38,19,67,143,41,16,33,057,38,11,19,163,39*77
$GPGSV,3,3,11,03,68,071,23,06,42,052,40,27,52,059,43,,,,*49
$GPGST,030903.00,,998.51,998.48,054.6,031.60,031.60,031.60*4B
$GPRMC,030903.00,A,3917.26305,N,08203.79786,W,000.04,037.4,070214,07.2,W,D*38
$PTNLRTF,V,A,443359,10,3,3917.26305,N,08203.79786,W,00296,+000.014,+000.018,+000.013,0,1*5D
$PTNLRBA,1,1*57
$GPZDA,030905.00,07,02,2014,,*6B
$GPGGA,030905.00,3917.26304,N,08203.79788,W,2,10,0.93,00296,M,-033,M,,*56
$GPGLL,3917.26304,N,08203.79788,W,030905.00,A,D*7E
$GPVTG,000.0,T,007.2,M,000.00,N,000.00,K,D*23
$GPGSA,A,3,09,08,07,13,19,16,11,03,06,27,,,1.68,0.93,1.40*09
$GPGSV,3,1,11,09,14,308,30,08,19,307,36,07,51,316,29,23,32,191,16*7C
$GPGSV,3,2,11,13,56,227,38,19,67,143,41,16,33,057,37,11,19,163,39*78
$GPGSV,3,3,11,03,68,071,25,06,42,052,40,27,52,059,44,,,,*48
$GPGST,030905.00,,823.27,823.24,060.4,028.69,028.69,028.70*4A
$GPRMC,030905.00,A,3917.26304,N,08203.79788,W,000.00,000.0,070214,07.2,W,D*35
$PTNLRTF,V,A,443361,10,3,3917.26304,N,08203.79788,W,00296,+000.000,+000.000,+000.000,0,1*57
$PTNLRBA,1,1*57
$GPZDA,030906.00,07,02,2014,,*68
$GPGGA,030906.00,3917.26305,N,08203.79788,W,2,11,0.85,00296,M,-033,M,,*52
$GPGLL,3917.26305,N,08203.79788,W,030906.00,A,D*7C
$GPVTG,000.0,T,007.2,M,000.00,N,000.00,K,D*23
$GPGSA,A,3,09,08,07,23,13,19,16,11,03,06,27,,1.63,0.85,1.39*0A
$GPGSV,3,1,11,09,14,308,28,08,20,307,36,07,51,316,29,23,32,191,17*7E
$GPGSV,3,2,11,13,55,227,38,19,68,143,41,16,32,058,38,11,19,163,39*75
$GPGSV,3,3,11,03,68,070,24,06,41,052,40,27,52,058,43,,,,*4D
$GPGST,030906.00,,640.40,640.37,060.2,040.50,040.50,040.51*41
$GPRMC,030906.00,A,3917.26305,N,08203.79788,W,000.00,000.0,070214,07.2,W,D*37
$PTNLRTF,V,A,443362,11,3,3917.26305,N,08203.79788,W,00296,+000.000,+000.000,+000.000,0,1*54
$PTNLRBA,1,1*57
$GPZDA,030908.00,07,02,2014,,*66
$GPGGA,030908.00,3917.26306,N,08203.79788,W,2,10,0.93,00296,M,-033,M,,*59
$GPGLL,3917.26306,N,08203.79788,W,030908.00,A,D*71
$GPVTG,000.0,T,007.2,M,000.00,N,000.00,K,D*23
$GPGSA,A,3,09,08,07,13,19,16,11,03,06,27,,,1.68,0.93,1.40*09
$GPGSV,3,1,11,09,14,308,29,08,20,307,36,07,51,316,27,23,32,191,13*75
$GPGSV,3,2,11,13,55,227,38,19,68,143,41,16,32,058,38,11,19,163,38*74
$GPGSV,3,3,11,03,68,070,25,06,41,052,39,27,52,058,43,,,,*42
$GPGST,030908.00,,025.81,025.78,060.3,045.01,045.01,045.01*48
$GPRMC,030908.00,A,3917.26306,N,08203.79788,W,000.00,000.0,070214,07.2,W,D*3A
$PTNLRTF,V,A,443364,10,3,3917.26306,N,08203.79788,W,00296,+000.000,+000.000,+000.000,0,1*50
$PTNLRBA,1,1*57
$GPZDA,030909.00,07,02,2014,,*67
$GPGGA,030909.00,3917.26307,N,08203.79799,W,2,10,0.93,00296,M,-033,M,,*59
$GPGLL,3917.26307,N,08203.79799,W,030909.00,A,D*71
$GPVTG,272.5,T,279.8,M,000.33,N,000.60,K,D*26
$GPGSA,A,3,09,08,07,13,19,16,11,03,06,27,,,1.68,0.93,1.40*09
$GPGSV,3,1,11,09,14,308,29,08,20,307,36,07,51,316,27,23,32,191,13*75
$GPGSV,3,2,11,13,55,227,38,19,68,143,42,16,32,058,38,11,19,163,38*77
$GPGSV,3,3,11,03,68,070,25,06,41,052,40,27,52,058,43,,,,*4C
$GPGST,030909.00,,829.50,829.47,052.4,042.77,042.77,042.78*46
$GPRMC,030909.00,A,3917.26307,N,08203.79799,W,000.33,272.5,070214,07.2,W,D*38
$PTNLRTF,V,A,443365,10,3,3917.26307,N,08203.79799,W,00296,-000.168,+000.007,+000.187,0,1*50
$PTNLRBA,1,1*57
$GPZDA,030911.00,07,02,2014,,*6E
$GPGGA,030911.00,3917.26307,N,08203.79797,W,2,10,0.93,00296,M,-033,M,,*5E
$GPGLL,3917.26307,N,08203.79797,W,030911.00,A,D*76
$GPVTG,000.0,T,007.2,M,000.00,N,000.00,K,D*23
$GPGSA,A,3,09,08,07,13,19,16,11,03,06,27,,,1.68,0.93,1.40*09
$GPGSV,3,1,11,09,14,308,30,08,20,307,36,07,51,316,28,23,32,191,00*70
$GPGSV,3,2,11,13,55,227,38,19,68,143,41,16,32,058,37,11,19,163,38*7B
$GPGSV,3,3,11,03,68,070,26,06,41,052,40,27,52,058,43,,,,*4F
$GPGST,030911.00,,498.15,498.12,049.1,038.71,038.71,038.71*45
$GPRMC,030911.00,A,3917.26307,N,08203.79797,W,000.00,000.0,070214,07.2,W,D*3D
$PTNLRTF,V,A,443367,10,3,3917.26307,N,08203.79797,W,00296,+000.000,+000.000,+000.000,0,1*5C
$PTNLRBA,1,1*57
$GPZDA,030912.00,07,02,2014,,*6D
$GPGGA,030912.00,3917.26307,N,08203.79796,W,2,10,0.93,00296,M,-033,M,,*5C
$GPGLL,3917.26307,N,08203.79796,W,030912.00,A,D*74
$GPVTG,000.0,T,007.2,M,000.00,N,000.00,K,D*23
$GPGSA,A,3,09,08,07,13,19,16,11,03,06,27,,,1.68,0.93,1.40*09
$GPGSV,3,1,11,09,14,308,30,08,20,307,36,07,51,316,28,23,32,191,00*70
$GPGSV,3,2,11,13,55,227,39,19,68,143,41,16,32,058,37,11,19,163,38*7A
$GPGSV,3,3,11,03,68,070,26,06,41,052,40,27,52,058,44,,,,*48
$GPGST,030912.00,,352.35,352.32,049.7,036.77,036.77,036.78*47
$GPRMC,030912.00,A,3917.26307,N,08203.79796,W,000.00,000.0,070214,07.2,W,D*3F
$PTNLRTF,V,A,443368,10,3,3917.26307,N,08203.79796,W,00296,+000.000,+000.000,+000.000,0,1*52
$PTNLRBA,1,1*57
$GPZDA,030914.00,07,02,2014,,*6B
$GPGGA,030914.00,3917.26308,N,08203.79794,W,2,10,0.93,00296,M,-033,M,,*57
$GPGLL,3917.26308,N,08203.79794,W,030914.00,A,D*7F
$GPVTG,000.0,T,007.2,M,000.00,N,000.00,K,D*23
$GPGSA,A,3,09,08,07,13,19,16,11,03,06,27,,,1.68,0.93,1.40*09
$GPGSV,3,1,11,09,14,308,32,08,20,307,36,07,51,316,28,23,32,191,16*75
$GPGSV,3,2,11,13,55,227,38,19,68,143,41,16,32,058,36,11,19,163,40*75
$GPGSV,3,3,11,03,68,070,27,06,41,052,39,27,52,058,44,,,,*47
$GPGST,030914.00,,107.62,107.59,050.3,033.28,033.28,033.29*43
$GPRMC,030914.00,A,3917.26308,N,08203.79794,W,000.00,000.0,070214,07.2,W,D*34
$PTNLRTF,V,A,443370,10,3,3917.26308,N,08203.79794,W,00296,+000.000,+000.000,+000.000,0,1*56
$PTNLRBA,1,1*57
$GPZDA,030915.00,07,02,2014,,*6A
$GPGGA,030915.00,3917.26309,N,08203.79793,W,2,10,0.93,00296,M,-033,M,,*50
$GPGLL,3917.26309,N,08203.79793,W,030915.00,A,D*78
$GPVTG,000.0,T,007.2,M,000.00,N,000.00,K,D*23
$GPGSA,A,3,09,08,07,13,19,16,11,03,06,27,,,1.68,0.93,1.40*09
$GPGSV,3,1,11,09,14,308,29,08,20,307,36,07,51,316,30,23,32,191,09*78
$GPGSV,3,2,11,13,55,227,38,19,68,143,40,16,32,058,36,11,19,163,39*7A
$GPGSV,3,3,11,03,68,070,28,06,41,052,39,27,52,058,44,,,,*48
$GPGST,030915.00,,002.08,002.05,050.7,031.66,031.66,031.66*4A
$GPRMC,030915.00,A,3917.26309,N,08203.79793,W,000.00,000.0,070214,07.2,W,D*33
$PTNLRTF,V,A,443371,10,3,3917.26309,N,08203.79793,W,00296,+000.000,+000.000,+000.000,0,1*51
$PTNLRBA,1,1*57
$GPZDA,030917.00,07,02,2014,,*68
$GPGGA,030917.00,3917.26310,N,08203.79792,W,2,10,0.93,00296,M,-033,M,,*5B
$GPGLL,3917.26310,N,08203.79792,W,030917.00,A,D*73
$GPVTG,000.0,T,007.2,M,000.00,N,000.00,K,D*23
$GPGSA,A,3,09,08,07,13,19,16,11,03,06,27,,,1.68,0.93,1.40*09
$GPGSV,3,1,11,09,14,308,30,08,20,307,36,07,51,316,31,23,32,191,25*7F
$GPGSV,3,2,11,13,55,227,40,19,68,143,40,16,32,058,37,11,19,163,38*75
$GPGSV,3,3,11,03,68,070,28,06,41,052,38,27,52,058,44,,,,*49
$GPGST,030917.00,,819.85,819.82,051.5,028.63,028.63,028.64*4B
$GPRMC,030917.00,A,3917.26310,N,08203.79792,W,000.00,000.0,070214,07.2,W,D*38
$PTNLRTF,V,A,443373,10,3,3917.26310,N,08203.79792,W,00296,+000.000,+000.000,+000.000,0,1*5A
$PTNLRBA,1,1*57
$GPZDA,030918.00,07,02,2014,,*67
$GPGGA,030918.00,3917.26311,N,08203.79791,W,2,10,0.97,00296,M,-033,M,,*52
$GPGLL,3917.26311,N,08203.79791,W,030918.00,A,D*7E
$GPVTG,000.0,T,007.2,M,000.00,N,000.00,K,D*23
$GPGSA,A,3,09,08,07,23,13,19,11,03,06,27,,,1.78,0.97,1.49*03
$GPGSV,3,1,11,09,14,308,31,08,20,307,35,07,51,316,31,23,32,191,25*7D
$GPGSV,3,2,11,13,55,227,39,19,68,143,40,16,32,058,37,11,19,163,39*7A
$GPGSV,3,3,11,03,68,070,29,06,41,052,38,27,52,058,43,,,,*4F
$GPGST,030918.00,,771.21,771.18,051.7,027.77,027.77,027.78*49
$GPRMC,030918.00,A,3917.26311,N,08203.79791,W,000.00,000.0,070214,07.2,W,D*35
$PTNLRTF,V,A,443374,10,3,3917.26311,N,08203.79791,W,00296,+000.000,+000.000,+000.000,0,1*5F
$PTNLRBA,1,1*57
$GPZDA,030920.00,07,02,2014,,*6C
$GPGGA,030920.00,3917.26313,N,08203.79790,W,2,11,0.85,00296,M,-033,M,,*58
$GPGLL,3917.26313,N,08203.79790,W,030920.00,A,D*76
$GPVTG,000.0,T,007.2,M,000.00,N,000.00,K,D*23
$GPGSA,A,3,09,08,07,23,13,19,16,11,03,06,27,,1.63,0.85,1.39*0A
$GPGSV,3,1,11,09,14,308,30,08,20,307,35,07,51,316,31,23,32,191,27*7E
$GPGSV,3,2,11,13,55,227,39,19,68,143,41,16,32,058,38,11,19,163,40*7A
$GPGSV,3,3,11,03,68,070,30,06,41,052,38,27,52,058,43,,,,*47
$GPGST,030920.00,,682.88,682.85,052.1,026.13,026.13,026.14*4B
$GPRMC,030920.00,A,3917.26313,N,08203.79790,W,000.00,000.0,070214,07.2,W,D*3D
$PTNLRTF,V,A,443376,11,3,3917.26313,N,08203.79790,W,00296,+000.000,+000.000,+000.000,0,1*5F
$PTNLRBA,1,1*57
$GPZDA,030921.00,07,02,2014,,*6D
$GPGGA,030921.00,3917.26313,N,08203.79790,W,2,11,0.85,00296,M,-033,M,,*59
$GPGLL,3917.26313,N,08203.79790,W,030921.00,A,D*77
$GPVTG,000.0,T,007.2,M,000.00,N,000.00,K,D*23
$GPGSA,A,3,09,08,07,23,13,19,16,11,03,06,27,,1.63,0.85,1.39*0A
$GPGSV,3,1,11,09,14,308,31,08,20,307,35,07,51,316,31,23,32,191,26*7E
$GPGSV,3,2,11,13,55,227,38,19,68,143,41,16,32,058,38,11,19,163,39*75
$GPGSV,3,3,11,03,68,070,30,06,41,052,38,27,52,058,43,,,,*47
$GPGST,030921.00,,650.32,650.29,052.3,025.50,025.50,025.51*4D
$GPRMC,030921.00,A,3917.26313,N,08203.79790,W,000.00,000.0,070214,07.2,W,D*3C
$PTNLRTF,V,A,443377,11,3,3917.26313,N,08203.79790,W,00296,+000.000,+000.000,+000.000,0,1*5E
$PTNLRBA,1,1*57
$GPZDA,030923.00,07,02,2014,,*6F
$GPGGA,030923.00,3917.26315,N,08203.79793,W,2,11,0.85,00296,M,-033,M,,*5E
$GPGLL,3917.26315,N,08203.79793,W,030923.00,A,D*70
$GPVTG,000.0,T,007.2,M,000.00,N,000.00,K,D*23
$GPGSA,A,3,09,08,07,23,13,19,16,11,03,06,27,,1.63,0.85,1.39*0A
$GPGSV,3,1,11,09,14,308,31,08,20,307,35,07,51,316,31,23,32,191,28*70
$GPGSV,3,2,11,13,55,227,38,19,68,143,41,16,32,058,38,11,19,163,40*7B
$GPGSV,3,3,11,03,68,070,28,06,41,052,38,27,52,058,43,,,,*4E
$GPGST,030923.00,,577.77,577.74,052.6,024.04,024.04,024.04*42
$GPRMC,030923.00,A,3917.26315,N,08203.79793,W,000.00,000.0,070214,07.2,W,D*3B
$PTNLRTF,V,A,443379,11,3,3917.26315,N,08203.79793,W,00296,+000.000,+000.000,+000.000,0,1*55
$PTNLRBA,1,1*57
$GPZDA,030924.00,07,02,2014,,*68
$GPGGA,030924.00,3917.26316,N,08203.79793,W,2,11,0.85,00296,M,-033,M,,*5A
$GPGLL,3917.26316,N,08203.79793,W,030924.00,A,D*74
$GPVTG,000.0,T,007.2,M,000.00,N,000.00,K,D*23
$GPGSA,A,3,09,08,07,23,13,19,16,11,03,06,27,,1.63,0.85,1.39*0A
$GPGSV,3,1,11,09,14,308,31,08,20,307,34,07,51,316,31,23,32,191,28*71
$GPGSV,3,2,11,13,55,227,38,19,68,143,41,16,32,058,38,11,19,163,39*75
$GPGSV,3,3,11,03,68,070,27,06,41,052,38,27,52,058,43,,,,*41
$GPGST,030924.00,,547.08,547.05,052.4,023.39,023.39,023.40*4E
$GPRMC,030924.00,A,3917.26316,N,08203.79793,W,000.00,000.0,070214,07.2,W,D*3F
$PTNLRTF,V,A,443380,11,3,3917.26316,N,08203.79793,W,00296,+000.000,+000.000,+000.000,0,1*50
$PTNLRBA,1,1*57
$GPZDA,030926.00,07,02,2014,,*6A
$GPGGA,030926.00,3917.26317,N,08203.79797,W,2,11,0.85,00296,M,-033,M,,*5D
$GPGLL,3917.26317,N,08203.79797,W,030926.00,A,D*73
$GPVTG,000.0,T,007.2,M,000.00,N,000.00,K,D*23
$GPGSA,A,3,09,08,07,23,13,19,16,11,03,06,27,,1.63,0.85,1.39*0A
$GPGSV,3,1,11,09,14,308,32,08,20,307,34,07,51,316,31,23,32,191,26*7C
$GPGSV,3,2,11,13,55,227,38,19,68,143,41,16,32,058,38,11,19,163,39*75
$GPGSV,3,3,11,03,68,070,24,06,41,052,38,27,52,058,44,,,,*45
$GPGST,030926.00,,501.76,501.74,052.4,022.40,022.40,022.41*43
$GPRMC,030926.00,A,3917.26317,N,08203.79797,W,000.00,000.0,070214,07.2,W,D*38
$PTNLRTF,V,A,443382,11,3,3917.26317,N,08203.79797,W,00296,+000.000,+000.000,+000.000,0,1*57
$PTNLRBA,1,1*57
$GPZDA,030927.00,07,02,2014,,*6B
$GPGGA,030927.00,3917.26318,N,08203.79797,W,2,11,0.85,00296,M,-033,M,,*53
$GPGLL,3917.26318,N,08203.79797,W,030927.00,A,D*7D
$GPVTG,000.0,T,007.2,M,000.00,N,000.00,K,D*23
$GPGSA,A,3,09,08,07,23,13,19,16,11,03,06,27,,1.63,0.85,1.39*0A
$GPGSV,3,1,11,09,14,308,32,08,20,307,33,07,51,316,31,23,32,191,26*7B
$GPGSV,3,2,11,13,55,227,39,19,68,143,42,16,32,058,37,11,19,163,39*78
$GPGSV,3,3,11,03,68,070,25,06,41,052,38,27,52,058,44,,,,*44
$GPGST,030927.00,,476.58,476.55,052.3,021.83,021.83,021.84*40
$GPRMC,030927.00,A,3917.26318,N,08203.79797,W,000.00,000.0,070214,07.2,W,D*36
$PTNLRTF,V,A,443383,11,3,3917.26318,N,08203.79797,W,00296,+000.000,+000.000,+000.000,0,1*59
$PTNLRBA,1,1*57
$GPZDA,030929.00,07,02,2014,,*65
$GPGGA,030929.00,3917.26320,N,08203.79800,W,2,10,0.93,00296,M,-033,M,,*51
$GPGLL,3917.26320,N,08203.79800,W,030929.00,A,D*79
$GPVTG,000.0,T,007.2,M,000.00,N,000.00,K,D*23
$GPGSA,A,3,09,08,07,13,19,16,11,03,06,27,,,1.68,0.93,1.40*09
$GPGSV,3,1,11,09,14,308,32,08,20,307,32,07,51,316,31,23,32,191,25*79
$GPGSV,3,2,11,13,55,227,39,19,68,143,42,16,32,058,37,11,19,163,39*78
$GPGSV,3,3,11,03,68,070,25,06,41,052,38,27,52,058,44,,,,*44
$GPGST,030929.00,,429.96,429.94,052.3,020.74,020.74,020.74*4F
$GPRMC,030929.00,A,3917.26320,N,08203.79800,W,000.00,000.0,070214,07.2,W,D*32
$PTNLRTF,V,A,443385,10,3,3917.26320,N,08203.79800,W,00296,+000.000,+000.000,+000.000,0,1*54
$PTNLRBA,1,1*57
$GPZDA,030930.00,07,02,2014,,*6D
$GPGGA,030930.00,3917.26321,N,08203.79800,W,2,11,0.85,00296,M,-033,M,,*5E
$GPGLL,3917.26321,N,08203.79800,W,030930.00,A,D*70
$GPVTG,000.0,T,007.2,M,000.00,N,000.00,K,D*23
$GPGSA,A,3,09,08,07,23,13,19,16,11,03,06,27,,1.63,0.85,1.39*0A
$GPGSV,3,1,11,09,14,308,32,08,20,307,32,07,51,316,31,23,32,191,25*79
$GPGSV,3,2,11,13,55,227,39,19,68,143,41,16,32,058,37,11,19,163,39*7B
$GPGSV,3,3,11,03,68,070,24,06,41,052,38,27,52,058,44,,,,*45
$GPGST,030930.00,,396.90,396.87,052.3,019.92,019.92,019.93*40
$GPRMC,030930.00,A,3917.26321,N,08203.79800,W,000.00,000.0,070214,07.2,W,D*3B
$PTNLRTF,V,A,443386,11,3,3917.26321,N,08203.79800,W,00296,+000.000,+000.000,+000.000,0,1*57
$PTNLRBA,1,1*57
$GPZDA,030932.00,07,02,2014,,*6F
$GPGGA,030932.00,3917.26322,N,08203.79800,W,2,11,0.85,00296,M,-033,M,,*5F
$GPGLL,3917.26322,N,08203.79800,W,030932.00,A,D*71
$GPVTG,000.0,T,007.2,M,000.00,N,000.00,K,D*23
$GPGSA,A,3,09,08,07,23,13,19,16,11,03,06,27,,1.63,0.85,1.39*0A
$GPGSV,3,1,11,09,14,308,33,08,20,307,32,07,51,316,31,23,32,191,25*78
$GPGSV,3,2,11,13,55,227,39,19,68,143,42,16,32,058,36,11,19,163,39*79
$GPGSV,3,3,11,03,68,070,25,06,41,052,38,27,52,058,44,,,,*44
$GPGST,030932.00,,345.73,345.70,052.2,018.59,018.59,018.60*4B
$GPRMC,030932.00,A,3917.26322,N,08203.79800,W,000.00,000.0,070214,07.2,W,D*3A
$PTNLRTF,V,A,443388,11,3,3917.26322,N,08203.79800,W,00296,+000.000,+000.000,+000.000,0,1*5A
$PTNLRBA,1,1*57
$GPZDA,030933.00,07,02,2014,,*6E
$GPGGA,030933.00,3917.26323,N,08203.79800,W,2,11,0.85,00296,M,-033,M,,*5F
$GPGLL,3917.26323,N,08203.79800,W,030933.00,A,D*71
$GPVTG,000.0,T,007.2,M,000.00,N,000.00,K,D*23
$GPGSA,A,3,09,08,07,23,13,19,16,11,03,06,27,,1.63,0.85,1.39*0A
$GPGSV,3,1,11,09,14,308,32,08,20,307,31,07,51,316,31,23,32,191,25*7A
$GPGSV,3,2,11,13,55,227,40,19,68,143,42,16,32,058,37,11,19,163,40*78
$GPGSV,3,3,11,03,68,070,26,06,41,052,39,27,52,058,43,,,,*41
$GPGST,030933.00,,316.79,316.76,052.2,017.80,017.80,017.81*46
$GPRMC,030933.00,A,3917.26323,N,08203.79800,W,000.00,000.0,070214,07.2,W,D*3A
$PTNLRTF,V,A,443389,11,3,3917.26323,N,08203.79800,W,00296,+000.000,+000.000,+000.000,0,1*5A
$PTNLRBA,1,1*57
$GPZDA,030935.00,07,02,2014,,*68
$GPGGA,030935.00,3917.26323,N,08203.79801,W,2,11,0.85,00296,M,-033,M,,*58
$GPGLL,3917.26323,N,08203.79801,W,030935.00,A,D*76
$GPVTG,000.0,T,007.2,M,000.00,N,000.00,K,D*23
$GPGSA,A,3,09,08,07,23,13,19,16,11,03,06,27,,1.63,0.85,1.39*0A
$GPGSV,3,1,11,09,14,308,33,08,20,307,31,07,51,316,31,23,32,191,25*7B
$GPGSV,3,2,11,13,55,227,40,19,68,143,42,16,32,058,37,11,19,163,40*78
$GPGSV,3,3,11,03,68,070,24,06,41,052,39,27,52,058,43,,,,*43
$GPGST,030935.00,,274.27,274.24,052.0,016.56,016.56,016.57*44
$GPRMC,030935.00,A,3917.26323,N,08203.79801,W,000.00,000.0,070214,07.2,W,D*3D
$PTNLRTF,V,A,443391,11,3,3917.26323,N,08203.79801,W,00296,+000.000,+000.000,+000.000,0,1*52
$PTNLRBA,1,1*57
$GPZDA,030936.00,07,02,2014,,*6B
$GPGGA,030936.00,3917.26323,N,08203.79801,W,2,11,0.85,00296,M,-033,M,,*5B
$GPGLL,3917.26323,N,08203.79801,W,030936.00,A,D*75
$GPVTG,000.0,T,007.2,M,000.00,N,000.00,K,D*23
$GPGSA,A,3,09,08,07,23,13,19,16,11,03,06,27,,1.63,0.85,1.39*0A
$GPGSV,3,1,11,09,14,308,33,08,20,307,32,07,51,316,32,23,32,191,25*7B
$GPGSV,3,2,11,13,55,227,39,19,68,143,41,16,32,058,37,11,19,163,40*75
$GPGSV,3,3,11,03,68,070,26,06,41,052,39,27,52,058,43,,,,*41
$GPGST,030936.00,,251.43,251.40,052.0,015.86,015.86,015.86*48
$GPRMC,030936.00,A,3917.26323,N,08203.79801,W,000.00,000.0,070214,07.2,W,D*3E
$PTNLRTF,V,A,443392,11,3,3917.26323,N,08203.79801,W,00296,+000.000,+000.000,+000.000,0,1*51
$PTNLRBA,1,1*57
$GPZDA,030938.00,07,02,2014,,*65
$GPGGA,030938.00,3917.26323,N,08203.79799,W,2,11,0.85,00296,M,-033,M,,*5B
$GPGLL,3917.26323,N,08203.79799,W,030938.00,A,D*75
$GPVTG,000.0,T,007.2,M,000.00,N,000.00,K,D*23
$GPGSA,A,3,09,08,07,23,13,19,16,11,03,06,27,,1.63,0.85,1.39*0A
$GPGSV,3,1,11,09,14,308,34,08,20,307,33,07,51,316,33,23,32,191,25*7C
$GPGSV,3,2,11,13,55,227,40,19,68,143,42,16,32,058,37,11,19,163,39*76
$GPGSV,3,3,11,03,68,070,28,06,41,052,39,27,52,058,43,,,,*4F
$GPGST,030938.00,,209.97,209.94,051.8,014.49,014.49,014.50*47
$GPRMC,030938.00,A,3917.26323,N,08203.79799,W,000.00,000.0,070214,07.2,W,D*3E
$PTNLRTF,V,A,443394,11,3,3917.26323,N,08203.79799,W,00296,+000.000,+000.000,+000.000,0,1*59
$PTNLRBA,1,1*57
$GPZDA,030939.00,07,02,2014,,*64
$GPGGA,030939.00,3917.26322,N,08203.79800,W,2,11,0.85,00296,M,-033,M,,*54
$GPGLL,3917.26322,N,08203.79800,W,030939.00,A,D*7A
$GPVTG,000.0,T,007.2,M,000.00,N,000.00,K,D*23
$GPGSA,A,3,09,08,07,23,13,19,16,11,03,06,27,,1.63,0.85,1.39*0A
$GPGSV,3,1,11,09,14,308,33,08,20,307,33,07,51,316,34,23,32,191,27*7E
$GPGSV,3,2,11,13,55,227,40,19,68,143,41,16,32,058,36,11,19,163,39*74
$GPGSV,3,3,11,03,68,070,28,06,41,052,39,27,52,058,44,,,,*48
$GPGST,030939.00,,194.75,194.72,051.7,013.95,013.95,013.96*40
$GPRMC,030939.00,A,3917.26322,N,08203.79800,W,000.00,000.0,070214,07.2,W,D*31
$PTNLRTF,V,A,443395,11,3,3917.26322,N,08203.79800,W,00296,+000.000,+000.000,+000.000,0,1*56
$PTNLRBA,1,1*57
$GPZDA,030941.00,07,02,2014,,*6B
$GPGGA,030941.00,3917.26322,N,08203.79799,W,2,11,0.85,00296,M,-033,M,,*54
$GPGLL,3917.26322,N,08203.79799,W,030941.00,A,D*7A
$GPVTG,000.0,T,007.2,M,000.00,N,000.00,K,D*23
$GPGSA,A,3,09,08,07,23,13,19,16,11,03,06,27,,1.63,0.85,1.39*0A
$GPGSV,3,1,11,09,14,308,34,08,20,307,34,07,51,316,34,23,32,191,27*7E
$GPGSV,3,2,11,13,55,227,39,19,68,143,41,16,32,058,36,11,19,163,40*74
$GPGSV,3,3,11,03,68,070,28,06,41,052,39,27,52,058,43,,,,*4F
$GPGST,030941.00,,182.57,182.54,051.6,013.51,013.51,013.52*42
$GPRMC,030941.00,A,3917.26322,N,08203.79799,W,000.00,000.0,070214,07.2,W,D*31
$PTNLRTF,V,A,443397,11,3,3917.26322,N,08203.79799,W,00296,+000.000,+000.000,+000.000,0,1*5B
$PTNLRBA,1,1*57
$GPZDA,030942.00,07,02,2014,,*68
$GPGGA,030942.00,3917.26322,N,08203.79799,W,2,11,0.85,00296,M,-033,M,,*57
$GPGLL,3917.26322,N,08203.79799,W,030942.00,A,D*79
$GPVTG,000.0,T,007.2,M,000.00,N,000.00,K,D*23
$GPGSA,A,3,09,08,07,23,13,19,16,11,03,06,27,,1.63,0.85,1.39*0A
$GPGSV,3,1,11,09,14,308,34,08,20,307,34,07,51,316,34,23,32,191,28*71
$GPGSV,3,2,11,13,55,227,39,19,68,143,41,16,32,058,36,11,19,163,40*74
$GPGSV,3,3,11,03,68,070,30,06,41,052,39,27,52,058,43,,,,*46
$GPGST,030942.00,,184.87,184.84,051.6,013.60,013.60,013.61*41
$GPRMC,030942.00,A,3917.26322,N,08203.79799,W,000.00,000.0,070214,07.2,W,D*32
$PTNLRTF,V,A,443398,11,3,3917.26322,N,08203.79799,W,00296,+000.000,+000.000,+000.000,0,1*54
$PTNLRBA,1,1*57
$GPZDA,030944.00,07,02,2014,,*6E
$GPGGA,030944.00,3917.26324,N,08203.79799,W,2,11,0.85,00296,M,-033,M,,*57
$GPGLL,3917.26324,N,08203.79799,W,030944.00,A,D*79
$GPVTG,000.0,T,007.2,M,000.00,N,000.00,K,D*23
$GPGSA,A,3,09,08,07,23,13,19,16,11,03,06,27,,1.63,0.85,1.39*0A
$GPGSV,3,1,11,09,14,308,34,08,20,307,34,07,51,316,33,23,32,191,29*77
$GPGSV,3,2,11,13,55,227,39,19,68,143,41,16,32,058,35,11,19,163,39*79
$GPGSV,3,3,11,03,68,070,28,06,41,052,40,27,52,058,44,,,,*46
$GPGST,030944.00,,192.59,192.56,051.4,013.88,013.88,013.89*4F
$GPRMC,030944.00,A,3917.26324,N,08203.79799,W,000.00,000.0,070214,07.2,W,D*32
$PTNLRTF,V,A,443400,11,3,3917.26324,N,08203.79799,W,00296,+000.000,+000.000,+000.000,0,1*54
$PTNLRBA,1,1*57
$GPZDA,030945.00,07,02,2014,,*6F
$GPGGA,030945.00,3917.26324,N,08203.79799,W,2,11,0.85,00296,M,-033,M,,*56
$GPGLL,3917.26324,N,08203.79799,W,030945.00,A,D*78
$GPVTG,000.0,T,007.2,M,000.00,N,000.00,K,D*23
$GPGSA,A,3,09,08,07,23,13,19,16,11,03,06,27,,1.63,0.85,1.39*0A
$GPGSV,3,1,11,09,14,309,34,08,20,307,34,07,52,316,34,23,32,191,28*73
$GPGSV,3,2,11,13,55,226,39,19,68,142,40,16,32,058,36,11,19,163,39*7B
$GPGSV,3,3,11,03,68,069,27,06,41,052,39,27,52,058,44,,,,*4F
$GPGST,030945.00,,192.69,192.67,051.3,013.88,013.88,013.89*48
$GPRMC,030945.00,A,3917.26324,N,08203.79799,W,000.00,000.0,070214,07.2,W,D*33
$PTNLRTF,V,A,443401,11,3,3917.26324,N,08203.79799,W,00296,+000.000,+000.000,+000.000,0,1*55
$PTNLRBA,1,1*57
$GPZDA,030947.00,07,02,2014,,*6D
$GPGGA,030947.00,3917.26325,N,08203.79799,W,2,11,0.85,00296,M,-033,M,,*55
$GPGLL,3917.26325,N,08203.79799,W,030947.00,A,D*7B
$GPVTG,000.0,T,007.2,M,000.00,N,000.00,K,D*23
$GPGSA,A,3,09,08,07,23,13,19,16,11,03,06,27,,1.63,0.85,1.39*0A
$GPGSV,3,1,11,09,14,309,34,08,20,307,34,07,52,316,34,23,32,191,27*7C
$GPGSV,3,2,11,13,55,226,39,19,68,142,41,16,32,058,35,11,19,163,40*77
$GPGSV,3,3,11,03,68,069,27,06,41,052,39,27,52,058,43,,,,*48
$GPGST,030947.00,,219.70,219.67,051.2,014.82,014.82,014.83*4E
$GPRMC,030947.00,A,3917.26325,N,08203.79799,W,000.00,000.0,070214,07.2,W,D*30
$PTNLRTF,V,A,443403,11,3,3917.26325,N,08203.79799,W,00296,+000.000,+000.000,+000.000,0,1*56
$PTNLRBA,1,1*57
$GPZDA,030948.00,07,02,2014,,*62
$GPGGA,030948.00,3917.26325,N,08203.79799,W,2,11,0.85,00296,M,-033,M,,*5A
$GPGLL,3917.26325,N,08203.79799,W,030948.00,A,D*74
$GPVTG,000.0,T,007.2,M,000.00,N,000.00,K,D*23
$GPGSA,A,3,09,08,07,23,13,19,16,11,03,06,27,,1.63,0.85,1.39*0A
$GPGSV,3,1,11,09,14,309,34,08,20,307,35,07,52,316,34,23,32,191,28*72
$GPGSV,3,2,11,13,55,226,39,19,68,142,41,16,32,058,35,11,19,163,40*77
$GPGSV,3,3,11,03,68,069,26,06,41,052,39,27,52,058,44,,,,*4E
$GPGST,030948.00,,215.75,215.72,051.1,014.69,014.69,014.70*4F
$GPRMC,030948.00,A,3917.26325,N,08203.79799,W,000.00,000.0,070214,07.2,W,D*3F
$PTNLRTF,V,A,443404,11,3,3917.26325,N,08203.79799,W,00296,+000.000,+000.000,+000.000,0,1*51
$PTNLRBA,1,1*57
$GPZDA,030950.00,07,02,2014,,*6B
$GPGGA,030950.00,3917.26324,N,08203.79799,W,2,11,0.85,00296,M,-033,M,,*52
$GPGLL,3917.26324,N,08203.79799,W,030950.00,A,D*7C
$GPVTG,000.0,T,007.2,M,000.00,N,000.00,K,D*23
$GPGSA,A,3,09,08,07,23,13,19,16,11,03,06,27,,1.63,0.85,1.39*0A
$GPGSV,3,1,11,09,14,309,34,08,20,307,35,07,52,316,34,23,32,191,27*7D
$GPGSV,3,2,11,13,55,226,38,19,68,142,41,16,32,058,34,11,19,163,39*79
$GPGSV,3,3,11,03,68,069,22,06,41,052,39,27,52,058,44,,,,*4A
$GPGST,030950.00,,226.45,226.42,051.0,015.05,015.05,015.06*47
$GPRMC,030950.00,A,3917.26324,N,08203.79799,W,000.00,000.0,070214,07.2,W,D*37
$PTNLRTF,V,A,443406,11,3,3917.26324,N,08203.79799,W,00296,+000.000,+000.000,+000.000,0,1*52
$PTNLRBA,1,1*57
$GPZDA,030951.00,07,02,2014,,*6A
$GPGGA,030951.00,3917.26324,N,08203.79798,W,2,11,0.85,00296,M,-033,M,,*52
$GPGLL,3917.26324,N,08203.79798,W,030951.00,A,D*7C
$GPVTG,000.0,T,007.2,M,000.00,N,000.00,K,D*23
$GPGSA,A,3,09,08,07,23,13,19,16,11,03,06,27,,1.63,0.85,1.39*0A
$GPGSV,3,1,11,09,14,309,34,08,20,307,35,07,52,316,34,23,32,191,28*72
$GPGSV,3,2,11,13,55,226,38,19,68,142,41,16,32,058,33,11,19,163,39*7E
$GPGSV,3,3,11,03,68,069,25,06,41,052,40,27,52,058,43,,,,*44
$GPGST,030951.00,,245.08,245.05,051.0,015.65,015.65,015.66*4A
$GPRMC,030951.00,A,3917.26324,N,08203.79798,W,000.00,000.0,070214,07.2,W,D*37
$PTNLRTF,V,A,443407,11,3,3917.26324,N,08203.79798,W,00296,+000.000,+000.000,+000.000,0,1*52
$PTNLRBA,1,1*57
$GPZDA,030953.00,07,02,2014,,*68
$GPGGA,030953.00,3917.26323,N,08203.79797,W,1,11,0.85,00296,M,-033,M,,*5B
$GPGLL,3917.26323,N,08203.79797,W,030953.00,A,A*73
$GPVTG,000.0,T,007.2,M,000.0,N,000.0,K,A*26
$GPGSA,A,3,09,08,07,23,13,19,16,11,03,06,27,,1.63,0.85,1.39*0A
$GPGSV,3,1,11,09,14,309,33,08,20,307,36,07,52,316,33,23,32,191,26*7F
$GPGSV,3,2,11,13,55,226,38,19,68,142,41,16,32,058,33,11,19,163,39*7E
$GPGSV,3,3,11,03,68,069,25,06,41,052,39,27,52,058,43,,,,*4A
$GPGST,030953.00,,268.69,268.67,050.9,016.39,016.39,016.40*44
$GPRMC,030953.00,A,3917.26323,N,08203.79797,W,000.0,000.0,070214,07.2,W,A*08
$PTNLRTF,V,A,443409,11,3,3917.26323,N,08203.79797,W,00296,+000.000,+000.000,+000.000,0,1*54
$PTNLRBA,1,1*57
$GPZDA,030954.00,07,02,2014,,*6F
$GPGGA,030954.00,3917.26322,N,08203.79795,W,1,11,0.85,00296,M,-033,M,,*5F
$GPGLL,3917.26322,N,08203.79795,W,030954.00,A,A*77
$GPVTG,000.0,T,007.2,M,000.0,N,000.0,K,A*26
$GPGSA,A,3,09,08,07,23,13,19,16,11,03,06,27,,1.63,0.85,1.39*0A
$GPGSV,3,1,11,09,14,309,33,08,20,307,36,07,52,316,33,23,32,191,26*7F
$GPGSV,3,2,11,13,55,226,38,19,68,142,41,16,32,058,33,11,19,163,38*7F
$GPGSV,3,3,11,03,68,069,26,06,41,052,39,27,52,058,44,,,,*4E
$GPGST,030954.00,,263.09,263.06,050.8,016.22,016.22,016.23*46
$GPRMC,030954.00,A,3917.26322,N,08203.79795,W,000.0,000.0,070214,07.2,W,A*0C
$PTNLRTF,V,A,443410,11,3,3917.26322,N,08203.79795,W,00296,+000.000,+000.000,+000.000,0,1*5F
$PTNLRBA,1,1*57
$GPZDA,030956.00,07,02,2014,,*6D
$GPGGA,030956.00,3917.26321,N,08203.79794,W,1,10,0.85,00296,M,-033,M,,*5E
$GPGLL,3917.26321,N,08203.79794,W,030956.00,A,A*77
$GPVTG,000.0,T,007.2,M,000.0,N,000.0,K,A*26
$GPGSA,A,3,09,08,07,23,13,19,16,11,06,27,,,1.72,0.85,1.50*06
$GPGSV,3,1,11,09,14,309,33,08,20,307,36,07,52,316,33,23,32,191,26*7F
$GPGSV,3,2,11,13,55,226,38,19,68,142,41,16,32,058,34,11,19,163,38*78
$GPGSV,3,3,11,03,68,069,24,06,41,052,39,27,52,058,44,,,,*4C
$GPGST,030956.00,,264.47,264.45,050.7,016.26,016.26,016.27*42
$GPRMC,030956.00,A,3917.26321,N,08203.79794,W,000.0,000.0,070214,07.2,W,A*0C
$PTNLRTF,V,A,443412,10,3,3917.26321,N,08203.79794,W,00296,+000.000,+000.000,+000.000,0,1*5E
$PTNLRBA,1,1*57
$GPZDA,030957.00,07,02,2014,,*6C
$GPGGA,030957.00,3917.26321,N,08203.79793,W,1,11,0.85,00296,M,-033,M,,*59
$GPGLL,3917.26321,N,08203.79793,W,030957.00,A,A*71
$GPVTG,000.0,T,007.2,M,000.0,N,000.0,K,A*26
$GPGSA,A,3,09,08,07,23,13,19,16,11,03,06,27,,1.63,0.85,1.39*0A
$GPGSV,3,1,11,09,14,309,32,08,20,307,36,07,52,316,33,23,32,191,26*7E
$GPGSV,3,2,11,13,55,226,38,19,68,142,41,16,32,058,35,11,19,163,38*79
$GPGSV,3,3,11,03,68,069,23,06,41,052,38,27,52,058,44,,,,*4A
$GPGST,030957.00,,267.36,267.33,050.6,016.35,016.35,016.36*45
$GPRMC,030957.00,A,3917.26321,N,08203.79793,W,000.0,000.0,070214,07.2,W,A*0A
$PTNLRTF,V,A,443413,11,3,3917.26321,N,08203.79793,W,00296,+000.000,+000.000,+000.000,0,1*59
$PTNLRBA,1,1*57
$GPZDA,030959.00,07,02,2014,,*62
$GPGGA,030959.00,3917.26319,N,08203.79793,W,1,10,0.85,00296,M,-033,M,,*5D
$GPGLL,3917.26319,N,08203.79793,W,030959.00,A,A*74
$GPVTG,000.0,T,007.2,M,000.0,N,000.0,K,A*26
$GPGSA,A,3,09,08,07,23,13,19,16,11,06,27,,,1.72,0.85,1.50*06
$GPGSV,3,1,11,09,14,309,32,08,20,307,36,07,52,316,33,23,32,191,24*7C
$GPGSV,3,2,11,13,55,226,38,19,68,142,40,16,32,058,35,11,19,163,39*79
$GPGSV,3,3,11,03,68,069,24,06,41,052,38,27,52,058,43,,,,*4A
$GPGST,030959.00,,266.18,266.16,050.5,016.31,016.31,016.32*47
$GPRMC,030959.00,A,3917.26319,N,08203.79793,W,000.0,000.0,070214,07.2,W,A*0F
$PTNLRTF,V,A,443415,10,3,3917.26319,N,08203.79793,W,00296,+000.000,+000.000,+000.000,0,1*55
$PTNLRBA,1,1*57
$GPZDA,031000.00,07,02,2014,,*66
$GPGGA,031000.00,3917.26319,N,08203.79792,W,1,10,0.85,00296,M,-033,M,,*58
$GPGLL,3917.26319,N,08203.79792,W,031000.00,A,A*71
$GPVTG,000.0,T,007.2,M,000.0,N,000.0,K,A*26
$GPGSA,A,3,09,08,07,23,13,19,16,11,06,27,,,1.72,0.85,1.50*06
$GPGSV,3,1,11,09,14,309,32,08,20,307,35,07,52,316,33,23,32,191,22*79
$GPGSV,3,2,11,13,55,226,38,19,68,142,41,16,32,058,35,11,19,163,39*78
$GPGSV,3,3,11,03,68,069,22,06,41,052,38,27,52,058,43,,,,*4C
$GPGST,031000.00,,244.90,244.87,050.4,015.65,015.65,015.66*48
$GPRMC,031000.00,A,3917.26319,N,08203.79792,W,000.0,000.0,070214,07.2,W,A*0A
$PTNLRTF,V,A,443416,10,3,3917.26319,N,08203.79792,W,00296,+000.000,+000.000,+000.000,0,1*57
$PTNLRBA,1,1*57
$GPZDA,031002.00,07,02,2014,,*64
$GPGGA,031002.00,3917.26320,N,08203.79793,W,1,11,0.85,00296,M,-033,M,,*50
$GPGLL,3917.26320,N,08203.79793,W,031002.00,A,A*78
$GPVTG,000.0,T,007.2,M,000.0,N,000.0,K,A*26
$GPGSA,A,3,09,08,07,23,13,19,16,11,03,06,27,,1.63,0.85,1.40*04
$GPGSV,3,1,11,09,14,309,32,08,20,307,36,07,52,316,32,23,32,191,20*79
$GPGSV,3,2,11,13,55,226,38,19,68,142,41,16,32,058,35,11,19,163,38*79
$GPGSV,3,3,11,03,68,069,24,06,41,052,38,27,52,058,44,,,,*4D
$GPGST,031002.00,,208.99,208.97,050.3,014.46,014.46,014.47*47
$GPRMC,031002.00,A,3917.26320,N,08203.79793,W,000.0,000.0,070214,07.2,W,A*03
$PTNLRTF,V,A,443418,11,3,3917.26320,N,08203.79793,W,00296,+000.000,+000.000,+000.000,0,1*53
$PTNLRBA,1,1*57
$GPZDA,031003.00,07,02,2014,,*65
$GPGGA,031003.00,3917.26324,N,08203.79806,W,1,11,0.85,00296,M,-033,M,,*56
$GPGLL,3917.26324,N,08203.79806,W,031003.00,A,A*7E
$GPVTG,291.4,T,298.7,M,000.4,N,000.7,K,A*2A
$GPGSA,A,3,09,08,07,23,13,19,16,11,03,06,27,,1.63,0.85,1.40*04
$GPGSV,3,1,11,09,14,309,32,08,20,307,35,07,52,316,31,23,32,191,19*73
$GPGSV,3,2,11,13,55,226,38,19,68,142,41,16,32,058,34,11,19,163,39*79
$GPGSV,3,3,11,03,68,069,25,06,41,052,38,27,52,058,43,,,,*4B
$GPGST,031003.00,,195.45,195.42,044.5,013.98,013.98,013.99*48
$GPRMC,031003.00,A,3917.26324,N,08203.79806,W,000.4,291.4,070214,07.2,W,A*0F
$PTNLRTF,V,A,443419,11,3,3917.26324,N,08203.79806,W,00296,-000.184,+000.072,+000.188,0,1*5A
$PTNLRBA,1,1*57
$GPZDA,031005.00,07,02,2014,,*63
$GPGGA,031005.00,3917.26326,N,08203.79806,W,1,11,0.85,00296,M,-033,M,,*52
$GPGLL,3917.26326,N,08203.79806,W,031005.00,A,A*7A
$GPVTG,000.0,T,007.2,M,000.0,N,000.0,K,A*26
$GPGSA,A,3,09,08,07,23,13,19,16,11,03,06,27,,1.63,0.85,1.40*04
$GPGSV,3,1,11,09,14,309,32,08,20,307,35,07,52,316,29,23,32,191,19*7A
$GPGSV,3,2,11,13,55,226,39,19,68,142,41,16,32,058,35,11,19,163,39*79
$GPGSV,3,3,11,03,68,069,24,06,41,052,38,27,52,058,43,,,,*4A
$GPGST,031005.00,,178.46,178.43,044.4,013.36,013.36,013.37*49
$GPRMC,031005.00,A,3917.26326,N,08203.79806,W,000.0,000.0,070214,07.2,W,A*01
$PTNLRTF,V,A,443421,11,3,3917.26326,N,08203.79806,W,00296,+000.000,+000.000,+000.000,0,1*5C
$PTNLRBA,1,1*57
$GPZDA,031006.00,07,02,2014,,*60
$GPGGA,031006.00,3917.26327,N,08203.79808,W,1,11,0.85,00296,M,-033,M,,*5E
$GPGLL,3917.26327,N,08203.79808,W,031006.00,A,A*76
$GPVTG,000.0,T,007.2,M,000.0,N,000.0,K,A*26
$GPGSA,A,3,09,08,07,23,13,19,16,11,03,06,27,,1.63,0.85,1.40*04
$GPGSV,3,1,11,09,14,309,32,08,20,307,36,07,52,316,30,23,32,191,22*79
$GPGSV,3,2,11,13,55,226,38,19,68,142,41,16,32,058,34,11,19,163,40*77
$GPGSV,3,3,11,03,68,069,25,06,41,052,38,27,52,058,43,,,,*4B
$GPGST,031006.00,,182.09,182.06,044.6,013.49,013.49,013.50*43
$GPRMC,031006.00,A,3917.26327,N,08203.79808,W,000.0,000.0,070214,07.2,W,A*0D
$PTNLRTF,V,A,443422,11,3,3917.26327,N,08203.79808,W,00296,+000.000,+000.000,+000.000,0,1*50
$PTNLRBA,1,1*57
$GPZDA,031008.00,07,02,2014,,*6E
$GPGGA,031008.00,3917.26327,N,08203.79809,W,1,11,0.85,00296,M,-033,M,,*51
$GPGLL,3917.26327,N,08203.79809,W,031008.00,A,A*79
$GPVTG,000.0,T,007.2,M,000.0,N,000.0,K,A*26
$GPGSA,A,3,09,08,07,23,13,19,16,11,03,06,27,,1.63,0.85,1.40*04
$GPGSV,3,1,11,09,14,309,32,08,20,307,35,07,52,316,29,23,32,191,14*77
$GPGSV,3,2,11,13,55,226,38,19,68,142,40,16,32,058,34,11,19,163,39*78
$GPGSV,3,3,11,03,68,069,29,06,41,052,38,27,52,058,44,,,,*40
$GPGST,031008.00,,178.44,178.41,045.0,013.36,013.36,013.37*41
$GPRMC,031008.00,A,3917.26327,N,08203.79809,W,000.0,000.0,070214,07.2,W,A*02
$PTNLRTF,V,A,443424,11,3,3917.26327,N,08203.79809,W,00296,+000.000,+000.000,+000.000,0,1*57
$PTNLRBA,1,1*57
$GPZDA,031009.00,07,02,2014,,*6F
$GPGGA,031009.00,3917.26327,N,08203.79809,W,1,11,0.85,00296,M,-033,M,,*50
$GPGLL,3917.26327,N,08203.79809,W,031009.00,A,A*78
$GPVTG,000.0,T,007.2,M,000.0,N,000.0,K,A*26
$GPGSA,A,3,09,08,07,23,13,19,16,11,03,06,27,,1.63,0.85,1.40*04
$GPGSV,3,1,11,09,14,309,32,08,20,307,36,07,52,316,30,23,32,191,19*71
$GPGSV,3,2,11,13,55,226,38,19,68,142,41,16,32,058,34,11,19,163,40*77
$GPGSV,3,3,11,03,68,069,29,06,41,052,38,27,52,058,43,,,,*47
$GPGST,031009.00,,173.72,173.70,045.1,013.18,013.18,013.19*4A
$GPRMC,031009.00,A,3917.26327,N,08203.79809,W,000.0,000.0,070214,07.2,W,A*03
$PTNLRTF,V,A,443425,11,3,3917.26327,N,08203.79809,W,00296,+000.000,+000.000,+000.000,0,1*56
$PTNLRBA,1,1*57
$GPZDA,031011.00,07,02,2014,,*66
$GPGGA,031011.00,3917.26330,N,08203.79824,W,1,11,0.85,00296,M,-033,M,,*50
$GPGLL,3917.26330,N,08203.79824,W,031011.00,A,A*78
$GPVTG,288.1,T,295.3,M,000.1,N,000.2,K,A*2E
$GPGSA,A,3,09,08,07,23,13,19,16,11,03,06,27,,1.63,0.85,1.40*04
$GPGSV,3,1,11,09,14,309,32,08,20,307,35,07,52,316,32,23,32,191,19*70
$GPGSV,3,2,11,13,55,226,38,19,68,142,41,16,32,058,34,11,19,163,40*77
$GPGSV,3,3,11,03,68,069,28,06,41,052,39,27,52,058,43,,,,*47
$GPGST,031011.00,,153.29,153.25,037.9,012.38,012.38,012.39*43
$GPRMC,031011.00,A,3917.26330,N,08203.79824,W,000.1,288.1,070214,07.2,W,A*01
$PTNLRTF,V,A,443427,11,3,3917.26330,N,08203.79824,W,00296,-000.043,+000.014,+000.013,0,1*5B
$PTNLRBA,1,1*57
$GPZDA,031012.00,07,02,2014,,*65
$GPGGA,031012.00,3917.26329,N,08203.79820,W,1,10,0.93,00296,M,-033,M,,*59
$GPGLL,3917.26329,N,08203.79820,W,031012.00,A,A*77
$GPVTG,000.0,T,007.2,M,000.0,N,000.0,K,A*26
$GPGSA,A,3,09,08,07,13,19,16,11,03,06,27,,,1.69,0.93,1.41*09
$GPGSV,3,1,11,09,14,309,32,08,20,307,35,07,52,316,32,23,32,191,20*7A
$GPGSV,3,2,11,13,55,226,38,19,68,142,41,16,32,058,34,11,19,163,39*79
$GPGSV,3,3,11,03,68,069,28,06,41,052,38,27,52,058,44,,,,*41
$GPGST,031012.00,,139.09,139.05,038.6,011.79,011.79,011.81*40
$GPRMC,031012.00,A,3917.26329,N,08203.79820,W,000.0,000.0,070214,07.2,W,A*0C
$PTNLRTF,V,A,443428,10,3,3917.26329,N,08203.79820,W,00296,+000.000,+000.000,+000.000,0,1*5F
$PTNLRBA,1,1*57
$GPZDA,031014.00,07,02,2014,,*63
$GPGGA,031014.00,3917.26329,N,08203.79820,W,1,11,0.85,00296,M,-033,M,,*59
$GPGLL,3917.26329,N,08203.79820,W,031014.00,A,A*71
$GPVTG,000.0,T,007.2,M,000.0,N,000.0,K,A*26
$GPGSA,A,3,09,08,07,23,13,19,16,11,03,06,27,,1.63,0.85,1.40*04
$GPGSV,3,1,11,09,14,309,32,08,20,307,35,07,52,316,33,23,32,191,19*71
$GPGSV,3,2,11,13,55,226,38,19,68,142,41,16,32,058,33,11,19,163,40*70
$GPGSV,3,3,11,03,68,069,27,06,41,052,38,27,52,058,44,,,,*4E
$GPGST,031014.00,,127.77,127.74,039.1,011.30,011.30,011.32*47
$GPRMC,031014.00,A,3917.26329,N,08203.79820,W,000.0,000.0,070214,07.2,W,A*0A
$PTNLRTF,V,A,443430,11,3,3917.26329,N,08203.79820,W,00296,+000.000,+000.000,+000.000,0,1*57
$PTNLRBA,1,1*57
$GPZDA,031015.00,07,02,2014,,*62
$GPGGA,031015.00,3917.26330,N,08203.79821,W,1,11,0.85,00296,M,-033,M,,*51
$GPGLL,3917.26330,N,08203.79821,W,031015.00,A,A*79
$GPVTG,000.0,T,007.2,M,000.0,N,000.0,K,A*26
$GPGSA,A,3,09,08,07,23,13,19,16,11,03,06,27,,1.63,0.85,1.40*04
$GPGSV,3,1,11,09,14,309,32,08,20,307,35,07,52,316,33,23,32,191,21*7A
$GPGSV,3,2,11,13,55,226,39,19,68,142,40,16,32,058,33,11,19,163,41*71
$GPGSV,3,3,11,03,68,069,28,06,41,052,38,27,52,058,43,,,,*46
$GPGST,031015.00,,129.71,129.67,039.4,011.39,011.39,011.40*42
$GPRMC,031015.00,A,3917.26330,N,08203.79821,W,000.0,000.0,070214,07.2,W,A*02
$PTNLRTF,V,A,443431,11,3,3917.26330,N,08203.79821,W,00296,+000.000,+000.000,+000.000,0,1*5F
$PTNLRBA,1,1*57
$GPZDA,031017.00,07,02,2014,,*60
$GPGGA,031017.00,3917.26330,N,08203.79822,W,1,11,0.85,00296,M,-033,M,,*50
$GPGLL,3917.26330,N,08203.79822,W,031017.00,A,A*78
$GPVTG,000.0,T,007.2,M,000.0,N,000.0,K,A*26
$GPGSA,A,3,09,08,07,23,13,19,16,11,03,06,27,,1.63,0.85,1.40*04
$GPGSV,3,1,11,09,14,309,32,08,20,307,35,07,52,316,33,23,32,191,21*7A
$GPGSV,3,2,11,13,55,226,38,19,68,142,40,16,32,058,32,11,19,163,40*70
$GPGSV,3,3,11,03,68,069,29,06,41,052,37,27,52,058,44,,,,*4F
$GPGST,031017.00,,139.81,139.78,039.6,011.82,011.82,011.84*4B
$GPRMC,031017.00,A,3917.26330,N,08203.79822,W,000.0,000.0,070214,07.2,W,A*03
$PTNLRTF,V,A,443433,11,3,3917.26330,N,08203.79822,W,00296,+000.000,+000.000,+000.000,0,1*5E
$PTNLRBA,1,1*57
$GPZDA,031018.00,07,02,2014,,*6F
$GPGGA,031018.00,3917.26331,N,08203.79822,W,1,11,0.85,00296,M,-033,M,,*5E
$GPGLL,3917.26331,N,08203.79822,W,031018.00,A,A*76
$GPVTG,000.0,T,007.2,M,000.0,N,000.0,K,A*26
$GPGSA,A,3,09,08,07,23,13,19,16,11,03,06,27,,1.63,0.85,1.40*04
$GPGSV,3,1,11,09,14,309,32,08,20,307,35,07,52,316,33,23,32,191,21*7A
$GPGSV,3,2,11,13,55,226,38,19,68,142,40,16,32,058,32,11,19,163,40*70
$GPGSV,3,3,11,03,68,069,29,06,41,052,37,27,52,058,44,,,,*4F
$GPGST,031018.00,,148.13,148.10,039.7,012.17,012.17,012.18*46
$GPRMC,031018.00,A,3917.26331,N,08203.79822,W,000.0,000.0,070214,07.2,W,A*0D
$PTNLRTF,V,A,443434,11,3,3917.26331,N,08203.79822,W,00296,+000.000,+000.000,+000.000,0,1*58
$PTNLRBA,1,1*57
$GPZDA,031020.00,07,02,2014,,*64
$GPGGA,031020.00,3917.26332,N,08203.79821,W,1,11,0.85,00296,M,-033,M,,*55
$GPGLL,3917.26332,N,08203.79821,W,031020.00,A,A*7D
$GPVTG,000.0,T,007.2,M,000.0,N,000.0,K,A*26
$GPGSA,A,3,09,08,07,23,13,19,16,11,03,06,27,,1.63,0.85,1.40*04
$GPGSV,3,1,11,09,14,309,31,08,20,307,35,07,52,316,33,23,32,191,22*7A
$GPGSV,3,2,11,13,55,226,38,19,68,142,40,16,32,058,31,11,19,163,40*73
$GPGSV,3,3,11,03,68,069,29,06,41,052,37,27,52,058,44,,,,*4F
$GPGST,031020.00,,146.22,146.19,039.9,012.09,012.09,012.10*40
$GPRMC,031020.00,A,3917.26332,N,08203.79821,W,000.0,000.0,070214,07.2,W,A*06
$PTNLRTF,V,A,443436,11,3,3917.26332,N,08203.79821,W,00296,+000.000,+000.000,+000.000,0,1*5A
$PTNLRBA,1,1*57
$GPZDA,031021.00,07,02,2014,,*65
$GPGGA,031021.00,3917.26331,N,08203.79820,W,1,11,0.85,00296,M,-033,M,,*56
$GPGLL,3917.26331,N,08203.79820,W,031021.00,A,A*7E
$GPVTG,000.0,T,007.2,M,000.0,N,000.0,K,A*26
$GPGSA,A,3,09,08,07,23,13,19,16,11,03,06,27,,1.64,0.85,1.40*03
$GPGSV,3,1,11,09,14,309,32,08,20,307,35,07,52,316,33,23,32,191,20*7B
$GPGSV,3,2,11,13,55,226,38,19,68,142,41,16,32,058,31,11,19,163,39*7C
$GPGSV,3,3,11,03,68,069,28,06,41,052,37,27,52,058,44,,,,*4E
$GPGST,031021.00,,160.45,160.42,040.0,012.67,012.67,012.68*46
$GPRMC,031021.00,A,3917.26331,N,08203.79820,W,000.0,000.0,070214,07.2,W,A*05
$PTNLRTF,V,A,443437,11,3,3917.26331,N,08203.79820,W,00296,+000.000,+000.000,+000.000,0,1*59
$PTNLRBA,1,1*57
$GPZDA,031023.00,07,02,2014,,*67
$GPGGA,031023.00,3917.26331,N,08203.79821,W,1,10,0.93,00296,M,-033,M,,*53
$GPGLL,3917.26331,N,08203.79821,W,031023.00,A,A*7D
$GPVTG,000.0,T,007.2,M,000.0,N,000.0,K,A*26
$GPGSA,A,3,09,08,07,13,19,16,11,03,06,27,,,1.69,0.93,1.41*09
$GPGSV,3,1,11,09,14,309,32,08,20,307,35,07,52,316,33,23,32,191,22*79
$GPGSV,3,2,11,13,55,226,38,19,68,142,40,16,32,058,32,11,19,163,40*70
$GPGSV,3,3,11,03,68,069,30,06,41,052,37,27,52,058,44,,,,*47
$GPGST,031023.00,,159.39,159.36,040.0,012.62,012.62,012.64*40
$GPRMC,031023.00,A,3917.26331,N,08203.79821,W,000.0,000.0,070214,07.2,W,A*06
$PTNLRTF,V,A,443439,10,3,3917.26331,N,08203.79821,W,00296,+000.000,+000.000,+000.000,0,1*57
$PTNLRBA,1,1*57
$GPZDA,031024.00,07,02,2014,,*60
$GPGGA,031024.00,3917.26332,N,08203.79820,W,1,11,0.85,00296,M,-033,M,,*50
$GPGLL,3917.26332,N,08203.79820,W,031024.00,A,A*78
$GPVTG,000.0,T,007.2,M,000.0,N,000.0,K,A*26
$GPGSA,A,3,09,08,07,23,13,19,16,11,03,06,27,,1.64,0.85,1.40*03
$GPGSV,3,1,11,09,14,309,33,08,20,307,36,07,52,316,33,23,32,191,23*7A
$GPGSV,3,2,11,13,55,226,38,19,68,142,40,16,32,058,31,11,19,163,40*73
$GPGSV,3,3,11,03,68,069,29,06,41,052,37,27,52,058,44,,,,*4F
$GPGST,031024.00,,210.42,210.39,040.0,014.51,014.51,014.51*44
$GPRMC,031024.00,A,3917.26332,N,08203.79820,W,000.0,000.0,070214,07.2,W,A*03
$PTNLRTF,V,A,443440,11,3,3917.26332,N,08203.79820,W,00296,+000.000,+000.000,+000.000,0,1*5A
$PTNLRBA,1,1*57
$GPZDA,031026.00,07,02,2014,,*62
$GPGGA,031026.00,3917.26331,N,08203.79820,W,1,10,0.93,00296,M,-033,M,,*57
$GPGLL,3917.26331,N,08203.79820,W,031026.00,A,A*79
$GPVTG,000.0,T,007.2,M,000.0,N,000.0,K,A*26
$GPGSA,A,3,09,08,07,13,19,16,11,03,06,27,,,1.69,0.93,1.41*09
$GPGSV,3,1,11,09,14,309,33,08,20,307,36,07,52,316,34,23,31,191,22*7F
$GPGSV,3,2,11,13,55,226,38,19,68,141,40,16,32,058,30,11,20,163,40*7B
$GPGSV,3,3,11,03,68,069,29,06,41,052,37,27,52,058,44,,,,*4F
$GPGST,031026.00,,228.37,228.34,040.1,015.11,015.11,015.12*4E
$GPRMC,031026.00,A,3917.26331,N,08203.79820,W,000.0,000.0,070214,07.2,W,A*02
$PTNLRTF,V,A,443442,10,3,3917.26331,N,08203.79820,W,00296,+000.000,+000.000,+000.000,0,1*5A
$PTNLRBA,1,1*57
$GPZDA,031027.00,07,02,2014,,*63
$GPGGA,031027.00,3917.26331,N,08203.79820,W,1,10,0.93,00296,M,-033,M,,*56
$GPGLL,3917.26331,N,08203.79820,W,031027.00,A,A*78
$GPVTG,000.0,T,007.2,M,000.0,N,000.0,K,A*26
$GPGSA,A,3,09,08,07,13,19,16,11,03,06,27,,,1.69,0.93,1.41*09
$GPGSV,3,1,11,09,14,309,32,08,20,307,36,07,52,316,33,23,31,191,22*79
$GPGSV,3,2,11,13,55,226,38,19,68,141,40,16,32,058,29,11,20,163,40*73
$GPGSV,3,3,11,03,68,069,28,06,41,052,36,27,52,058,44,,,,*4F
$GPGST,031027.00,,214.13,214.10,040.1,014.63,014.63,014.64*4F
$GPRMC,031027.00,A,3917.26331,N,08203.79820,W,000.0,000.0,070214,07.2,W,A*03
$PTNLRTF,V,A,443443,10,3,3917.26331,N,08203.79820,W,00296,+000.000,+000.000,+000.000,0,1*5B
$PTNLRBA,1,1*57
$GPZDA,031029.00,07,02,2014,,*6D
$GPGGA,031029.00,3917.26331,N,08203.79820,W,1,11,0.85,00296,M,-033,M,,*5E
$GPGLL,3917.26331,N,08203.79820,W,031029.00,A,A*76
$GPVTG,000.0,T,007.2,M,000.0,N,000.0,K,A*26
$GPGSA,A,3,09,08,07,23,13,19,16,11,03,06,27,,1.64,0.85,1.40*03
$GPGSV,3,1,11,09,14,309,33,08,20,307,36,07,52,316,32,23,31,191,23*78
$GPGSV,3,2,11,13,55,226,37,19,68,141,40,16,32,058,28,11,20,163,39*73
$GPGSV,3,3,11,03,68,069,28,06,41,052,36,27,52,058,45,,,,*4E
$GPGST,031029.00,,260.94,260.92,040.1,016.15,016.15,016.16*43
$GPRMC,031029.00,A,3917.26331,N,08203.79820,W,000.0,000.0,070214,07.2,W,A*0D
$PTNLRTF,V,A,443445,11,3,3917.26331,N,08203.79820,W,00296,+000.000,+000.000,+000.000,0,1*5C
$PTNLRBA,1,1*57
$GPZDA,031030.00,07,02,2014,,*65
$GPGGA,031030.00,3917.26331,N,08203.79821,W,1,11,0.85,00296,M,-033,M,,*57
$GPGLL,3917.26331,N,08203.79821,W,031030.00,A,A*7F
$GPVTG,000.0,T,007.2,M,000.0,N,000.0,K,A*26
$GPGSA,A,3,09,08,07,23,13,19,16,11,03,06,27,,1.64,0.85,1.40*03
$GPGSV,3,1,11,09,14,309,34,08,20,307,37,07,52,316,31,23,31,191,25*7B
$GPGSV,3,2,11,13,55,226,36,19,68,141,40,16,32,058,28,11,20,163,40*7C
$GPGSV,3,3,11,03,68,069,30,06,41,052,36,27,52,058,44,,,,*46
$GPGST,031030.00,,270.28,270.26,040.1,016.44,016.44,016.45*45
$GPRMC,031030.00,A,3917.26331,N,08203.79821,W,000.0,000.0,070214,07.2,W,A*04
$PTNLRTF,V,A,443446,11,3,3917.26331,N,08203.79821,W,00296,+000.000,+000.000,+000.000,0,1*5E
$PTNLRBA,1,1*57
$GPZDA,031032.00,07,02,2014,,*67
$GPGGA,031032.00,3917.26332,N,08203.79823,W,1,11,0.85,00296,M,-033,M,,*54
$GPGLL,3917.26332,N,08203.79823,W,031032.00,A,A*7C
$GPVTG,000.0,T,007.2,M,000.0,N,000.0,K,A*26
$GPGSA,A,3,09,08,07,23,13,19,16,11,03,06,27,,1.64,0.85,1.40*03
$GPGSV,3,1,11,09,14,309,34,08,20,307,36,07,52,316,31,23,31,191,26*79
$GPGSV,3,2,11,13,55,226,37,19,68,141,40,16,32,058,27,11,20,163,39*7C
$GPGSV,3,3,11,03,68,069,30,06,41,052,37,27,52,058,44,,,,*47
$GPGST,031032.00,,311.28,311.25,039.9,017.64,017.64,017.65*41
$GPRMC,031032.00,A,3917.26332,N,08203.79823,W,000.0,000.0,070214,07.2,W,A*07
$PTNLRTF,V,A,443448,11,3,3917.26332,N,08203.79823,W,00296,+000.000,+000.000,+000.000,0,1*51
$PTNLRBA,1,1*57
$GPZDA,031033.00,07,02,2014,,*66
$GPGGA,031033.00,3917.26333,N,08203.79824,W,1,11,0.85,00296,M,-033,M,,*53
$GPGLL,3917.26333,N,08203.79824,W,031033.00,A,A*7B
$GPVTG,000.0,T,007.2,M,000.0,N,000.0,K,A*26
$GPGSA,A,3,09,08,07,23,13,19,16,11,03,06,27,,1.64,0.85,1.40*03
$GPGSV,3,1,11,09,14,309,34,08,20,307,36,07,52,316,30,23,31,191,26*78
