$GPZDA,,,,,,*48
$GPGGA,,3917.25906,N,08203.79680,W,7,00,,,,,,,*45
$GPGLL,3917.25906,N,08203.79680,W,,V,M*43
$GPVTG,,,,,,,,,M*33
$GPGSA,A,1,,,,,,,,,,,,,,,*1E
$GPGSV,1,1,00,,,,,,,,,,,,,,,,*79
$GPRMC,,V,3917.25906,N,08203.79680,W,,,,,,M*74
$PTNLRTF,V,A,,00,0,,,,,,,,,,*4D
$PTNLRBA,1,1*57
$GPZDA,,,,,,*48
$GPGGA,,3917.25906,N,08203.79680,W,7,00,,,,,,,*45
$GPGLL,3917.25906,N,08203.79680,W,,V,M*43
$GPVTG,,,,,,,,,M*33
$GPGSA,A,1,,,,,,,,,,,,,,,*1E
$GPGSV,1,1,00,,,,,,,,,,,,,,,,*79
$GPRMC,,V,3917.25906,N,08203.79680,W,,,,,,M*74
$PTNLRTF,V,A,,00,0,,,,,,,,,,*4D
$PTNLRBA,1,1*57
$GPZDA,,,,,,*48
$GPGGA,,3917.25906,N,08203.79680,W,7,00,,,,,,,*45
$GPGLL,3917.25906,N,08203.79680,W,,V,M*43
$GPVTG,,,,,,,,,M*33
$GPGSA,A,1,,,,,,,,,,,,,,,*1E
$GPGSV,1,1,00,,,,,,,,,,,,,,,,*79
$GPRMC,,V,3917.25906,N,08203.79680,W,,,,,,M*74
$PTNLRTF,V,A,,00,0,,,,,,,,,,*4D
$PTNLRBA,1,1*57
$GPZDA,,,,,,*48
$GPGGA,,3917.25906,N,08203.79680,W,7,00,,,,,,,*45
$GPGLL,3917.25906,N,08203.79680,W,,V,M*43
$GPVTG,,,,,,,,,M*33
$GPGSA,A,1,,,,,,,,,,,,,,,*1E
$GPGSV,1,1,00,,,,,,,,,,,,,,,,*79
$GPRMC,,V,3917.25906,N,08203.79680,W,,,,,,M*74
$PTNLRTF,V,A,,00,0,,,,,,,,,,*4D
$PTNLRBA,1,1*57
$GPZDA,,,,,,*48
$GPGGA,,3917.25906,N,08203.79680,W,7,00,,,,,,,*45
$GPGLL,3917.25906,N,08203.79680,W,,V,M*43
$GPVTG,,,,,,,,,M*33
$GPGSA,A,1,,,,,,,,,,,,,,,*1E
$GPGSV,1,1,01,21,,000,34,,,,,,,,,,,,*4C
$GPRMC,,V,3917.25906,N,08203.79680,W,,,,,,M*74
$PTNLRTF,V,A,,00,0,,,,,,,,,,*4D
$PTNLRBA,1,1*57
$GPZDA,,,,,,*48
$GPGGA,,3917.25906,N,08203.79680,W,7,00,,,,,,,*45
$GPGLL,3917.25906,N,08203.79680,W,,V,M*43
$GPVTG,,,,,,,,,M*33
$GPGSA,A,1,,,,,,,,,,,,,,,*1E
$GPGSV,1,1,01,21,,000,39,,,,,,,,,,,,*41
$GPRMC,,V,3917.25906,N,08203.79680,W,,,,,,M*74
$PTNLRTF,V,A,,00,0,,,,,,,,,,*4D
$PTNLRBA,1,1*57
$GPZDA,,,,,,*48
$GPGGA,,3917.25906,N,08203.79680,W,7,00,,,,,,,*45
$GPGLL,3917.25906,N,08203.79680,W,,V,M*43
$GPVTG,,,,,,,,,M*33
$GPGSA,A,1,,,,,,,,,,,,,,,*1E
$GPGSV,1,1,01,21,,000,40,,,,,,,,,,,,*4F
$GPRMC,,V,3917.25906,N,08203.79680,W,,,,,,M*74
$PTNLRTF,V,A,,00,0,,,,,,,,,,*4D
$PTNLRBA,1,1*57
$GPZDA,,,,,,*48
$GPGGA,,3917.25906,N,08203.79680,W,7,00,,,,,,,*45
$GPGLL,3917.25906,N,08203.79680,W,,V,M*43
$GPVTG,,,,,,,,,M*33
$GPGSA,A,1,,,,,,,,,,,,,,,*1E
$GPGSV,1,1,01,21,,000,35,,,,,,,,,,,,*4D
$GPRMC,,V,3917.25906,N,08203.79680,W,,,,,,M*74
$PTNLRTF,V,A,,00,0,,,,,,,,,,*4D
$PTNLRBA,1,1*57
$GPZDA,,,,,,*48
$GPGGA,,3917.25906,N,08203.79680,W,7,00,,,,,,,*45
$GPGLL,3917.25906,N,08203.79680,W,,V,M*43
$GPVTG,,,,,,,,,M*33
$GPGSA,A,1,,,,,,,,,,,,,,,*1E
$GPGSV,1,1,02,21,,000,40,18,,000,37,,,,,,,,*71
$GPRMC,,V,3917.25906,N,08203.79680,W,,,,,,M*74
$PTNLRTF,V,A,,00,0,,,,,,,,,,*4D
$PTNLRBA,1,1*57
$GPZDA,,,,,,*48
$GPGGA,,3917.25906,N,08203.79680,W,7,00,,,,,,,*45
$GPGLL,3917.25906,N,08203.79680,W,,V,M*43
$GPVTG,,,,,,,,,M*33
$GPGSA,A,1,,,,,,,,,,,,,,,*1E
$GPGSV,1,1,02,21,,000,42,18,,000,39,,,,,,,,*7D
$GPRMC,,V,3917.25906,N,08203.79680,W,,,,,,M*74
$PTNLRTF,V,A,,00,0,,,,,,,,,,*4D
$PTNLRBA,1,1*57
$GPZDA,,,,,,*48
$GPGGA,,3917.25906,N,08203.79680,W,7,00,,,,,,,*45
$GPGLL,3917.25906,N,08203.79680,W,,V,M*43
$GPVTG,,,,,,,,,M*33
$GPGSA,A,1,,,,,,,,,,,,,,,*1E
$GPGSV,1,1,02,21,,000,42,18,,000,38,,,,,,,,*7C
$GPRMC,,V,3917.25906,N,08203.79680,W,,,,,,M*74
$PTNLRTF,V,A,,00,0,,,,,,,,,,*4D
$PTNLRBA,1,1*57
$GPZDA,,,,,,*48
$GPGGA,,3917.25906,N,08203.79680,W,7,00,,,,,,,*45
$GPGLL,3917.25906,N,08203.79680,W,,V,M*43
$GPVTG,,,,,,,,,M*33
$GPGSA,A,1,,,,,,,,,,,,,,,*1E
$GPGSV,1,1,02,21,,000,37,18,,000,38,,,,,,,,*7E
$GPRMC,,V,3917.25906,N,08203.79680,W,,,,,,M*74
$PTNLRTF,V,A,,00,0,,,,,,,,,,*4D
$PTNLRBA,1,1*57
$GPZDA,,,,,,*48
$GPGGA,,3917.25906,N,08203.79680,W,7,00,,,,,,,*45
$GPGLL,3917.25906,N,08203.79680,W,,V,M*43
$GPVTG,,,,,,,,,M*33
$GPGSA,A,1,,,,,,,,,,,,,,,*1E
$GPGSV,1,1,03,21,,000,37,18,,000,40,22,,000,29,,,,*4B
$GPRMC,,V,3917.25906,N,08203.79680,W,,,,,,M*74
$PTNLRTF,V,A,591115,00,0,,,,,,,,,,*45
$PTNLRBA,1,1*57
$GPZDA,,,,,,*48
$GPGGA,,3917.25906,N,08203.79680,W,7,00,,,,,,,*45
$GPGLL,3917.25906,N,08203.79680,W,,V,M*43
$GPVTG,,,,,,,,,M*33
$GPGSA,A,1,,,,,,,,,,,,,,,*1E
$GPGSV,2,1,05,21,65,307,37,18,45,287,38,22,13,273,27,05,16,078,32*7C
$GPGSV,2,2,05,15,77,074,43,,,,,,,,,,,,*4C
$GPRMC,,V,3917.25906,N,08203.79680,W,,,,,,M*74
$PTNLRTF,V,A,591116,00,0,,,,,,,,,,*46
$PTNLRBA,1,1*57
$GPZDA,,,,,,*48
$GPGGA,,3917.25906,N,08203.79680,W,7,00,,,,,,,*45
$GPGLL,3917.25906,N,08203.79680,W,,V,M*43
$GPVTG,,,,,,,,,M*33
$GPGSA,A,1,,,,,,,,,,,,,,,*1E
$GPGSV,2,1,05,21,65,307,41,18,45,287,41,22,13,273,25,05,16,078,32*71
$GPGSV,2,2,05,15,77,074,44,,,,,,,,,,,,*4B
$GPRMC,,V,3917.25906,N,08203.79680,W,,,,,,M*74
$PTNLRTF,V,A,591117,00,0,,,,,,,,,,*47
$PTNLRBA,1,1*57
$GPZDA,,,,,,*48
$GPGGA,,3917.25906,N,08203.79680,W,7,00,,,,,,,*45
$GPGLL,3917.25906,N,08203.79680,W,,V,M*43
$GPVTG,,,,,,,,,M*33
$GPGSA,A,1,,,,,,,,,,,,,,,*1E
$GPGSV,2,1,05,21,65,307,41,18,45,287,41,22,13,273,27,05,16,078,36*77
$GPGSV,2,2,05,15,77,074,45,,,,,,,,,,,,*4A
$GPRMC,,V,3917.25906,N,08203.79680,W,,,,,,M*74
$PTNLRTF,V,A,591119,00,0,,,,,,,,,,*49
$PTNLRBA,1,1*57
$GPZDA,,,,,,*48
$GPGGA,,3917.25906,N,08203.79680,W,7,00,,,,,,,*45
$GPGLL,3917.25906,N,08203.79680,W,,V,M*43
$GPVTG,,,,,,,,,M*33
$GPGSA,A,1,,,,,,,,,,,,,,,*1E
$GPGSV,2,1,05,21,65,307,41,18,45,287,40,22,13,273,27,05,16,078,36*76
$GPGSV,2,2,05,15,77,074,48,,,,,,,,,,,,*47
$GPRMC,,V,3917.25906,N,08203.79680,W,,,,,,M*74
$PTNLRTF,V,A,591120,00,0,,,,,,,,,,*43
$PTNLRBA,1,1*57
$GPZDA,,,,,,*48
$GPGGA,,3917.25906,N,08203.79680,W,7,00,,,,,,,*45
$GPGLL,3917.25906,N,08203.79680,W,,V,M*43
$GPVTG,,,,,,,,,M*33
$GPGSA,A,1,,,,,,,,,,,,,,,*1E
$GPGSV,2,1,06,21,65,307,41,18,45,287,39,22,13,273,30,05,16,078,38*73
$GPGSV,2,2,06,15,77,074,48,29,26,199,30,,,,,,,,*79
$GPRMC,,V,3917.25906,N,08203.79680,W,,,,,,M*74
$PTNLRTF,V,A,591121,00,0,,,,,,,,,,*42
$PTNLRBA,1,1*57
$GPZDA,,,,,,*48
$GPGGA,,3917.25906,N,08203.79680,W,7,00,,,,,,,*45
$GPGLL,3917.25906,N,08203.79680,W,,V,M*43
$GPVTG,,,,,,,,,M*33
$GPGSA,A,1,,,,,,,,,,,,,,,*1E
$GPGSV,2,1,06,21,65,307,40,18,45,287,41,22,13,273,35,05,16,078,39*79
$GPGSV,2,2,06,15,77,073,42,29,26,199,27,,,,,,,,*72
$GPRMC,,V,3917.25906,N,08203.79680,W,,,,,,M*74
$PTNLRTF,V,A,591122,00,0,,,,,,,,,,*41
$PTNLRBA,1,1*57
$GPZDA,,,,,,*48
$GPGGA,,3917.25906,N,08203.79680,W,7,00,,,,,,,*45
$GPGLL,3917.25906,N,08203.79680,W,,V,M*43
$GPVTG,,,,,,,,,M*33
$GPGSA,A,1,,,,,,,,,,,,,,,*1E
$GPGSV,2,1,07,21,65,307,41,18,45,287,42,22,13,273,31,05,16,078,34*73
$GPGSV,2,2,07,15,77,073,45,29,26,199,28,24,22,147,38,,,,*44
$GPRMC,,V,3917.25906,N,08203.79680,W,,,,,,M*74
$PTNLRTF,V,A,591123,00,0,,,,,,,,,,*40
$PTNLRBA,1,1*57
$GPZDA,,,,,,*48
$GPGGA,,3917.25906,N,08203.79680,W,7,00,,,,,,,*45
$GPGLL,3917.25906,N,08203.79680,W,,V,M*43
$GPVTG,,,,,,,,,M*33
$GPGSA,A,1,,,,,,,,,,,,,,,*1E
$GPGSV,2,1,08,21,65,307,43,18,45,287,40,22,13,273,32,05,16,078,39*72
$GPGSV,2,2,08,15,77,073,43,29,26,199,31,24,22,147,33,26,36,047,34*7B
$GPRMC,,V,3917.25906,N,08203.79680,W,,,,,,M*74
$PTNLRTF,V,A,591124,00,0,,,,,,,,,,*47
$PTNLRBA,1,1*57
$GPZDA,,,,,,*48
$GPGGA,,3917.25906,N,08203.79680,W,7,00,,,,,,,*45
$GPGLL,3917.25906,N,08203.79680,W,,V,M*43
$GPVTG,,,,,,,,,M*33
$GPGSA,A,1,,,,,,,,,,,,,,,*1E
$GPGSV,2,1,08,21,65,307,42,18,45,287,45,22,13,273,33,05,16,078,43*7A
$GPGSV,2,2,08,15,77,073,36,29,26,199,37,24,22,147,33,26,36,047,39*72
$GPRMC,,V,3917.25906,N,08203.79680,W,,,,,,M*74
$PTNLRTF,V,A,591125,00,0,,,,,,,,,,*46
$PTNLRBA,1,1*57
$GPZDA,,,,,,*48
$GPGGA,,3917.25906,N,08203.79680,W,7,00,,,,,,,*45
$GPGLL,3917.25906,N,08203.79680,W,,V,M*43
$GPVTG,,,,,,,,,M*33
$GPGSA,A,1,,,,,,,,,,,,,,,*1E
$GPGSV,3,1,10,21,65,307,40,18,45,287,46,22,13,273,35,05,16,078,36*77
$GPGSV,3,2,10,15,77,073,41,29,26,199,33,24,22,147,34,26,36,047,38*78
$GPGSV,3,3,10,06,12,317,29,30,,000,36,,,,,,,,*75
$GPRMC,201150.00,V,3917.25906,N,08203.79680,W,,,,,,M*5D
$PTNLRTF,V,A,591126,00,0,,,,,,,,,,*45
$PTNLRBA,1,1*57
$GPZDA,201151.00,14,12,2013,,*66
$GPGGA,,3917.25906,N,08203.79680,W,7,00,,,,,,,*45
$GPGLL,3917.25906,N,08203.79680,W,,V,M*43
$GPVTG,,,,,,,,,M*33
$GPGSA,A,1,,,,,,,,,,,,,,,*1E
$GPGSV,3,1,10,21,76,285,41,18,54,301,50,22,22,282,34,05,07,087,36*7A
$GPGSV,3,2,10,15,65,051,44,29,14,195,27,24,33,138,30,26,24,045,36*75
$GPGSV,3,3,10,06,17,307,32,30,,000,35,,,,,,,,*78
$GPRMC,201151.00,V,3917.25906,N,08203.79680,W,,,,,,M*5C
$PTNLRTF,V,A,591127,00,0,,,,,,,,,,*44
$PTNLRBA,1,1*57
$GPZDA,201152.00,14,12,2013,,*65
$GPGGA,,3917.25906,N,08203.79680,W,7,00,,,,,,,*45
$GPGLL,3917.25906,N,08203.79680,W,,V,M*43
$GPVTG,,,,,,,,,M*33
$GPGSA,A,1,,,,,,,,,,,,,,,*1E
$GPGSV,3,1,10,21,76,285,40,18,54,301,47,22,22,282,39,05,07,087,38*7E
$GPGSV,3,2,10,15,65,051,37,29,14,195,34,24,33,138,36,26,24,045,34*77
$GPGSV,3,3,10,06,17,307,26,30,,000,31,,,,,,,,*79
$GPRMC,201152.00,V,3917.25906,N,08203.79680,W,,,,,,M*5F
$PTNLRTF,V,A,591128,00,0,,,,,,,,,,*4B
$PTNLRBA,1,1*57
$GPZDA,201153.00,14,12,2013,,*64
$GPGGA,,3917.25906,N,08203.79680,W,7,00,,,,,,,*45
$GPGLL,3917.25906,N,08203.79680,W,,V,M*43
$GPVTG,,,,,,,,,M*33
$GPGSA,A,1,,,,,,,,,,,,,,,*1E
$GPGSV,3,1,10,21,76,285,42,18,54,301,47,22,22,282,34,05,07,087,36*7F
$GPGSV,3,2,10,15,65,051,45,29,14,195,32,24,33,138,35,26,24,045,40*74
$GPGSV,3,3,10,06,17,307,31,30,,000,37,,,,,,,,*79
$GPRMC,201153.00,V,3917.25906,N,08203.79680,W,,,,,,M*5E
$PTNLRTF,V,A,591129,00,0,,,,,,,,,,*4A
$PTNLRBA,1,1*57
$GPZDA,201154.00,14,12,2013,,*63
$GPGGA,,3917.25906,N,08203.79680,W,7,00,,,,,,,*45
$GPGLL,3917.25906,N,08203.79680,W,,V,M*43
$GPVTG,,,,,,,,,M*33
$GPGSA,A,1,,,,,,,,,,,,,,,*1E
$GPGSV,3,1,10,21,76,285,39,18,54,301,36,22,22,282,31,05,07,087,39*7F
$GPGSV,3,2,10,15,65,051,45,29,14,195,27,24,33,138,36,26,24,045,43*70
$GPGSV,3,3,10,06,17,307,32,30,,000,39,,,,,,,,*74
$GPRMC,201154.00,V,3917.25906,N,08203.79680,W,,,,,,M*59
$PTNLRTF,V,A,591130,00,0,,,,,,,,,,*42
$PTNLRBA,1,1*57
$GPZDA,201155.00,14,12,2013,,*62
$GPGGA,,3917.25906,N,08203.79680,W,7,00,,,,,,,*45
$GPGLL,3917.25906,N,08203.79680,W,,V,M*43
$GPVTG,,,,,,,,,M*33
$GPGSA,A,1,,,,,,,,,,,,,,,*1E
$GPGSV,3,1,10,21,76,285,39,18,54,301,37,22,22,282,29,05,07,087,42*7B
$GPGSV,3,2,10,15,65,051,47,29,14,195,27,24,33,138,35,26,24,045,45*77
$GPGSV,3,3,10,06,17,307,28,30,,000,35,,,,,,,,*73
$GPRMC,201155.00,V,3917.25906,N,08203.79680,W,,,,,,M*58
$PTNLRTF,V,A,591131,00,0,,,,,,,,,,*43
$PTNLRBA,1,1*57
$GPZDA,201156.00,14,12,2013,,*61
$GPGGA,,3917.25906,N,08203.79680,W,7,00,,,,,,,*45
$GPGLL,3917.25906,N,08203.79680,W,,V,M*43
$GPVTG,,,,,,,,,M*33
$GPGSA,A,1,,,,,,,,,,,,,,,*1E
$GPGSV,3,1,10,21,76,285,40,18,54,301,28,22,22,282,36,05,07,087,39*79
$GPGSV,3,2,10,15,65,051,46,29,14,195,29,24,33,138,37,26,24,045,40*7F
$GPGSV,3,3,10,06,17,307,33,30,,000,40,,,,,,,,*7B
$GPRMC,201156.00,V,3917.25906,N,08203.79680,W,,,,,,M*5B
$PTNLRTF,V,A,591132,00,0,,,,,,,,,,*40
$PTNLRBA,1,1*57
$GPZDA,201157.00,14,12,2013,,*60
$GPGGA,,3917.25906,N,08203.79680,W,7,00,,,,,,,*45
$GPGLL,3917.25906,N,08203.79680,W,,V,M*43
$GPVTG,,,,,,,,,M*33
$GPGSA,A,1,,,,,,,,,,,,,,,*1E
$GPGSV,3,1,11,21,76,285,38,18,54,301,36,22,22,282,34,05,07,087,36*75
$GPGSV,3,2,11,15,65,051,49,29,14,195,29,24,33,138,33,26,24,045,42*77
$GPGSV,3,3,11,06,17,307,28,30,,000,40,27,13,317,36,,,,*47
$GPRMC,201157.00,V,3917.25906,N,08203.79680,W,,,,,,M*5A
$PTNLRTF,V,A,591133,00,0,,,,,,,,,,*41
$PTNLRBA,1,1*57
$GPZDA,201158.00,14,12,2013,,*6F
$GPGGA,,3917.25906,N,08203.79680,W,7,00,,,,,,,*45
$GPGLL,3917.25906,N,08203.79680,W,,V,M*43
$GPVTG,,,,,,,,,M*33
$GPGSA,A,1,,,,,,,,,,,,,,,*1E
$GPGSV,3,1,11,21,76,285,35,18,54,301,34,22,22,282,30,05,07,087,32*7A
$GPGSV,3,2,11,15,65,051,49,29,14,195,25,24,33,138,34,26,24,045,42*7C
$GPGSV,3,3,11,06,17,307,34,30,,000,36,27,13,317,37,,,,*4A
$GPRMC,201158.00,V,3917.25906,N,08203.79680,W,,,,,,M*55
$PTNLRTF,V,A,591134,00,0,,,,,,,,,,*46
$PTNLRBA,1,1*57
$GPZDA,201159.00,14,12,2013,,*6E
$GPGGA,,3917.25906,N,08203.79680,W,7,00,,,,,,,*45
$GPGLL,3917.25906,N,08203.79680,W,,V,M*43
$GPVTG,,,,,,,,,M*33
$GPGSA,A,1,,,,,,,,,,,,,,,*1E
$GPGSV,3,1,11,21,76,285,35,18,54,301,34,22,22,282,32,05,07,087,37*7D
$GPGSV,3,2,11,15,65,051,49,29,14,195,24,24,34,138,31,26,24,045,43*7E
$GPGSV,3,3,11,06,17,307,27,30,,000,31,27,13,317,34,,,,*4C
$GPRMC,201159.00,V,3917.25906,N,08203.79680,W,,,,,,M*54
$PTNLRTF,V,A,591135,00,0,,,,,,,,,,*47
$PTNLRBA,1,1*57
$GPZDA,201200.00,14,12,2013,,*61
$GPGGA,,3917.25906,N,08203.79680,W,7,00,,,,,,,*45
$GPGLL,3917.25906,N,08203.79680,W,,V,M*43
$GPVTG,,,,,,,,,M*33
$GPGSA,A,1,,,,,,,,,,,,,,,*1E
$GPGSV,3,1,11,21,76,285,38,18,54,301,40,22,22,282,33,05,07,087,36*73
$GPGSV,3,2,11,15,65,051,45,29,14,195,33,24,34,138,31,26,24,045,39*79
$GPGSV,3,3,11,06,17,307,26,30,,000,36,27,13,317,33,,,,*4D
$GPRMC,201200.00,V,3917.25906,N,08203.79680,W,,,,,,M*5B
$PTNLRTF,V,A,591136,00,0,,,,,,,,,,*44
$PTNLRBA,1,1*57
$GPZDA,201201.00,14,12,2013,,*60
$GPGGA,,3917.25906,N,08203.79680,W,7,00,,,,,,,*45
$GPGLL,3917.25906,N,08203.79680,W,,V,M*43
$GPVTG,,,,,,,,,M*33
$GPGSA,A,1,,,,,,,,,,,,,,,*1E
$GPGSV,3,1,11,21,76,285,43,18,54,301,44,22,22,282,29,05,07,087,35*73
$GPGSV,3,2,11,15,65,051,43,29,14,195,34,24,34,138,33,26,24,045,36*75
$GPGSV,3,3,11,06,17,307,36,30,,000,36,27,13,317,33,,,,*4C
$GPRMC,201201.00,V,3917.25906,N,08203.79680,W,,,,,,M*5A
$PTNLRTF,V,A,591137,00,0,,,,,,,,,,*45
$PTNLRBA,1,1*57
$GPZDA,201202.00,14,12,2013,,*63
$GPGGA,,3917.25906,N,08203.79680,W,7,00,,,,,,,*45
$GPGLL,3917.25906,N,08203.79680,W,,V,M*43
$GPVTG,,,,,,,,,M*33
$GPGSA,A,1,,,,,,,,,,,,,,,*1E
$GPGSV,3,1,11,21,76,285,40,18,54,301,43,22,22,282,36,05,07,087,31*7D
$GPGSV,3,2,11,15,65,051,42,29,14,195,39,24,34,138,34,26,24,045,32*7A
$GPGSV,3,3,11,06,17,307,33,30,,000,37,27,13,317,34,,,,*4F
$GPRMC,201202.00,V,3917.25906,N,08203.79680,W,,,,,,M*59
$PTNLRTF,V,A,591138,00,0,,,,,,,,,,*4A
$PTNLRBA,1,1*57
$GPZDA,201203.00,14,12,2013,,*62
$GPGGA,,3917.25906,N,08203.79680,W,7,01,,,,,,,*44
$GPGLL,3917.25906,N,08203.79680,W,,V,M*43
$GPVTG,,,,,,,,,M*33
$GPGSA,A,1,21,,,,,,,,,,,,,,*1D
$GPGSV,3,1,11,21,76,285,37,18,54,301,45,22,22,282,36,05,07,087,27*7C
$GPGSV,3,2,11,15,65,051,41,29,14,195,36,24,34,138,40,26,24,045,34*73
$GPGSV,3,3,11,06,17,307,33,30,,000,37,27,13,317,34,,,,*4F
$GPRMC,201203.00,V,3917.25906,N,08203.79680,W,,,,,,M*58
$PTNLRTF,V,A,591139,01,0,,,,,,,,,,*4A
$PTNLRBA,1,1*57
$GPZDA,201204.00,14,12,2013,,*65
$GPGGA,,3917.25906,N,08203.79680,W,7,01,,,,,,,*44
$GPGLL,3917.25906,N,08203.79680,W,,V,M*43
$GPVTG,,,,,,,,,M*33
$GPGSA,A,1,21,,,,,,,,,,,,,,*1D
$GPGSV,3,1,11,21,76,285,38,18,54,301,43,22,22,282,33,05,07,087,29*7E
$GPGSV,3,2,11,15,65,051,40,29,14,195,38,24,34,138,35,26,24,045,34*7E
$GPGSV,3,3,11,06,17,307,31,30,,000,37,27,13,317,31,,,,*48
$GPRMC,201204.00,V,3917.25906,N,08203.79680,W,,,,,,M*5F
$PTNLRTF,V,A,591140,01,0,,,,,,,,,,*44
$PTNLRBA,1,1*57
$GPZDA,201205.00,14,12,2013,,*64
$GPGGA,,3917.25906,N,08203.79680,W,7,01,,,,,,,*44
$GPGLL,3917.25906,N,08203.79680,W,,V,M*43
$GPVTG,,,,,,,,,M*33
$GPGSA,A,1,21,,,,,,,,,,,,,,*1D
$GPGSV,3,1,11,21,76,285,40,18,54,301,40,22,22,282,35,05,07,087,31*7D
$GPGSV,3,2,11,15,65,051,40,29,14,195,38,24,34,138,40,26,24,045,32*7A
$GPGSV,3,3,11,06,17,307,33,30,,000,39,27,13,317,33,,,,*46
$GPRMC,201205.00,V,3917.25906,N,08203.79680,W,,,,,,M*5E
$PTNLRTF,V,A,591141,01,0,,,,,,,,,,*45
$PTNLRBA,1,1*57
$GPZDA,201206.00,14,12,2013,,*67
$GPGGA,,3917.25906,N,08203.79680,W,7,01,,,,,,,*44
$GPGLL,3917.25906,N,08203.79680,W,,V,M*43
$GPVTG,,,,,,,,,M*33
$GPGSA,A,1,21,,,,,,,,,,,,,,*1D
$GPGSV,3,1,11,21,76,285,37,18,54,301,40,22,22,282,34,05,07,087,31*7C
$GPGSV,3,2,11,15,65,051,44,29,14,195,36,24,34,138,38,26,24,045,35*78
$GPGSV,3,3,11,06,17,307,35,30,,000,34,27,13,317,30,,,,*4E
$GPRMC,201206.00,V,3917.25906,N,08203.79680,W,,,,,,M*5D
$PTNLRTF,V,A,591142,01,0,,,,,,,,,,*46
$PTNLRBA,1,1*57
$GPZDA,201207.00,14,12,2013,,*66
$GPGGA,,3917.25906,N,08203.79680,W,7,01,,,,,,,*44
$GPGLL,3917.25906,N,08203.79680,W,,V,M*43
$GPVTG,,,,,,,,,M*33
$GPGSA,A,1,21,,,,,,,,,,,,,,*1D
$GPGSV,3,1,11,21,76,285,41,18,54,301,44,22,22,282,38,05,07,087,29*7C
$GPGSV,3,2,11,15,65,051,37,29,14,195,31,24,34,138,34,26,24,045,31*73
$GPGSV,3,3,11,06,17,307,33,30,,000,37,27,13,317,36,,,,*4D
$GPRMC,201207.00,V,3917.25906,N,08203.79680,W,,,,,,M*5C
$PTNLRTF,V,A,591143,01,0,,,,,,,,,,*47
$PTNLRBA,1,1*57
$GPZDA,201208.00,14,12,2013,,*69
$GPGGA,,3917.25906,N,08203.79680,W,7,01,,,,,,,*44
$GPGLL,3917.25906,N,08203.79680,W,,V,M*43
$GPVTG,,,,,,,,,M*33
$GPGSA,A,1,21,,,,,,,,,,,,,,*1D
$GPGSV,3,1,11,21,76,285,39,18,54,301,42,22,22,282,34,05,07,087,27*77
$GPGSV,3,2,11,15,65,051,43,29,14,195,28,24,34,138,35,26,24,045,32*7A
$GPGSV,3,3,11,06,17,307,31,30,,000,36,27,13,317,35,,,,*4D
$GPRMC,201208.00,V,3917.25906,N,08203.79680,W,,,,,,M*53
$PTNLRTF,V,A,591144,01,0,,,,,,,,,,*40
$PTNLRBA,1,1*57
$GPZDA,201209.00,14,12,2013,,*68
$GPGGA,,3917.25906,N,08203.79680,W,7,01,,,,,,,*44
$GPGLL,3917.25906,N,08203.79680,W,,V,M*43
$GPVTG,,,,,,,,,M*33
$GPGSA,A,1,21,,,,,,,,,,,,,,*1D
$GPGSV,3,1,11,21,76,285,36,18,54,301,34,22,22,282,33,05,07,087,27*7E
$GPGSV,3,2,11,15,65,051,45,29,14,195,28,24,34,138,34,26,24,045,33*7C
$GPGSV,3,3,11,06,17,307,29,30,,000,38,27,13,317,31,,,,*4E
$GPRMC,201209.00,V,3917.25906,N,08203.79680,W,,,,,,M*52
$PTNLRTF,V,A,591145,01,0,,,,,,,,,,*41
$PTNLRBA,1,1*57
$GPZDA,201210.00,14,12,2013,,*60
$GPGGA,,3917.25906,N,08203.79680,W,7,01,,,,,,,*44
$GPGLL,3917.25906,N,08203.79680,W,,V,M*43
$GPVTG,,,,,,,,,M*33
$GPGSA,A,1,21,,,,,,,,,,,,,,*1D
$GPGSV,3,1,11,21,76,285,32,18,54,301,36,22,22,282,31,05,07,087,32*7E
$GPGSV,3,2,11,15,65,051,37,29,14,195,25,24,34,138,35,26,24,045,29*7E
$GPGSV,3,3,11,06,17,307,25,30,,000,40,27,13,317,26,,,,*4B
$GPRMC,201210.00,V,3917.25906,N,08203.79680,W,,,,,,M*5A
$PTNLRTF,V,A,591146,01,0,,,,,,,,,,*42
$PTNLRBA,1,1*57
$GPZDA,201211.00,14,12,2013,,*61
$GPGGA,,3917.25906,N,08203.79680,W,7,01,,,,,,,*44
$GPGLL,3917.25906,N,08203.79680,W,,V,M*43
$GPVTG,,,,,,,,,M*33
$GPGSA,A,1,21,,,,,,,,,,,,,,*1D
$GPGSV,3,1,11,21,76,285,31,18,54,301,35,22,22,282,24,05,07,087,33*7B
$GPGSV,3,2,11,15,65,051,35,29,14,195,25,24,34,138,30,26,24,045,29*79
$GPGSV,3,3,11,06,17,307,24,30,,000,34,27,13,317,22,,,,*4D
$GPRMC,201211.00,V,3917.25906,N,08203.79680,W,,,,,,M*5B
$PTNLRTF,V,A,591147,01,0,,,,,,,,,,*43
$PTNLRBA,1,1*57
$GPZDA,201212.00,14,12,2013,,*62
$GPGGA,,3917.25906,N,08203.79680,W,7,00,,,,,,,*45
$GPGLL,3917.25906,N,08203.79680,W,,V,M*43
$GPVTG,,,,,,,,,M*33
$GPGSA,A,1,,,,,,,,,,,,,,,*1E
$GPGSV,3,1,11,21,76,285,35,18,54,301,31,22,22,282,25,05,07,087,38*71
$GPGSV,3,2,11,15,65,051,30,29,14,195,26,24,34,138,32,26,24,045,29*7D
$GPGSV,3,3,11,06,17,307,22,30,,000,33,27,13,317,23,,,,*4D
$GPRMC,201212.00,V,3917.25906,N,08203.79680,W,,,,,,M*58
$PTNLRTF,V,A,591148,00,0,,,,,,,,,,*4D
$PTNLRBA,1,1*57
$GPZDA,201213.00,14,12,2013,,*63
$GPGGA,,3917.25906,N,08203.79680,W,7,01,,,,,,,*44
$GPGLL,3917.25906,N,08203.79680,W,,V,M*43
$GPVTG,,,,,,,,,M*33
$GPGSA,A,1,21,,,,,,,,,,,,,,*1D
$GPGSV,3,1,11,21,76,285,31,18,54,301,30,22,22,282,21,05,07,087,37*7F
$GPGSV,3,2,11,15,65,051,39,29,14,195,20,24,34,138,29,26,24,045,35*75
$GPGSV,3,3,11,06,17,307,22,30,,000,30,27,13,317,16,,,,*48
$GPRMC,201213.00,V,3917.25906,N,08203.79680,W,,,,,,M*59
$PTNLRTF,V,A,591149,01,0,,,,,,,,,,*4D
$PTNLRBA,1,1*57
$GPZDA,201214.00,14,12,2013,,*64
$GPGGA,,3917.25906,N,08203.79680,W,7,01,,,,,,,*44
$GPGLL,3917.25906,N,08203.79680,W,,V,M*43
$GPVTG,,,,,,,,,M*33
$GPGSA,A,1,21,,,,,,,,,,,,,,*1D
$GPGSV,3,1,11,21,76,285,36,18,54,301,24,22,22,282,26,05,07,087,40*7A
$GPGSV,3,2,11,15,65,051,37,29,14,195,27,24,34,138,30,26,24,045,39*78
$GPGSV,3,3,11,06,17,306,19,30,,000,33,27,13,317,21,,,,*46
$GPRMC,201214.00,V,3917.25906,N,08203.79680,W,,,,,,M*5E
$PTNLRTF,V,A,591150,01,0,,,,,,,,,,*45
$PTNLRBA,1,1*57
