$GPZDA,015317.00,24,12,2013,,*62
$GPGGA,015317.00,4003.57151,N,08254.66577,W,2,08,0.93,00256,M,-033,M,,*5C
$GPGLL,4003.57151,N,08254.66577,W,015317.00,A,D*71
$GPVTG,183.0,T,189.7,M,004.69,N,008.69,K,D*27
$GPGSA,A,3,25,29,31,32,14,20,16,23,,,,,1.81,0.93,1.55*0F
$GPGSV,3,1,09,25,19,042,43,29,13,073,47,31,64,032,50,32,60,247,50*75
$GPGSV,3,2,09,14,30,108,47,20,37,295,46,16,27,193,47,46,43,203,46*7B
$GPGSV,3,3,09,23,15,303,45,,,,,,,,,,,,*44
$GPGST,015317.00,,017.48,017.28,087.3,004.18,004.16,004.28*42
$GPRMC,015317.00,A,4003.57151,N,08254.66577,W,004.69,183.0,241213,06.7,W,D*38
$PTNLRTF,V$GPZDA,015320.00,24,12,2013,,*66
$GPGGA,015320.00,4003.56803,N,08254.66580,W,2,08,0.93,00256,M,-033,M,,*5F
$GPGLL,4003.56803,N,08254.66580,W,015320.00,A,D*72
$GPVTG,169.5,T,176.2,M,003.93,N,007.28,K,D*2B
$GPGSA,A,3,25,29,31,32,14,20,16,23,,,,,1.81,0.93,1.55*0F
$GPGSV,3,1,09,25,19,042,46,29,13,073,44,31,64,032,51,32,60,247,49*7A
$GPGSV,3,2,09,14,30,108,47,20,37,295,47,16,27,193,47,46,43,203,45*79
$GPGSV,3,3,09,23,15,303,45,,,,,,,,,,,,*44
$GPGST,015320.00,,015.53,015.35,088.7,003.94,003.92,004.05*4C
$GPRMC,015320.00,A,4003.56803,N,08254.66580,W,003.93,169.5,241213,06.7,W,D*38
$PTNLRTF,V,A,179616,08,3,4003.56803,N,08254.66580,W,00256,+000.367,-001.988,+000.026,0,1*55
$PTNLRBA,1,1*57
$GPZDA,015322.00,24,12,2013,,*64
$GPGGA,015322.00,4003.56652,N,08254.66449,W,2,08,0.93,00256,M,-033,M,,*53
$GPGLL,4003.56652,N,08254.66449,W,015322.00,A,D*7E
$GPVTG,138.2,T,144.9,M,003.26,N,006.04,K,D*23
$GPGSA,A,3,25,29,31,32,14,20,16,23,,,,,1.81,0.93,1.55*0F
$GPGSV,3,1,09,25,19,042,46,29,13,073,44,31,64,032,49,32,60,247,50*7B
$GPGSV,3,2,09,14,30,108,45,20,37,295,48,16,27,193,48,46,43,203,46*78
$GPGSV,3,3,09,23,15,303,45,,,,,,,,,,,,*44
$GPGST,015322.00,,014.21,014.02,080.9,003.77,003.74,003.88*4E
$GPRMC,015322.00,A,4003.56652,N,08254.66449,W,003.26,138.2,241213,06.7,W,D*39
$PTNLRTF,V,A,179618,08,3,4003.56652,N,08254.66449,W,00256,+001.118,-001.250,-000.005,0,1*57
$PTNLRBA,1,1*57
$GPZDA,015323.00,24,12,2013,,*65
$GPGGA,015323.00,4003.56608,N,08254.66372,W,2,08,0.93,00256,M,-033,M,,*52
$GPGLL,4003.56608,N,08254.66372,W,015323.00,A,D*7F
$GPVTG,127.2,T,133.9,M,002.72,N,005.03,K,D*29
$GPGSA,A,3,25,29,31,32,14,20,16,23,,,,,1.81,0.93,1.55*0F
$GPGSV,3,1,09,25,19,042,46,29,13,073,44,31,64,032,50,32,60,247,50*73
$GPGSV,3,2,09,14,30,108,46,20,37,295,47,16,27,193,49,46,43,203,45*76
$GPGSV,3,3,09,23,15,303,44,,,,,,,,,,,,*45
$GPGST,015323.00,,014.13,013.93,082.9,003.76,003.73,003.87*4A
$GPRMC,015323.00,A,4003.56608,N,08254.66372,W,002.72,127.2,241213,06.7,W,D*36
$PTNLRTF,V,A,179619,08,3,4003.56608,N,08254.66372,W,00256,+001.114,-000.846,-000.019,0,1*5B
$PTNLRBA,1,1*57
$GPZDA,015325.00,24,12,2013,,*63
$GPGGA,015325.00,4003.56580,N,08254.66304,W,2,08,0.93,00257,M,-033,M,,*57
$GPGLL,4003.56580,N,08254.66304,W,015325.00,A,D*7B
$GPVTG,117.1,T,123.8,M,000.88,N,001.63,K,D*2C
$GPGSA,A,3,25,29,31,32,14,20,16,23,,,,,1.81,0.93,1.55*0F
$GPGSV,3,1,09,25,19,042,44,29,13,073,42,31,64,032,48,32,60,247,50*7E
$GPGSV,3,2,09,14,30,108,45,20,37,295,46,16,27,193,47,46,43,203,46*79
$GPGSV,3,3,09,23,15,303,47,,,,,,,,,,,,*46
$GPGST,015325.00,,013.52,013.34,087.3,003.68,003.65,003.79*45
$GPRMC,015325.00,A,4003.56580,N,08254.66304,W,000.88,117.1,241213,06.7,W,D*35
$PTNLRTF,V,A,179621,08,3,4003.56580,N,08254.66304,W,00257,+000.403,-000.206,+000.009,0,1*58
$PTNLRBA,1,1*57
$GPZDA,015326.00,24,12,2013,,*60
$GPGGA,015326.00,4003.56572,N,08254.66284,W,2,08,0.93,00256,M,-033,M,,*51
$GPGLL,4003.56572,N,08254.66284,W,015326.00,A,D*7C
$GPVTG,118.7,T,125.4,M,000.66,N,001.22,K,D*2A
$GPGSA,A,3,25,29,31,32,14,20,16,23,,,,,1.81,0.93,1.56*0C
$GPGSV,3,1,09,25,19,042,44,29,13,073,45,31,64,032,49,32,60,247,50*78
$GPGSV,3,2,09,14,30,108,46,20,37,295,46,16,27,193,48,46,43,203,47*74
$GPGSV,3,3,09,23,15,303,47,,,,,,,,,,,,*46
$GPGST,015326.00,,013.00,012.82,087.1,003.61,003.58,003.72*43
$GPRMC,015326.00,A,4003.56572,N,08254.66284,W,000.66,118.7,241213,06.7,W,D*3B
$PTNLRTF,V,A,179622,08,3,4003.56572,N,08254.66284,W,00256,+000.298,-000.163,-000.056,0,1*56
$PTNLRBA,1,1*57
$GPZDA,015328.00,24,12,2013,,*6E
$GPGGA,015328.00,4003.56574,N,08254.66282,W,2,08,0.93,00256,M,-033,M,,*5F
$GPGLL,4003.56574,N,08254.66282,W,015328.00,A,D*72
$GPVTG,000.0,T,006.7,M,000.00,N,000.00,K,D*27
$GPGSA,A,3,25,29,31,32,14,20,16,23,,,,,1.81,0.93,1.56*0C
$GPGSV,3,1,09,25,19,042,44,29,13,073,45,31,64,032,50,32,60,247,51*71
$GPGSV,3,2,09,14,30,108,45,20,37,295,47,16,27,193,48,46,43,203,47*76
$GPGSV,3,3,09,23,15,303,47,,,,,,,,,,,,*46
$GPGST,015328.00,,012.96,012.79,085.2,003.60,003.58,003.71*44
$GPRMC,015328.00,A,4003.56574,N,08254.66282,W,000.00,000.0,241213,06.7,W,D*3A
$PTNLRTF,V,A,179624,08,3,4003.56574,N,08254.66282,W,00256,+000.000,+000.000,+000.000,0,1*54
$PTNLRBA,1,1*57
$GPZDA,015329.00,24,12,2013,,*6F
$GPGGA,015329.00,4003.56575,N,08254.66282,W,2,08,0.93,00256,M,-033,M,,*5F
$GPGLL,4003.56575,N,08254.66282,W,015329.00,A,D*72
$GPVTG,000.0,T,006.7,M,000.00,N,000.00,K,D*27
$GPGSA,A,3,25,29,31,32,14,20,16,23,,,,,1.82,0.93,1.56*0F
$GPGSV,3,1,09,25,19,042,45,29,13,073,44,31,64,032,50,32,60,247,51*71
$GPGSV,3,2,09,14,30,108,44,20,37,295,46,16,27,193,48,46,43,203,45*74
$GPGSV,3,3,09,23,15,303,46,,,,,,,,,,,,*47
$GPGST,015329.00,,013.03,012.86,085.5,003.61,003.59,003.72*4C
$GPRMC,015329.00,A,4003.56575,N,08254.66282,W,000.00,000.0,241213,06.7,W,D*3A
$PTNLRTF,V,A,179625,08,3,4003.56575,N,08254.66282,W,00256,+000.000,+000.000,+000.000,0,1*54
$PTNLRBA,1,1*57
$GPZDA,015331.00,24,12,2013,,*66
$GPGGA,015331.00,4003.56577,N,08254.66282,W,2,08,0.93,00256,M,-033,M,,*54
$GPGLL,4003.56577,N,08254.66282,W,015331.00,A,D*79
$GPVTG,000.0,T,006.7,M,000.00,N,000.00,K,D*27
$GPGSA,A,3,25,29,31,32,14,20,16,23,,,,,1.82,0.93,1.56*0F
$GPGSV,3,1,09,25,19,042,45,29,13,073,45,31,64,032,49,32,60,247,51*78
$GPGSV,3,2,09,14,30,108,45,20,37,295,46,16,27,193,48,46,43,203,44*74
$GPGSV,3,3,09,23,15,303,46,,,,,,,,,,,,*47
$GPGST,015331.00,,012.88,012.71,086.0,003.59,003.57,003.70*4E
$GPRMC,015331.00,A,4003.56577,N,08254.66282,W,000.00,000.0,241213,06.7,W,D*31
$PTNLRTF,V,A,179627,08,3,4003.56577,N,08254.66282,W,00256,+000.000,+000.000,+000.000,0,1*54
$PTNLRBA,1,1*57
$GPZDA,015333.00,24,12,2013,,*64
$GPGGA,015333.00,4003.56580,N,08254.66282,W,2,08,0.93,00256,M,-033,M,,*5E
$GPGLL,4003.56580,N,08254.66282,W,015333.00,A,D*73
$GPVTG,000.0,T,006.7,M,000.00,N,000.00,K,D*27
$GPGSA,A,3,25,29,31,32,14,20,16,23,,,,,1.82,0.93,1.56*0F
$GPGSV,3,1,09,25,19,042,45,29,13,073,44,31,63,032,50,32,60,247,50*77
$GPGSV,3,2,09,14,30,108,44,20,37,295,47,16,27,193,49,46,43,203,45*74
$GPGSV,3,3,09,23,15,303,46,,,,,,,,,,,,*47
$GPGST,015333.00,,013.32,013.16,086.5,003.65,003.63,003.76*47
$GPRMC,015333.00,A,4003.56580,N,08254.66282,W,000.00,000.0,241213,06.7,W,D*3B
$PTNLRTF,V,A,179629,08,3,4003.56580,N,08254.66282,W,00256,+000.000,+000.000,+000.000,0,1*52
$PTNLRBA,1,1*57
$GPZDA,015334.00,24,12,2013,,*63
$GPGGA,015334.00,4003.56580,N,08254.66283,W,2,08,0.93,00256,M,-033,M,,*58
$GPGLL,4003.56580,N,08254.66283,W,015334.00,A,D*75
$GPVTG,000.0,T,006.7,M,000.00,N,000.00,K,D*27
$GPGSA,A,3,25,29,31,32,14,20,16,23,,,,,1.82,0.93,1.56*0F
$GPGSV,3,1,09,25,19,042,45,29,13,073,45,31,63,032,51,32,60,247,50*77
$GPGSV,3,2,09,14,30,108,45,20,37,295,47,16,27,193,48,46,43,203,45*74
$GPGSV,3,3,09,23,15,303,47,,,,,,,,,,,,*46
$GPGST,015334.00,,013.52,013.36,086.7,003.68,003.66,003.78*40
$GPRMC,015334.00,A,4003.56580,N,08254.66283,W,000.00,000.0,241213,06.7,W,D*3D
$PTNLRTF,V,A,179630,08,3,4003.56580,N,08254.66283,W,00256,+000.000,+000.000,+000.000,0,1*5B
$PTNLRBA,1,1*57
$GPZDA,015336.00,24,12,2013,,*61
$GPGGA,015336.00,4003.56580,N,08254.66284,W,2,08,0.93,00256,M,-033,M,,*5D
$GPGLL,4003.56580,N,08254.66284,W,015336.00,A,D*70
$GPVTG,000.0,T,006.7,M,000.00,N,000.00,K,D*27
$GPGSA,A,3,25,29,31,32,14,20,16,23,,,,,1.82,0.93,1.56*0F
$GPGSV,3,1,09,25,19,042,45,29,13,073,45,31,63,032,51,32,60,247,51*76
$GPGSV,3,2,09,14,30,108,45,20,37,295,47,16,27,193,48,46,43,203,46*77
$GPGSV,3,3,09,23,15,303,48,,,,,,,,,,,,*49
$GPGST,015336.00,,012.96,012.82,087.1,003.60,003.58,003.71*4E
$GPRMC,015336.00,A,4003.56580,N,08254.66284,W,000.00,000.0,241213,06.7,W,D*38
$PTNLRTF,V,A,179632,08,3,4003.56580,N,08254.66284,W,00256,+000.000,+000.000,+000.000,0,1*5E
$PTNLRBA,1,1*57
$GPZDA,015337.00,24,12,2013,,*60
$GPGGA,015337.00,4003.56579,N,08254.66283,W,2,08,0.93,00256,M,-033,M,,*5D
$GPGLL,4003.56579,N,08254.66283,W,015337.00,A,D*70
$GPVTG,000.0,T,006.7,M,000.00,N,000.00,K,D*27
$GPGSA,A,3,25,29,31,32,14,20,16,23,,,,,1.82,0.93,1.56*0F
$GPGSV,3,1,09,25,19,042,45,29,13,073,44,31,63,032,50,32,60,247,50*77
$GPGSV,3,2,09,14,30,108,44,20,37,295,47,16,27,193,48,46,43,203,45*75
$GPGSV,3,3,09,23,15,303,47,,,,,,,,,,,,*46
$GPGST,015337.00,,012.77,012.63,087.3,003.57,003.55,003.68*4C
$GPRMC,015337.00,A,4003.56579,N,08254.66283,W,000.00,000.0,241213,06.7,W,D*38
$PTNLRTF,V,A,179633,08,3,4003.56579,N,08254.66283,W,00256,+000.000,+000.000,+000.000,0,1*5E
$PTNLRBA,1,1*57
$GPZDA,015339.00,24,12,2013,,*6E
$GPGGA,015339.00,4003.56579,N,08254.66282,W,2,08,0.93,00256,M,-033,M,,*52
$GPGLL,4003.56579,N,08254.66282,W,015339.00,A,D*7F
$GPVTG,000.0,T,006.7,M,000.00,N,000.00,K,D*27
$GPGSA,A,3,25,29,31,32,14,20,16,23,,,,,1.82,0.93,1.56*0F
$GPGSV,3,1,09,25,19,042,44,29,13,073,43,31,63,032,51,32,60,247,50*70
$GPGSV,3,2,09,14,30,108,46,20,37,295,47,16,27,193,48,46,43,203,46*74
$GPGSV,3,3,09,23,15,303,46,,,,,,,,,,,,*47
$GPGST,015339.00,,012.06,011.92,087.6,003.47,003.45,003.58*4F
$GPRMC,015339.00,A,4003.56579,N,08254.66282,W,000.00,000.0,241213,06.7,W,D*37
$PTNLRTF,V,A,179635,08,3,4003.56579,N,08254.66282,W,00256,+000.000,+000.000,+000.000,0,1*59
$PTNLRBA,1,1*57
$GPZDA,015340.00,24,12,2013,,*60
$GPGGA,015340.00,4003.56579,N,08254.66283,W,2,08,0.93,00256,M,-033,M,,*5D
$GPGLL,4003.56579,N,08254.66283,W,015340.00,A,D*70
$GPVTG,000.0,T,006.7,M,000.00,N,000.00,K,D*27
$GPGSA,A,3,25,29,31,32,14,20,16,23,,,,,1.82,0.93,1.56*0F
$GPGSV,3,1,09,25,19,042,44,29,13,073,43,31,63,032,51,32,60,247,49*78
$GPGSV,3,2,09,14,30,108,45,20,37,295,47,16,27,193,48,46,43,203,44*75
$GPGSV,3,3,09,23,15,303,47,,,,,,,,,,,,*46
$GPGST,015340.00,,011.76,011.62,087.7,003.43,003.41,003.54*47
$GPRMC,015340.00,A,4003.56579,N,08254.66283,W,000.00,000.0,241213,06.7,W,D*38
$PTNLRTF,V,A,179636,08,3,4003.56579,N,08254.66283,W,00256,+000.000,+000.000,+000.000,0,1*5B
$PTNLRBA,1,1*57
$GPZDA,015342.00,24,12,2013,,*62
$GPGGA,015342.00,4003.56580,N,08254.66283,W,2,08,0.93,00256,M,-033,M,,*59
$GPGLL,4003.56580,N,08254.66283,W,015342.00,A,D*74
$GPVTG,000.0,T,006.7,M,000.00,N,000.00,K,D*27
$GPGSA,A,3,25,29,31,32,14,20,16,23,,,,,1.82,0.93,1.56*0F
$GPGSV,3,1,09,25,19,042,46,29,13,073,43,31,63,032,49,32,60,247,50*7B
$GPGSV,3,2,09,14,30,108,45,20,37,295,48,16,27,193,48,46,43,203,44*7A
$GPGSV,3,3,09,23,15,303,47,,,,,,,,,,,,*46
$GPGST,015342.00,,011.96,011.82,087.9,003.46,003.44,003.57*48
$GPRMC,015342.00,A,4003.56580,N,08254.66283,W,000.00,000.0,241213,06.7,W,D*3C
$PTNLRTF,V,A,179638,08,3,4003.56580,N,08254.66283,W,00256,+000.000,+000.000,+000.000,0,1*53
$PTNLRBA,1,1*57
