$GPZDA,200243.00,05,03,2014,,*60
$GPGGA,200243.00,3919.82803,N,08206.08930,W,1,05,5.70,00248,M,-033,M,,*50
$GPGLL,3919.82803,N,08206.08930,W,200243.00,A,A*71
$GPVTG,040.2,T,047.4,M,000.6,N,001.2,K,A*27
$GPGSA,A,3,31,32,25,14,20,,,,,,,,8.01,5.70,5.63*0A
$GPGSV,2,1,05,31,77,299,36,32,59,291,36,25,38,057,30,14,48,083,32*76
$GPGSV,2,2,05,20,23,313,31,,,,,,,,,,,,*4C
$GPGST,200243.00,,211.35,147.37,083.6,014.51,012.17,013.52*40
$GPRMC,200243.00,A,3919.82803,N,08206.08930,W,000.6,040.2,050314,07.2,W,A*09
$PTNLRTF,V,A,331379,05,3,3919.82803,N,08206.08930,W,00248,+000.208,+000.246,+000.027,0,1*$GPZDA,200244.00,05,03,2014,,*67
$GPGGA,200244.00,3919.82865,N,08206.08934,W,1,05,5.69,00248,M,-033,M,,*5B
$GPVTG,293.0,T,300.2,M,000.4,N,000.7,K,A*29
$GPGSA,A,3,31,32,25,14,20,,,,,,,,8.01,5.69,5.63*02
$GPGSV,2,1,05,31,77,299,36,32,59,291,36,25,38,057,31,14,48,083,32*77
$GPGSV,2,2,05,20,23,313,31,,,,,,,,,,,,*4C
$GPGST,200244.00,,214.40,150.63,083.6,014.62,012.30,013.63*40
$GPRMC,200244.00,A,3919.82865,N,08206.08934,W,000.4,293.0,050314,07.2,W,A*06
$PTNLRTF,V,A,331380,05,3,3919.82865,N,08206.08934,W,00248,-000.168,+000.071,-000.029,0,1*59
$PTNLRBA,1,1*57
$GPZDA,200245.00,05,03,2014,,*66
$GPGGA,200245.00,3919.82924,N,08206.08931,W,1,05,5.69,00248,M,-033,M,,*5B
$GPGLL,3919.82924,N,08206.08931,W,200245.00,A,A*72
$GPVTG,359.0,T,006.2,M,000.2,N,000.4,K,A*2E
$GPGSA,A,3,31,32,25,14,20,,,,,,,,8.00,5.69,5.62*02
$GPGSV,2,1,05,31,77,299,36,32,59,290,36,25,38,056,31,14,48,084,32*70
$GPGSV,2,2,05,20,23,313,31,,,,,,,,,,,,*4C
$GPGST,200245.00,,222.11,158.57,083.7,014.88,012.62,013.91*40
$GPRMC,200245.00,A,3919.82924,N,08206.08931,W,000.2,359.0,050314,07.2,W,A*07
$PTNLRTF,V,A,331381,05,3,3919.82924,N,08206.08931,W,00248,-000.002,+000.108,-000.012,0,1*53
$PTNLRBA,1,1*57
$GPZDA,200246.00,05,03,2014,,*65
$GPGGA,200246.00,3919.82927,N,08206.08950,W,1,05,5.68,00248,M,-033,M,,*5D
$GPGLL,3919.82927,N,08206.08950,W,200246.00,A,A*75
$GPVTG,239.1,T,246.3,M,000.5,N,000.9,K,A*25
$GPGSA,A,3,31,32,25,14,20,,,,,,,,7.99,5.68,5.62*0C
$GPGSV,2,1,05,31,77,299,36,32,59,290,36,25,38,056,31,14,48,084,32*70
$GPGSV,2,2,05,20,23,313,31,,,,,,,,,,,,*4C
$GPGST,200246.00,,215.55,152.66,083.8,014.66,012.38,013.69*48
$GPRMC,200246.00,A,3919.82927,N,08206.08950,W,000.5,239.1,050314,07.2,W,A*01
$PTNLRTF,V,A,331382,05,3,3919.82927,N,08206.08950,W,00248,-000.213,-000.128,-000.001,0,1*50
$PTNLRBA,1,1*57
$GPZDA,200247.00,05,03,2014,,*64
$GPGGA,200247.00,3919.82948,N,08206.08942,W,1,05,5.68,00248,M,-033,M,,*56
$GPGLL,3919.82948,N,08206.08942,W,200247.00,A,A*7E
$GPVTG,191.5,T,198.7,M,000.4,N,000.7,K,A*2B
$GPGSA,A,3,32,25,14,20,,,,,,,,,9.46,6.18,7.15*04
$GPGSV,2,1,05,31,77,299,36,32,59,290,36,25,38,056,32,14,48,084,31*70
$GPGSV,2,2,05,20,23,313,30,,,,,,,,,,,,*4D
$GPGST,200247.00,,208.91,146.37,083.9,014.43,012.13,013.44*4C
$GPRMC,200247.00,A,3919.82948,N,08206.08942,W,000.4,191.5,050314,07.2,W,A*0E
$PTNLRTF,V,A,331384,04,3,3919.82948,N,08206.08942,W,00248,-000.039,-000.192,+000.005,0,1*54
$PTNLRBA,1,1*57
$GPZDA,200249.00,05,03,2014,,*6A
$GPGLL,3919.82996,N,08206.08919,W,200249.00,A,A*7D
$GPVTG,078.5,T,085.7,M,000.3,N,000.6,K,A*26
$GPGSA,A,3,31,32,25,14,20,,,,,,,,7.97,5.66,5.60*0E
$GPGSV,2,1,05,31,77,299,36,32,59,290,35,25,38,056,32,14,48,084,31*73
$GPGSV,2,2,05,20,23,313,31,,,,,,,,,,,,*4C
$GPGST,200249.00,,204.17,143.01,084.1,014.27,011.99,013.30*4F
$GPRMC,200249.00,A,3919.82996,N,08206.08919,W,000.3,078.5,050314,07.2,W,A*0C
$PTNLRTF,V,A,331385,05,3,3919.82996,N,08206.08919,W,00248,+000.169,+000.034,-000.016,0,1*54
$PTNLRBA,1,1*57
$GPZDA,200250.00,05,03,2014,,*62
$GPGGA,200250.00,3919.83019,N,08206.08932,W,1,05,5.66,00248,M,-033,M,,*55
$GPVTG,293.7,T,300.9,M,000.3,N,000.5,K,A*20
$GPGSA,A,3,31,32,25,14,20,,,,,,,,7.96,5.66,5.60*0F
$GPGSV,2,1,05,31,77,299,36,32,59,290,35,25,38,056,32,14,48,084,30*72
$GPGSV,2,2,05,20,23,313,31,,,,,,,,,,,,*4C
$GPGST,200250.00,,196.61,136.31,084.1,014.00,011.70,013.04*4A
$GPRMC,200250.00,A,3919.83019,N,08206.08932,W,000.3,293.7,050314,07.2,W,A*07
$PTNLRTF,V,A,331386,05,3,3919.83019,N,08206.08932,W,00248,-000.134,+000.059,-000.011,0,1*53
$PTNLRBA,1,1*57
$GPZDA,200251.00,05,03,2014,,*63
$GPGGA,200251.00,3919.83059,N,08206.08914,W,1,05,5.65,00248,M,-033,M,,*57
$GPGLL,3919.83059,N,08206.08914,W,200251.00,A,A*72
$GPVTG,041.9,T,049.1,M,000.5,N,000.9,K,A*2F
$GPGSA,A,3,31,32,25,14,20,,,,,,,,7.95,5.65,5.59*05
$GPGSV,2,1,05,31,77,299,36,32,59,290,35,25,38,056,32,14,48,084,31*73
$GPGSV,2,2,05,20,23,313,31,,,,,,,,,,,,*4C
$GPGST,200251.00,,194.56,134.65,084.2,013.93,011.63,012.97*49
$GPRMC,200251.00,A,3919.83059,N,08206.08914,W,000.5,041.9,050314,07.2,W,A*03
$PTNLRTF,V,A,331388,05,3,3919.83059,N,08206.08914,W,00248,+000.176,+000.196,-000.000,0,1*5F
$PTNLRBA,1,1*57
$GPZDA,200252.00,05,03,2014,,*60
$GPGGA,200252.00,3919.83077,N,08206.08908,W,1,05,5.65,00248,M,-033,M,,*55
$GPGLL,3919.83077,N,08206.08908,W,200252.00,A,A*70
$GPVTG,000.4,T,007.6,M,000.5,N,001.0,K,A*22
$GPGSA,A,3,31,32,25,14,20,,,,,,,,7.94,5.64,5.59*05
$GPGSV,2,1,05,31,77,299,36,32,59,290,35,25,38,056,32,14,48,084,30*72
$GPGSV,2,2,05,20,23,313,31,,,,,,,,,,,,*4C
$GPGST,200252.00,,197.92,138.27,084.3,014.05,011.78,013.09*4E
$GPRMC,200252.00,A,3919.83077,N,08206.08908,W,000.5,000.4,050314,07.2,W,A*09
$PTNLRTF,V,A,331389,05,3,3919.83077,N,08206.08908,W,00248,+000.002,+000.265,+000.024,0,1*52
$PTNLRBA,1,1*57
$GPZDA,200254.00,05,03,2014,,*66
$GPGLL,3919.83114,N,08206.08930,W,200254.00,A,A*79
$GPVTG,165.1,T,172.3,M,000.2,N,000.4,K,A*21
$GPGSA,A,3,31,32,25,14,20,,,,,,,,7.93,5.64,5.58*03
$GPGSV,2,1,05,31,77,299,37,32,59,290,35,25,38,056,32,14,48,084,30*73
$GPGSV,2,2,05,20,23,313,31,,,,,,,,,,,,*4C
$GPGST,200254.00,,195.75,136.96,084.6,013.97,011.73,013.03*4F
$GPRMC,200254.00,A,3919.83114,N,08206.08930,W,000.2,165.1,050314,07.2,W,A*00
$PTNLRTF,V,A,331390,05,3,3919.83114,N,08206.08930,W,00248,+000.026,-000.098,+000.024,0,1*55
$PTNLRBA,1,1*57
$GPZDA,200255.00,05,03,2014,,*67
$GPGGA,200255.00,3919.83155,N,08206.08907,W,1,05,5.63,00248,M,-033,M,,*5A
$GPVTG,025.6,T,032.8,M,000.8,N,001.5,K,A*27
$GPGSA,A,3,31,32,25,14,20,,,,,,,,7.93,5.63,5.58*04
$GPGSV,2,1,05,31,77,299,37,32,59,290,35,25,38,056,32,14,48,084,30*73
$GPGSV,2,2,05,20,23,313,30,,,,,,,,,,,,*4D
$GPGST,200255.00,,191.67,133.10,084.7,013.83,011.56,012.87*4C
$GPRMC,200255.00,A,3919.83155,N,08206.08907,W,000.8,025.6,050314,07.2,W,A*08
$PTNLRTF,V,A,331391,05,3,3919.83155,N,08206.08907,W,00248,+000.176,+000.368,+000.005,0,1*58
$PTNLRBA,1,1*57
$GPZDA,200256.00,05,03,2014,,*64
$GPGGA,200256.00,3919.83178,N,08206.08919,W,1,05,5.63,00248,M,-033,M,,*59
$GPGLL,3919.83178,N,08206.08919,W,200256.00,A,A*7A
$GPVTG,272.5,T,279.7,M,000.2,N,000.3,K,A*2B
$GPGSA,A,3,31,32,25,14,20,,,,,,,,7.91,5.62,5.57*08
$GPGSV,2,1,05,31,77,299,37,32,59,290,35,25,38,056,32,14,48,084,29*7B
$GPGSV,2,2,05,20,23,313,31,,,,,,,,,,,,*4C
$GPGST,200256.00,,194.73,136.86,084.6,013.94,011.72,013.00*4A
$GPRMC,200256.00,A,3919.83178,N,08206.08919,W,000.2,272.5,050314,07.2,W,A*02
$PTNLRTF,V,A,331393,05,3,3919.83178,N,08206.08919,W,00248,-000.080,+000.004,-000.036,0,1*5B
$PTNLRBA,1,1*57
$GPZDA,200257.00,05,03,2014,,*65
$GPGGA,200257.00,3919.83183,N,08206.08912,W,1,05,5.62,00248,M,-033,M,,*56
$GPVTG,007.6,T,014.8,M,000.5,N,001.0,K,A*2B
$GPGSA,A,3,31,32,25,14,20,,,,,,,,7.90,5.62,5.56*08
$GPGSV,2,1,05,31,77,299,37,32,59,290,35,25,38,056,32,14,48,084,30*73
$GPGSV,2,2,05,20,23,313,31,,,,,,,,,,,,*4C
$GPGST,200257.00,,198.60,141.32,084.6,014.07,011.91,013.16*4D
$GPRMC,200257.00,A,3919.83183,N,08206.08912,W,000.5,007.6,050314,07.2,W,A*08
$PTNLRTF,V,A,331394,05,3,3919.83183,N,08206.08912,W,00248,+000.035,+000.266,+000.010,0,1*5F
$PTNLRBA,1,1*57
$GPZDA,200259.00,05,03,2014,,*6B
$GPGGA,200259.00,3919.83201,N,08206.08887,W,1,05,5.61,00248,M,-033,M,,*5F
$GPGLL,3919.83201,N,08206.08887,W,200259.00,A,A*7E
$GPVTG,127.1,T,134.3,M,000.4,N,000.7,K,A*20
$GPGSA,A,3,31,32,25,14,20,,,,,,,,7.90,5.61,5.56*0B
$GPGSV,2,1,05,31,77,299,37,32,59,290,34,25,38,056,33,14,48,084,29*7B
$GPGSV,2,2,05,20,23,313,31,,,,,,,,,,,,*4C
$GPGST,200259.00,,195.84,139.30,084.9,013.98,011.82,013.07*45
$GPRMC,200259.00,A,3919.83201,N,08206.08887,W,000.4,127.1,050314,07.2,W,A*07
$PTNLRTF,V,A,331395,05,3,3919.83201,N,08206.08887,W,00248,+000.150,-000.113,-000.013,0,1*5A
$PTNLRBA,1,1*57
$GPZDA,200300.00,05,03,2014,,*66
$GPGGA,200300.00,3919.83199,N,08206.08891,W,1,05,5.60,00248,M,-033,M,,*56
$GPGLL,3919.83199,N,08206.08891,W,200300.00,A,A*76
$GPVTG,181.2,T,188.4,M,000.2,N,000.3,K,A*2D
$GPGSA,A,3,31,32,25,14,20,,,,,,,,7.89,5.60,5.55*01
$GPGSV,2,1,05,31,77,299,36,32,59,290,35,25,38,056,33,14,48,084,29*7B
$GPGSV,2,2,05,20,23,313,30,,,,,,,,,,,,*4D
$GPGST,200300.00,,195.79,139.57,085.1,013.98,011.83,013.07*43
$GPRMC,200300.00,A,3919.83199,N,08206.08891,W,000.2,181.2,050314,07.2,W,A*06
$PTNLRTF,V,A,331396,05,3,3919.83199,N,08206.08891,W,00248,-000.002,-000.094,+000.015,0,1*52
$PTNLRBA,1,1*57
$GPZDA,200301.00,05,03,2014,,*67
$GPGGA,200301.00,3919.83150,N,08206.08897,W,1,05,5.60,00248,M,-033,M,,*54
$GPGLL,3919.83150,N,08206.08897,W,200301.00,A,A*74
$GPVTG,175.7,T,182.9,M,001.0,N,001.9,K,A*2C
$GPGSA,A,3,31,32,25,14,20,,,,,,,,7.88,5.59,5.54*0B
$GPGSV,2,1,05,31,77,299,36,32,59,290,34,25,38,056,32,14,48,084,28*7A
$GPGSV,2,2,05,20,23,313,30,,,,,,,,,,,,*4D
$GPGST,200301.00,,192.95,137.34,085.2,013.88,011.74,012.98*41
$GPRMC,200301.00,A,3919.83150,N,08206.08897,W,001.0,175.7,050314,07.2,W,A*09
$PTNLRTF,V,A,331398,05,3,3919.83150,N,08206.08897,W,00248,+000.040,-000.527,-000.005,0,1*55
$PTNLRBA,1,1*57
$GPZDA,200303.00,05,03,2014,,*65
$GPGGA,200302.00,3919.83149,N,08206.08905,W,1,05,5.59,00248,M,-033,M,,*5F
$GPVTG,184.6,T,191.8,M,001.0,N,001.8,K,A*21
$GPGSA,A,3,31,32,25,14,20,,,,,,,,7.87,5.59,5.54*04
$GPGSV,2,1,05,31,77,299,36,32,59,290,34,25,38,056,33,14,48,084,29*7A
$GPGSV,2,2,05,20,23,313,30,,,,,,,,,,,,*4D
$GPGST,200302.00,,188.94,133.54,085.3,013.73,011.57,012.83*44
$GPRMC,200302.00,A,3919.83149,N,08206.08905,W,001.0,184.6,050314,07.2,W,A*07
$PTNLRTF,V,A,331399,05,3,3919.83149,N,08206.08905,W,00248,-000.040,-000.490,-000.022,0,1*58
$PTNLRBA,1,1*57
$GPZDA,200304.00,05,03,2014,,*62
$GPGGA,200304.00,3919.83128,N,08206.08870,W,1,05,5.58,00248,M,-033,M,,*5C
$GPGLL,3919.83128,N,08206.08870,W,200304.00,A,A*77
$GPVTG,129.2,T,136.4,M,001.0,N,001.9,K,A*22
$GPGSA,A,3,31,32,25,14,20,,,,,,,,7.86,5.58,5.53*03
$GPGSV,2,1,05,31,77,299,36,32,59,290,34,25,38,056,33,14,48,084,29*7A
$GPGSV,2,2,05,20,23,313,30,,,,,,,,,,,,*4D
$GPGST,200304.00,,177.60,122.65,085.5,013.31,011.09,012.38*40
$GPRMC,200304.00,A,3919.83128,N,08206.08870,W,001.0,129.2,050314,07.2,W,A*06
$PTNLRTF,V,A,331400,05,3,3919.83128,N,08206.08870,W,00248,+000.406,-000.331,-000.015,0,1*53
$PTNLRBA,1,1*57
$GPZDA,200305.00,05,03,2014,,*63
$GPGGA,200305.00,3919.83115,N,08206.08878,W,1,05,5.