$GPZDA,015412.00,24,12,2013,,*60
$GPGGA,015412.00,4003.56569,N,08254.66278,W,2,08,0.94,00256,M,-033,M,,*5F
$GPGLL,4003.56569,N,08254.66278,W,015412.00,A,D*75
$GPVTG,000.0,T,006.7,M,000.00,N,000.00,K,D*27
$GPGSA,A,3,25,29,31,32,14,20,16,23,,,,,1.83,0.94,1.57*08
$GPGSV,3,1,09,25,19,042,45,29,13,072,44,31,63,033,50,32,59,246,50*7C
$GPGSV,3,2,09,14,30,108,45,20,37,295,46,16,28,193,47,46,43,203,46*76
$GPGSV,3,3,09,23,15,303,48,,,,,,,,,,,,*49
$GPGST,015412.00,,029.94,029.84,089.2,005.47,005.46,005.53*4A
$GPRMC,015412.00,A,4003.56569,N,08254.66278,W,000.00,000.0,241213,06.7,W,D*3D
$PTNLRTF,V$GPZDA,015416.00,24,12,2013,,*64
$GPGGA,015416.00,4003.56567,N,08254.66279,W,2,08,0.94,00256,M,-033,M,,*54
$GPGLL,4003.56567,N,08254.66279,W,015416.00,A,D*7E
$GPVTG,000.0,T,006.7,M,000.00,N,000.00,K,D*27
$GPGSA,A,3,25,29,31,32,14,20,16,23,,,,,1.83,0.94,1.57*08
$GPGSV,3,1,09,25,19,042,45,29,13,072,44,31,63,033,49,32,59,246,49*7C
$GPGSV,3,2,09,14,30,108,46,20,37,295,46,16,28,193,48,46,43,203,46*7A
$GPGSV,3,3,09,23,15,303,47,,,,,,,,,,,,*46
$GPGST,015416.00,,034.12,034.03,089.3,005.84,005.83,005.89*4F
$GPRMC,015416.00,A,4003.56567,N,08254.66279,W,000.00,000.0,241213,06.7,W,D*36
$PTNLRTF,V,A,179672,08,3,4003.56567,N,08254.66279,W,00256,+000.000,+000.000,+000.000,0,1*51
$PTNLRBA,1,1*57
$GPZDA,015417.00,24,12,2013,,*65
$GPGGA,015417.00,4003.56566,N,08254.66278,W,2,08,0.94,00256,M,-033,M,,*55
$GPGLL,4003.56566,N,08254.66278,W,015417.00,A,D*7F
$GPVTG,000.0,T,006.7,M,000.00,N,000.00,K,D*27
$GPGSA,A,3,25,29,31,32,14,20,16,23,,,,,1.83,0.94,1.57*08
$GPGSV,3,1,09,25,19,042,44,29,13,072,45,31,63,033,49,32,59,246,49*7C
$GPGSV,3,2,09,14,30,108,45,20,37,295,47,16,28,193,48,46,43,203,47*79
$GPGSV,3,3,09,23,15,303,48,,,,,,,,,,,,*49
$GPGST,015417.00,,035.77,035.68,089.3,005.98,005.97,006.03*49
$GPRMC,015417.00,A,4003.56566,N,08254.66278,W,000.00,000.0,241213,06.7,W,D*37
$PTNLRTF,V,A,179673,08,3,4003.56566,N,08254.66278,W,00256,+000.000,+000.000,+000.000,0,1*50
$PTNLRBA,1,1*57
$GPZDA,015419.00,24,12,2013,,*6B
$GPGGA,015419.00,4003.56566,N,08254.66279,W,2,08,0.94,00256,M,-033,M,,*5A
$GPGLL,4003.56566,N,08254.66279,W,015419.00,A,D*70
$GPVTG,000.0,T,006.7,M,000.00,N,000.00,K,D*27
$GPGSA,A,3,25,29,31,32,14,20,16,23,,,,,1.83,0.94,1.57*08
$GPGSV,3,1,09,25,19,042,45,29,13,072,45,31,63,033,49,32,59,246,50*75
$GPGSV,3,2,09,14,30,108,46,20,37,295,46,16,28,193,49,46,43,203,46*7B
$GPGSV,3,3,09,23,15,303,47,,,,,,,,,,,,*46
$GPGST,015419.00,,037.51,037.42,089.3,006.12,006.12,006.17*41
$GPRMC,015419.00,A,4003.56566,N,08254.66279,W,000.00,000.0,241213,06.7,W,D*38
$PTNLRTF,V,A,179675,08,3,4003.56566,N,08254.66279,W,00256,+000.000,+000.000,+000.000,0,1*57
$PTNLRBA,1,1*57
$GPZDA,015420.00,24,12,2013,,*61
$GPGGA,015420.00,4003.56566,N,08254.66279,W,2,08,0.94,00256,M,-033,M,,*50
$GPGLL,4003.56566,N,08254.66279,W,015420.00,A,D*7A
$GPVTG,000.0,T,006.7,M,000.00,N,000.00,K,D*27
$GPGSA,A,3,25,29,31,32,14,20,16,23,,,,,1.83,0.94,1.57*08
$GPGSV,3,1,09,25,19,042,44,29,13,072,45,31,63,033,49,32,59,246,50*74
$GPGSV,3,2,09,14,30,108,45,20,37,295,47,16,28,193,48,46,43,203,46*78
$GPGSV,3,3,09,23,15,303,47,,,,,,,,,,,,*46
$GPGST,015420.00,,038.43,038.34,089.4,006.20,006.19,006.24*44
$GPRMC,015420.00,A,4003.56566,N,08254.66279,W,000.00,000.0,241213,06.7,W,D*32
$PTNLRTF,V,A,179676,08,3,4003.56566,N,08254.66279,W,00256,+000.000,+000.000,+000.000,0,1*54
$PTNLRBA,1,1*57
$GPZDA,015422.00,24,12,2013,,*63
$GPGGA,015422.00,4003.56564,N,08254.66280,W,2,08,0.94,00256,M,-033,M,,*56
$GPGLL,4003.56564,N,08254.66280,W,015422.00,A,D*7C
$GPVTG,000.0,T,006.7,M,000.00,N,000.00,K,D*27
$GPGSA,A,3,25,29,31,32,14,20,16,23,,,,,1.83,0.94,1.57*08
$GPGSV,3,1,09,25,19,042,45,29,13,072,46,31,63,033,48,32,59,246,50*77
$GPGSV,3,2,09,14,30,108,45,20,37,295,45,16,28,193,48,46,43,203,45*79
$GPGSV,3,3,09,23,15,303,48,,,,,,,,,,,,*49
$GPGST,015422.00,,040.13,040.04,089.4,006.33,006.33,006.38*47
$GPRMC,015422.00,A,4003.56564,N,08254.66280,W,000.00,000.0,241213,06.7,W,D*34
$PTNLRTF,V,A,179678,08,3,4003.56564,N,08254.66280,W,00256,+000.000,+000.000,+000.000,0,1*5E
$PTNLRBA,1,1*57
$GPZDA,015423.00,24,12,2013,,*62
$GPGGA,015423.00,4003.56564,N,08254.66280,W,2,08,0.94,00256,M,-033,M,,*57
$GPGLL,4003.56564,N,08254.66280,W,015423.00,A,D*7D
$GPVTG,000.0,T,006.7,M,000.00,N,000.00,K,D*27
$GPGSA,A,3,25,29,31,32,14,20,16,23,,,,,1.83,0.94,1.57*08
$GPGSV,3,1,09,25,19,042,46,29,13,072,46,31,63,033,49,32,59,246,50*75
$GPGSV,3,2,09,14,30,108,45,20,37,295,46,16,28,193,48,46,43,203,45*7A
$GPGSV,3,3,09,23,15,303,48,,,,,,,,,,,,*49
$GPGST,015423.00,,041.18,041.09,089.4,006.42,006.41,006.46*4A
$GPRMC,015423.00,A,4003.56564,N,08254.66280,W,000.00,000.0,241213,06.7,W,D*35
$PTNLRTF,V,A,179679,08,3,4003.56564,N,08254.66280,W,00256,+000.000,+000.000,+000.000,0,1*5F
$PTNLRBA,1,1*57
$GPZDA,015425.00,24,12,2013,,*64
$GPGGA,015425.00,4003.56562,N,08254.66281,W,2,08,0.94,00256,M,-033,M,,*56
$GPGLL,4003.56562,N,08254.66281,W,015425.00,A,D*7C
$GPVTG,000.0,T,006.7,M,000.00,N,000.00,K,D*27
$GPGSA,A,3,25,29,31,32,14,20,16,23,,,,,1.83,0.94,1.57*08
$GPGSV,3,1,09,25,19,042,45,29,13,072,45,31,63,033,48,32,59,246,51*75
$GPGSV,3,2,09,14,30,108,46,20,37,295,46,16,28,193,48,46,43,203,46*7A
$GPGSV,3,3,09,23,15,303,47,,,,,,,,,,,,*46
$GPGST,015425.00,,043.64,043.56,089.4,006.61,006.60,006.65*4E
$GPRMC,015425.00,A,4003.56562,N,08254.66281,W,000.00,000.0,241213,06.7,W,D*34
$PTNLRTF,V,A,179681,08,3,4003.56562,N,08254.66281,W,00256,+000.000,+000.000,+000.000,0,1*5F
$PTNLRBA,1,1*57
$GPZDA,015426.00,24,12,2013,,*67
$GPGGA,015426.00,4003.56561,N,08254.66282,W,2,08,0.94,00256,M,-033,M,,*55
$GPGLL,4003.56561,N,08254.66282,W,015426.00,A,D*7F
$GPVTG,000.0,T,006.7,M,000.00,N,000.00,K,D*27
$GPGSA,A,3,25,29,31,32,14,20,16,23,,,,,1.83,0.94,1.57*08
$GPGSV,3,1,09,25,19,042,45,29,13,072,44,31,63,033,48,32,59,246,50*75
$GPGSV,3,2,09,14,30,108,45,20,37,295,47,16,28,193,48,46,43,203,46*78
$GPGSV,3,3,09,23,15,303,48,,,,,,,,,,,,*49
$GPGST,015426.00,,044.29,044.21,089.4,006.66,006.65,006.70*42
$GPRMC,015426.00,A,4003.56561,N,08254.66282,W,000.00,000.0,241213,06.7,W,D*37
$PTNLRTF,V,A,179682,08,3,4003.56561,N,08254.66282,W,00256,+000.000,+000.000,+000.000,0,1*5C
$PTNLRBA,1,1*57
$GPZDA,015428.00,24,12,2013,,*69
$GPGGA,015428.00,4003.56558,N,08254.66282,W,2,08,0.94,00256,M,-033,M,,*51
$GPGLL,4003.56558,N,08254.66282,W,015428.00,A,D*7B
$GPVTG,000.0,T,006.7,M,000.00,N,000.00,K,D*27
$GPGSA,A,3,25,29,31,32,14,20,16,23,,,,,1.83,0.94,1.57*08
$GPGSV,3,1,09,25,19,042,46,29,13,072,45,31,63,033,47,32,59,246,50*78
$GPGSV,3,2,09,14,30,108,45,20,37,295,48,16,28,193,47,46,43,203,46*78
$GPGSV,3,3,09,23,15,303,48,,,,,,,,,,,,*49
$GPGST,015428.00,,046.63,046.54,089.5,006.83,006.82,006.87*4B
$GPRMC,015428.00,A,4003.56558,N,08254.66282,W,000.00,000.0,241213,06.7,W,D*33
$PTNLRTF,V,A,179684,08,3,4003.56558,N,08254.66282,W,00256,+000.000,+000.000,+000.000,0,1*50
$PTNLRBA,1,1*57
$GPZDA,015429.00,24,12,2013,,*68
$GPGGA,015429.00,4003.56556,N,08254.66283,W,2,08,0.94,00256,M,-033,M,,*5F
$GPGLL,4003.56556,N,08254.66283,W,015429.00,A,D*75
$GPVTG,000.0,T,006.7,M,000.00,N,000.00,K,D*27
$GPGSA,A,3,25,29,31,32,14,20,16,23,,,,,1.83,0.94,1.57*08
$GPGSV,3,1,09,25,19,042,45,29,13,072,45,31,63,033,48,32,59,246,50*74
$GPGSV,3,2,09,14,30,108,45,20,37,295,47,16,28,193,48,46,43,203,46*78
$GPGSV,3,3,09,23,15,303,47,,,,,,,,,,,,*46
$GPGST,015429.00,,047.55,047.47,089.5,006.90,006.89,006.93*41
$GPRMC,015429.00,A,4003.56556,N,08254.66283,W,000.00,000.0,241213,06.7,W,D*3D
$PTNLRTF,V,A,179685,08,3,4003.56556,N,08254.66283,W,00256,+000.000,+000.000,+000.000,0,1*5E
$PTNLRBA,1,1*57
$GPZDA,015431.00,24,12,2013,,*61
$GPGGA,015431.00,4003.56553,N,08254.66282,W,2,08,0.94,00256,M,-033,M,,*52
$GPGLL,4003.56553,N,08254.66282,W,015431.00,A,D*78
$GPVTG,000.0,T,006.7,M,000.00,N,000.00,K,D*27
$GPGSA,A,3,25,29,31,32,14,20,16,23,,,,,1.83,0.94,1.57*08
$GPGSV,3,1,09,25,19,042,45,29,13,072,46,31,63,033,49,32,59,246,51*77
$GPGSV,3,2,09,14,30,108,44,20,37,295,47,16,28,193,48,46,43,203,45*7A
$GPGSV,3,3,09,23,15,303,48,,,,,,,,,,,,*49
$GPGST,015431.00,,048.58,048.49,089.5,006.97,006.96,007.01*48
$GPRMC,015431.00,A,4003.56553,N,08254.66282,W,000.00,000.0,241213,06.7,W,D*30
$PTNLRTF,V,A,179687,08,3,4003.56553,N,08254.66282,W,00256,+000.000,+000.000,+000.000,0,1*58
$PTNLRBA,1,1*57
$GPZDA,015432.00,24,12,2013,,*62
$GPGGA,015432.00,4003.56551,N,08254.66281,W,2,08,0.94,00256,M,-033,M,,*50
$GPGLL,4003.56551,N,08254.66281,W,015432.00,A,D*7A
$GPVTG,000.0,T,006.7,M,000.00,N,000.00,K,D*27
$GPGSA,A,3,25,29,31,32,14,20,16,23,,,,,1.83,0.94,1.58*07
$GPGSV,3,1,09,25,19,042,44,29,13,072,45,31,63,033,49,32,59,246,50*74
$GPGSV,3,2,09,14,30,108,45,20,37,295,48,16,28,193,48,46,43,203,46*77
$GPGSV,3,3,09,23,15,303,48,,,,,,,,,,,,*49
$GPGST,015432.00,,050.26,050.18,089.4,007.09,007.08,007.13*44
$GPRMC,015432.00,A,4003.56551,N,08254.66281,W,000.00,000.0,241213,06.7,W,D*32
$PTNLRTF,V,A,179689,08,3,4003.56551,N,08254.66281,W,00256,+000.000,+000.000,+000.000,0,1*57
$PTNLRBA,1,1*57
$GPZDA,015434.00,24,12,2013,,*64
$GPGGA,015434.00,4003.56547,N,08254.66279,W,2,08,0.94,00256,M,-033,M,,*56
$GPGLL,4003.56547,N,08254.66279,W,015434.00,A,D*7C
$GPVTG,000.0,T,006.7,M,000.00,N,000.00,K,D*27
$GPGSA,A,3,25,29,31,32,14,20,16,23,,,,,1.83,0.94,1.58*07
$GPGSV,3,1,09,25,19,042,45,29,13,072,46,31,63,033,49,32,59,246,50*76
$GPGSV,3,2,09,14,30,108,44,20,37,295,47,16,28,193,48,46,43,203,47*78
$GPGSV,3,3,09,23,15,303,48,,,,,,,,,,,,*49
$GPGST,015434.00,,052.80,052.72,089.4,007.27,007.26,007.30*43
$GPRMC,015434.00,A,4003.56547,N,08254.66279,W,000.00,000.0,241213,06.7,W,D*34
$PTNLRTF,V,A,179690,08,3,4003.56547,N,08254.66279,W,00256,+000.000,+000.000,+000.000,0,1*5F
$PTNLRBA,1,1*57
$GPZDA,015436.00,24,12,2013,,*66
$GPGGA,015436.00,4003.56544,N,08254.66278,W,2,08,0.94,00256,M,-033,M,,*56
$GPGLL,4003.56544,N,08254.66278,W,015436.00,A,D*7C
$GPVTG,000.0,T,006.7,M,000.00,N,000.00,K,D*27
$GPGSA,A,3,25,29,31,32,14,20,16,23,,,,,1.83,0.94,1.58*07
$GPGSV,3,1,09,25,19,042,45,29,13,072,44,31,63,033,49,32,59,246,50*74
$GPGSV,3,2,09,14,30,108,44,20,37,295,47,16,28,193,48,46,43,203,45*7A
$GPGSV,3,3,09,23,15,303,48,,,,,,,,,,,,*49
$GPGST,015436.00,,052.46,052.39,089.4,007.24,007.24,007.28*4C
$GPRMC,015436.00,A,4003.56544,N,08254.66278,W,000.00,000.0,241213,06.7,W,D*34
$PTNLRTF,V,A,179692,08,3,4003.56544,N,08254.66278,W,00256,+000.000,+000.000,+000.000,0,1*5F
$PTNLRBA,1,1*57
$GPZDA,015437.00,24,12,2013,,*67
$GPGGA,015437.00,4003.56543,N,08254.66277,W,2,08,0.94,00256,M,-033,M,,*5F
$GPGLL,4003.56543,N,08254.66277,W,015437.00,A,D*75
$GPVTG,000.0,T,006.7,M,000.00,N,000.00,K,D*27
$GPGSA,A,3,25,29,31,32,14,20,16,23,,,,,1.83,0.94,1.58*07
$GPGSV,3,1,09,25,19,042,46,29,13,072,44,31,63,033,49,32,59,246,50*77
$GPGSV,3,2,09,14,30,108,44,20,37,295,47,16,28,193,47,46,43,203,46*76
$GPGSV,3,3,09,23,15,303,48,,,,,,,,,,,,*49
$GPGST,015437.00,,052.37,052.30,089.4,007.24,007.23,007.27*4A
$GPRMC,015437.00,A,4003.56543,N,08254.66277,W,000.00,000.0,241213,06.7,W,D*3D
$PTNLRTF,V,A,179693,08,3,4003.56543,N,08254.66277,W,00256,+000.000,+000.000,+000.000,0,1*56
$PTNLRBA,1,1*57
