$GPZDA,014655.00,24,12,2013,,*60
$GPGGA,014655.00,4003.48329,N,08254.66593,W,2,09,0.87,00246,M,-033,M,,*52
$GPGLL,4003.48329,N,08254.66593,W,014655.00,A,D*7A
$GPVTG,000.0,T,006.7,M,000.00,N,000.00,K,D*27
$GPGSA,A,3,25,01,29,31,32,14,20,16,23,,,,1.51,0.87,1.23*07
$GPGSV,3,1,10,25,22,043,39,01,05,256,40,29,12,076,24,31,66,027,36*7C
$GPGSV,3,2,10,32,61,254,28,14,33,105,27,20,36,299,40,16,24,193,46*7B
$GPGSV,3,3,10,46,43,203,44,23,13,302,45,,,,,,,,*7F
$GPGST,014655.00,,161.41,161.37,089.4,012.70,012.70,012.72*48
$GPRMC,014655.00,A,4003.48329,N,08254.66593,W,000.00,000.0,241213,06.7,W,D*32$GPZDA,014658.00,24,12,2013,,*6D
$GPGGA,014658.00,4003.48329,N,08254.66592,W,2,08,0.89,00246,M,-033,M,,*51
$GPGLL,4003.48329,N,08254.66592,W,014658.00,A,D*76
$GPVTG,000.0,T,006.7,M,000.00,N,000.00,K,D*27
$GPGSA,A,3,25,01,29,31,14,20,16,23,,,,,1.74,0.89,1.49*03
$GPGSV,3,1,10,25,21,043,42,01,05,256,39,29,12,075,31,31,66,028,36*75
$GPGSV,3,2,10,32,61,253,23,14,33,105,34,20,36,298,40,16,24,193,45*77
$GPGSV,3,3,10,46,43,203,44,23,13,302,45,,,,,,,,*7F
$GPGST,014658.00,,138.93,138.89,089.6,011.79,011.79,011.80*43
$GPRMC,014658.00,A,4003.48329,N,08254.66592,W,000.00,000.0,241213,06.7,W,D*3E
$PTNLRTF,V,A,179234,08,3,4003.48329,N,08254.66592,W,00246,+000.000,+000.000,+000.000,0,1*57
$PTNLRBA,1,1*57
$GPZDA,014659.00,24,12,2013,,*6C
$GPGGA,014659.00,4003.48329,N,08254.66592,W,2,09,0.87,00246,M,-033,M,,*5F
$GPGLL,4003.48329,N,08254.66592,W,014659.00,A,D*77
$GPVTG,000.0,T,006.7,M,000.00,N,000.00,K,D*27
$GPGSA,A,3,25,01,29,31,32,14,20,16,23,,,,1.51,0.87,1.23*07
$GPGSV,3,1,10,25,21,043,42,01,05,256,39,29,12,075,32,31,66,028,36*76
$GPGSV,3,2,10,32,61,253,24,14,33,105,33,20,36,298,40,16,24,193,45*77
$GPGSV,3,3,10,46,43,203,44,23,13,302,45,,,,,,,,*7F
$GPGST,014659.00,,138.63,138.59,089.7,011.77,011.77,011.79*47
$GPRMC,014659.00,A,4003.48329,N,08254.66592,W,000.00,000.0,241213,06.7,W,D*3F
$PTNLRTF,V,A,179235,09,3,4003.48329,N,08254.66592,W,00246,+000.000,+000.000,+000.000,0,1*57
$PTNLRBA,1,1*57
$GPZDA,014701.00,24,12,2013,,*60
$GPGGA,014701.00,4003.48329,N,08254.66593,W,2,09,0.87,00246,M,-033,M,,*52
$GPGLL,4003.48329,N,08254.66593,W,014701.00,A,D*7A
$GPVTG,000.0,T,006.7,M,000.00,N,000.00,K,D*27
$GPGSA,A,3,25,01,29,31,32,14,20,16,23,,,,1.51,0.87,1.23*07
$GPGSV,3,1,10,25,21,043,39,01,05,256,40,29,12,075,32,31,66,028,34*76
$GPGSV,3,2,10,32,61,253,27,14,33,105,33,20,36,298,39,16,24,193,46*79
$GPGSV,3,3,10,46,43,203,44,23,13,302,44,,,,,,,,*7E
$GPGST,014701.00,,124.80,124.76,089.8,011.17,011.17,011.19*42
$GPRMC,014701.00,A,4003.48329,N,08254.66593,W,000.00,000.0,241213,06.7,W,D*32
$PTNLRTF,V,A,179237,09,3,4003.48329,N,08254.66593,W,00246,+000.000,+000.000,+000.000,0,1*54
$PTNLRBA,1,1*57
$GPZDA,014702.00,24,12,2013,,*63
$GPGGA,014702.00,4003.48328,N,08254.66593,W,2,09,0.87,00246,M,-033,M,,*50
$GPGLL,4003.48328,N,08254.66593,W,014702.00,A,D*78
$GPVTG,000.0,T,006.7,M,000.00,N,000.00,K,D*27
$GPGSA,A,3,25,01,29,31,32,14,20,16,23,,,,1.51,0.87,1.23*07
$GPGSV,3,1,10,25,21,043,40,01,05,256,40,29,12,075,31,31,66,028,34*7B
$GPGSV,3,2,10,32,61,253,31,14,33,105,32,20,36,298,40,16,24,193,46*71
$GPGSV,3,3,10,46,43,203,45,23,13,302,45,,,,,,,,*7E
$GPGST,014702.00,,116.15,116.11,089.9,010.78,010.78,010.79*4A
$GPRMC,014702.00,A,4003.48328,N,08254.66593,W,000.00,000.0,241213,06.7,W,D*30
$PTNLRTF,V,A,179238,09,3,4003.48328,N,08254.66593,W,00246,+000.000,+000.000,+000.000,0,1*5A
$PTNLRBA,1,1*57
$GPZDA,014704.00,24,12,2013,,*65
$GPGGA,014704.00,4003.48327,N,08254.66593,W,2,08,0.94,00246,M,-033,M,,*5A
$GPGLL,4003.48327,N,08254.66593,W,014704.00,A,D*71
$GPVTG,000.0,T,006.7,M,000.00,N,000.00,K,D*27
$GPGSA,A,3,25,01,31,32,14,20,16,23,,,,,1.66,0.94,1.38*00
$GPGSV,3,1,10,25,21,043,39,01,05,256,40,29,12,075,27,31,66,028,34*72
$GPGSV,3,2,10,32,61,253,30,14,33,105,31,20,36,298,40,16,24,193,46*73
$GPGSV,3,3,10,46,43,203,44,23,13,302,45,,,,,,,,*7F
$GPGST,014704.00,,111.30,111.26,090.0,010.55,010.55,010.57*42
$GPRMC,014704.00,A,4003.48327,N,08254.66593,W,000.00,000.0,241213,06.7,W,D*39
$PTNLRTF,V,A,179240,08,3,4003.48327,N,08254.66593,W,00246,+000.000,+000.000,+000.000,0,1*5B
$PTNLRBA,1,1*57
$GPZDA,014705.00,24,12,2013,,*64
$GPGGA,014705.00,4003.48327,N,08254.66593,W,2,08,0.93,00247,M,-033,M,,*5D
$GPGLL,4003.48327,N,08254.66593,W,014705.00,A,D*70
$GPVTG,000.0,T,006.7,M,000.00,N,000.00,K,D*27
$GPGSA,A,3,25,29,31,32,14,20,16,23,,,,,1.72,0.93,1.45*02
$GPGSV,3,1,10,25,21,043,39,01,05,256,40,29,12,075,29,31,66,028,33*7B
$GPGSV,3,2,10,32,61,253,30,14,33,105,32,20,36,298,40,16,24,193,46*70
$GPGSV,3,3,10,46,43,203,44,23,13,302,45,,,,,,,,*7F
$GPGST,014705.00,,123.05,123.02,090.0,011.09,011.09,011.11*40
$GPRMC,014705.00,A,4003.48327,N,08254.66593,W,000.00,000.0,241213,06.7,W,D*38
$PTNLRTF,V,A,179241,08,3,4003.48327,N,08254.66593,W,00247,+000.000,+000.000,+000.000,0,1*5B
$PTNLRBA,1,1*57
$GPZDA,014707.00,24,12,2013,,*66
$GPGGA,014707.00,4003.48330,N,08254.66600,W,2,09,0.87,00247,M,-033,M,,*54
$GPGLL,4003.48330,N,08254.66600,W,014707.00,A,D*7D
$GPVTG,338.8,T,345.5,M,000.14,N,000.25,K,D*23
$GPGSA,A,3,25,01,29,31,32,14,20,16,23,,,,1.51,0.87,1.23*07
$GPGSV,3,1,10,25,21,043,39,01,05,256,40,29,12,075,28,31,66,028,33*7A
$GPGSV,3,2,10,32,61,253,28,14,33,105,31,20,36,298,40,16,24,193,46*7A
$GPGSV,3,3,10,46,43,203,45,23,13,302,45,,,,,,,,*7E
$GPGST,014707.00,,130.56,130.53,088.3,011.43,011.43,011.45*4B
$GPRMC,014707.00,A,4003.48330,N,08254.66600,W,000.14,338.8,241213,06.7,W,D*30
$PTNLRTF,V,A,179243,09,3,4003.48330,N,08254.66600,W,00247,-000.025,+000.066,+000.369,0,1*5A
$PTNLRBA,1,1*57
$GPZDA,014708.00,24,12,2013,,*69
$GPGGA,014708.00,4003.48325,N,08254.66598,W,2,09,0.87,00247,M,-033,M,,*5D
$GPGLL,4003.48325,N,08254.66598,W,014708.00,A,D*74
$GPVTG,178.6,T,185.3,M,000.14,N,000.26,K,D*20
$GPGSA,A,3,25,01,29,31,32,14,20,16,23,,,,1.51,0.87,1.23*07
$GPGSV,3,1,10,25,21,043,40,01,05,256,40,29,12,075,29,31,66,028,33*75
$GPGSV,3,2,10,32,61,253,29,14,33,105,34,20,36,298,40,16,24,193,45*7D
$GPGSV,3,3,10,46,43,203,45,23,13,302,45,,,,,,,,*7E
$GPGST,014708.00,,142.42,142.39,089.4,011.93,011.93,011.96*45
$GPRMC,014708.00,A,4003.48325,N,08254.66598,W,000.14,178.6,241213,06.7,W,D*31
$PTNLRTF,V,A,179244,09,3,4003.48325,N,08254.66598,W,00247,+000.002,-000.073,-000.397,0,1*5D
$PTNLRBA,1,1*57
$GPZDA,014710.00,24,12,2013,,*60
$GPGGA,014710.00,4003.48324,N,08254.66598,W,2,09,0.87,00247,M,-033,M,,*55
$GPGLL,4003.48324,N,08254.66598,W,014710.00,A,D*7C
$GPVTG,000.0,T,006.7,M,000.00,N,000.00,K,D*27
$GPGSA,A,3,25,01,29,31,32,14,20,16,23,,,,1.51,0.87,1.23*07
$GPGSV,3,1,10,25,21,043,39,01,05,256,39,29,12,075,27,31,66,028,33*7B
$GPGSV,3,2,10,32,61,253,31,14,33,105,34,20,36,298,39,16,24,193,46*79
$GPGSV,3,3,10,46,43,203,44,23,13,302,44,,,,,,,,*7E
$GPGST,014710.00,,150.87,150.84,088.3,012.28,012.28,012.31*4B
$GPRMC,014710.00,A,4003.48324,N,08254.66598,W,000.00,000.0,241213,06.7,W,D*34
$PTNLRTF,V,A,179246,09,3,4003.48324,N,08254.66598,W,00247,+000.000,+000.000,+000.000,0,1*55
$PTNLRBA,1,1*57
$GPZDA,014711.00,24,12,2013,,*61
$GPGGA,014711.00,4003.48323,N,08254.66598,W,2,09,0.87,00247,M,-033,M,,*53
$GPGLL,4003.48323,N,08254.66598,W,014711.00,A,D*7A
$GPVTG,000.0,T,006.7,M,000.00,N,000.00,K,D*27
$GPGSA,A,3,25,01,29,31,32,14,20,16,23,,,,1.51,0.87,1.23*07
$GPGSV,3,1,10,25,21,043,38,01,05,256,39,29,12,075,29,31,66,028,33*74
$GPGSV,3,2,10,32,61,253,31,14,33,105,33,20,36,298,39,16,24,193,45*7D
$GPGSV,3,3,10,46,43,203,44,23,13,302,44,,,,,,,,*7E
$GPGST,014711.00,,142.20,142.17,088.4,011.92,011.92,011.95*47
$GPRMC,014711.00,A,4003.48323,N,08254.66598,W,000.00,000.0,241213,06.7,W,D*32
$PTNLRTF,V,A,179247,09,3,4003.48323,N,08254.66598,W,00247,+000.000,+000.000,+000.000,0,1*53
$PTNLRBA,1,1*57
$GPZDA,014713.00,24,12,2013,,*63
$GPGGA,014713.00,4003.48320,N,08254.66596,W,2,09,0.87,00247,M,-033,M,,*5C
$GPGLL,4003.48320,N,08254.66596,W,014713.00,A,D*75
$GPVTG,180.3,T,187.0,M,000.05,N,000.10,K,D*26
$GPGSA,A,3,25,01,29,31,32,14,20,16,23,,,,1.51,0.87,1.23*07
$GPGSV,3,1,10,25,21,043,39,01,05,256,40,29,12,075,28,31,66,028,33*7A
$GPGSV,3,2,10,32,61,253,31,14,33,105,33,20,36,298,39,16,24,193,46*7E
$GPGSV,3,3,10,46,43,203,45,23,13,302,45,,,,,,,,*7E
$GPGST,014713.00,,130.55,130.52,087.8,011.43,011.42,011.45*49
$GPRMC,014713.00,A,4003.48320,N,08254.66596,W,000.05,180.3,241213,06.7,W,D*32
$PTNLRTF,V,A,179249,09,3,4003.48320,N,08254.66596,W,00247,-000.000,-000.027,+000.395,0,1*5A
$PTNLRBA,1,1*57
$GPZDA,014714.00,24,12,2013,,*64
$GPGGA,014714.00,4003.48320,N,08254.66597,W,2,09,0.87,00247,M,-033,M,,*5A
$GPGLL,4003.48320,N,08254.66597,W,014714.00,A,D*73
$GPVTG,237.2,T,243.8,M,000.01,N,000.02,K,D*2C
$GPGSA,A,3,25,01,29,31,32,14,20,16,23,,,,1.51,0.87,1.23*07
$GPGSV,3,1,10,25,21,043,39,01,05,256,39,29,12,075,28,31,66,028,34*73
$GPGSV,3,2,10,32,61,253,31,14,33,105,33,20,36,298,39,16,24,193,45*7D
$GPGSV,3,3,10,46,43,203,45,23,13,302,46,,,,,,,,*7D
$GPGST,014714.00,,122.11,122.09,086.8,011.05,011.05,011.08*49
$GPRMC,014714.00,A,4003.48320,N,08254.66597,W,000.01,237.2,241213,06.7,W,D*3E
$PTNLRTF,V,A,179250,09,3,4003.48320,N,08254.66597,W,00247,-000.004,-000.002,+000.158,0,1*53
$PTNLRBA,1,1*57
$GPZDA,014716.00,24,12,2013,,*66
$GPGGA,014716.00,4003.48318,N,08254.66597,W,2,09,0.87,00247,M,-033,M,,*53
$GPGLL,4003.48318,N,08254.66597,W,014716.00,A,D*7A
$GPVTG,000.0,T,006.7,M,000.00,N,000.00,K,D*27
$GPGSA,A,3,25,01,29,31,32,14,20,16,23,,,,1.51,0.87,1.23*07
$GPGSV,3,1,10,25,21,043,40,01,05,256,39,29,12,075,30,31,66,028,33*73
$GPGSV,3,2,10,32,61,253,31,14,33,105,34,20,36,298,38,16,24,193,46*78
$GPGSV,3,3,10,46,43,203,44,23,13,302,46,,,,,,,,*7C
$GPGST,014716.00,,109.18,109.15,088.1,010.45,010.45,010.48*4D
$GPRMC,014716.00,A,4003.48318,N,08254.66597,W,000.00,000.0,241213,06.7,W,D*32
$PTNLRTF,V,A,179252,09,3,4003.48318,N,08254.66597,W,00247,+000.000,+000.000,+000.000,0,1*50
$PTNLRBA,1,1*57
$GPZDA,014718.00,24,12,2013,,*68
$GPGGA,014718.00,4003.48315,N,08254.66599,W,2,08,0.94,00248,M,-033,M,,*52
$GPGLL,4003.48315,N,08254.66599,W,014718.00,A,D*77
$GPVTG,162.7,T,169.4,M,000.05,N,000.10,K,D*2A
$GPGSA,A,3,25,01,31,32,14,20,16,23,,,,,1.66,0.94,1.38*00
$GPGSV,3,1,10,25,21,043,39,01,05,256,38,29,12,075,28,31,66,028,34*72
$GPGSV,3,2,10,32,61,253,31,14,33,105,33,20,36,298,39,16,24,193,45*7D
$GPGSV,3,3,10,46,43,203,44,23,13,302,45,,,,,,,,*7F
$GPGST,014718.00,,099.52,099.49,086.8,009.98,009.97,010.01*41
$GPRMC,014718.00,A,4003.48315,N,08254.66599,W,000.05,162.7,241213,06.7,W,D*38
$PTNLRTF,V,A,179254,08,3,4003.48315,N,08254.66599,W,00248,+000.008,-000.026,+000.261,0,1*54
$PTNLRBA,1,1*57
$GPZDA,014719.00,24,12,2013,,*69
$GPGGA,014719.00,4003.48312,N,08254.66603,W,2,08,0.94,00248,M,-033,M,,*54
$GPGLL,4003.48312,N,08254.66603,W,014719.00,A,D*71
$GPVTG,230.8,T,237.5,M,000.09,N,000.16,K,D*22
$GPGSA,A,3,25,01,31,32,14,20,16,23,,,,,1.66,0.94,1.38*00
$GPGSV,3,1,10,25,21,043,39,01,05,256,38,29,12,075,25,31,66,028,34*7F
$GPGSV,3,2,10,32,61,253,30,14,33,105,34,20,36,298,39,16,24,193,46*78
$GPGSV,3,3,10,46,43,203,44,23,13,302,45,,,,,,,,*7F
$GPGST,014719.00,,095.76,095.73,084.7,009.79,009.78,009.82*4F
$GPRMC,014719.00,A,4003.48312,N,08254.66603,W,000.09,230.8,241213,06.7,W,D*39
$PTNLRTF,V,A,179255,08,3,4003.48312,N,08254.66603,W,00248,-000.035,-000.028,+000.206,0,1*55
$PTNLRBA,1,1*57
