$GPZDA,025319.00,07,02,2014,,*68
$GPGGA,025319.00,3917.26381,N,08203.79835,W,1,11,0.90,00292,M,-033,M,,*54
$GPGLL,3917.26381,N,08203.79835,W,025319.00,A,A*7C
$GPVTG,000.0,T,007.2,M,000.0,N,000.0,K,A*26
$GPGSA,A,3,09,08,07,23,13,19,16,11,03,06,27,,1.56,0.90,1.27*07
$GPGSV,3,1,11,09,08,305,22,08,14,303,39,07,45,313,34,23,39,193,39*71
$GPGSV,3,2,11,13,60,239,38,19,61,155,34,16,38,053,40,11,13,166,32*7A
$GPGSV,3,3,11,03,72,091,33,06,47,057,36,27,57,068,48,,,,*40
$GPGST,025319.00,,192.82,192.63,045.7,013.88,013.88,013.92*45
$GPRMC,025319.00,A,3917.26381,N,08203.79835,W,000.0,000.0,070214,035,W,00292,+000.000,+000.000,+00$GPZDA,025321.00,07,02,2014,,*63
$GPGGA,025321.00,3917.26385,N,08203.79828,W,1,11,0.90,00291,M,-033,M,,*54
$GPGLL,3917.26385,N,08203.79828,W,025321.00,A,A*7F
$GPVTG,000.0,T,007.2,M,000.0,N,000.0,K,A*26
$GPGSA,A,3,09,08,07,23,13,19,16,11,03,06,27,,1.56,0.90,1.27*07
$GPGSV,3,1,11,09,08,305,22,08,14,303,39,07,45,313,34,23,39,193,39*71
$GPGSV,3,2,11,13,60,239,38,19,61,155,35,16,38,053,40,11,13,166,32*7B
$GPGSV,3,3,11,03,72,091,33,06,47,057,36,27,57,068,48,,,,*40
$GPGST,025321.00,,281.60,281.41,045.6,016.78,016.78,016.81*44
$GPRMC,025321.00,A,3917.26385,N,08203.79828,W,000.0,000.0,070214,07.2,W,A*04
$PTNLRTF,V,A,442417,11,3,3917.26385,N,08203.79828,W,00291,+000.000,+000.000,+000.000,0,1*5A
$PTNLRBA,1,1*57
$GPZDA,025322.00,07,02,2014,,*60
$GPGGA,025322.00,3917.26388,N,08203.79827,W,1,11,0.90,00292,M,-033,M,,*56
$GPGLL,3917.26388,N,08203.79827,W,025322.00,A,A*7E
$GPVTG,000.0,T,007.2,M,000.0,N,000.0,K,A*26
$GPGSA,A,3,09,08,07,23,13,19,16,11,03,06,27,,1.56,0.90,1.27*07
$GPGSV,3,1,11,09,08,305,21,08,14,303,39,07,45,313,36,23,39,193,39*70
$GPGSV,3,2,11,13,60,239,38,19,61,155,35,16,38,053,40,11,13,166,31*78
$GPGSV,3,3,11,03,72,091,33,06,47,057,36,27,57,068,48,,,,*40
$GPGST,025322.00,,374.09,373.91,045.6,019.34,019.34,019.37*40
$GPRMC,025322.00,A,3917.26388,N,08203.79827,W,000.0,000.0,070214,07.2,W,A*05
$PTNLRTF,V,A,442418,11,3,3917.26388,N,08203.79827,W,00292,+000.000,+000.000,+000.000,0,1*54
$PTNLRBA,1,1*57
$GPZDA,025324.00,07,02,2014,,*66
$GPGGA,025324.00,3917.26393,N,08203.79823,W,1,11,0.90,00291,M,-033,M,,*5D
$GPGLL,3917.26393,N,08203.79823,W,025324.00,A,A*76
$GPVTG,000.0,T,007.2,M,000.0,N,000.0,K,A*26
$GPGSA,A,3,09,08,07,23,13,19,16,11,03,06,27,,1.56,0.90,1.27*07
$GPGSV,3,1,11,09,08,305,13,08,14,303,39,07,45,313,34,23,39,193,39*73
$GPGSV,3,2,11,13,60,239,38,19,61,155,35,16,38,053,40,11,13,166,32*7B
$GPGSV,3,3,11,03,72,091,33,06,47,057,36,27,57,068,48,,,,*40
$GPGST,025324.00,,539.29,539.11,045.7,023.22,023.22,023.24*41
$GPRMC,025324.00,A,3917.26393,N,08203.79823,W,000.0,000.0,070214,07.2,W,A*0D
$PTNLRTF,V,A,442420,11,3,3917.26393,N,08203.79823,W,00291,+000.000,+000.000,+000.000,0,1*52
$PTNLRBA,1,1*57
$GPZDA,025325.00,07,02,2014,,*67
$GPGGA,025325.00,3917.26395,N,08203.79823,W,1,10,0.94,00291,M,-033,M,,*5F
$GPGLL,3917.26395,N,08203.79823,W,025325.00,A,A*71
$GPVTG,000.0,T,007.2,M,000.0,N,000.0,K,A*26
$GPGSA,A,3,08,07,23,13,19,16,11,03,06,27,,,1.69,0.94,1.41*06
$GPGSV,3,1,11,09,08,305,00,08,14,303,39,07,45,313,34,23,39,193,39*71
$GPGSV,3,2,11,13,60,239,37,19,61,155,34,16,38,053,40,11,13,166,31*76
$GPGSV,3,3,11,03,72,091,33,06,47,057,36,27,57,068,48,,,,*40
$GPGST,025325.00,,498.45,498.27,045.7,022.32,022.32,022.35*4E
$GPRMC,025325.00,A,3917.26395,N,08203.79823,W,000.0,000.0,070214,07.2,W,A*0A
$PTNLRTF,V,A,442421,10,3,3917.26395,N,08203.79823,W,00291,+000.000,+000.000,+000.000,0,1*54
$PTNLRBA,1,1*57
$GPZDA,025327.00,07,02,2014,,*65
$GPGGA,025327.00,3917.26401,N,08203.79828,W,1,10,0.94,00292,M,-033,M,,*5F
$GPGLL,3917.26401,N,08203.79828,W,025327.00,A,A*72
$GPVTG,000.0,T,007.2,M,000.0,N,000.0,K,A*26
$GPGSA,A,3,08,07,23,13,19,16,11,03,06,27,,,1.69,0.94,1.41*06
$GPGSV,3,1,11,09,08,305,00,08,14,303,39,07,45,313,35,23,39,193,39*70
$GPGSV,3,2,11,13,60,239,38,19,61,155,33,16,38,053,40,11,13,166,31*7E
$GPGSV,3,3,11,03,72,091,31,06,47,057,36,27,57,068,48,,,,*42
$GPGST,025327.00,,425.46,425.28,045.8,020.62,020.62,020.65*48
$GPRMC,025327.00,A,3917.26401,N,08203.79828,W,000.0,000.0,070214,07.2,W,A*09
$PTNLRTF,V,A,442423,10,3,3917.26401,N,08203.79828,W,00292,+000.000,+000.000,+000.000,0,1*54
$PTNLRBA,1,1*57
$GPZDA,025328.00,07,02,2014,,*6A
$GPGGA,025328.00,3917.26402,N,08203.79829,W,1,10,0.94,00292,M,-033,M,,*52
$GPGLL,3917.26402,N,08203.79829,W,025328.00,A,A*7F
$GPVTG,000.0,T,007.2,M,000.0,N,000.0,K,A*26
$GPGSA,A,3,08,07,23,13,19,16,11,03,06,27,,,1.69,0.94,1.41*06
$GPGSV,3,1,11,09,08,305,15,08,14,303,39,07,45,313,35,23,39,193,39*74
$GPGSV,3,2,11,13,60,239,38,19,61,155,34,16,38,053,39,11,13,166,31*77
$GPGSV,3,3,11,03,72,091,31,06,47,057,36,27,57,068,48,,,,*42
$GPGST,025328.00,,393.69,393.52,045.7,019.84,019.84,019.86*4F
$GPRMC,025328.00,A,3917.26402,N,08203.79829,W,000.0,000.0,070214,07.2,W,A*04
$PTNLRTF,V,A,442424,10,3,3917.26402,N,08203.79829,W,00292,+000.000,+000.000,+000.000,0,1*51
$PTNLRBA,1,1*57
$GPZDA,025330.00,07,02,2014,,*63
$GPGGA,025330.00,3917.26405,N,08203.79828,W,1,10,0.94,00292,M,-033,M,,*5D
$GPGLL,3917.26405,N,08203.79828,W,025330.00,A,A*70
$GPVTG,000.0,T,007.2,M,000.0,N,000.0,K,A*26
$GPGSA,A,3,08,07,23,13,19,16,11,03,06,27,,,1.69,0.94,1.41*06
$GPGSV,3,1,11,09,08,305,08,08,14,303,39,07,45,313,36,23,39,193,39*7B
$GPGSV,3,2,11,13,60,239,38,19,61,155,34,16,38,053,39,11,13,166,30*76
$GPGSV,3,3,11,03,72,091,31,06,47,057,37,27,57,068,48,,,,*43
$GPGST,025330.00,,339.82,339.65,045.7,018.43,018.43,018.46*4A
$GPRMC,025330.00,A,3917.26405,N,08203.79828,W,000.0,000.0,070214,07.2,W,A*0B
$PTNLRTF,V,A,442426,10,3,3917.26405,N,08203.79828,W,00292,+000.000,+000.000,+000.000,0,1*55
$PTNLRBA,1,1*57
$GPZDA,025331.00,07,02,2014,,*62
$GPGGA,025331.00,3917.26406,N,08203.79826,W,1,10,0.94,00292,M,-033,M,,*51
$GPGLL,3917.26406,N,08203.79826,W,025331.00,A,A*7C
$GPVTG,000.0,T,007.2,M,000.0,N,000.0,K,A*26
$GPGSA,A,3,08,07,23,13,19,16,11,03,06,27,,,1.69,0.94,1.41*06
$GPGSV,3,1,11,09,08,305,04,08,14,303,39,07,45,313,36,23,39,193,39*77
$GPGSV,3,2,11,13,60,239,38,19,61,155,33,16,38,053,40,11,13,166,30*7F
$GPGSV,3,3,11,03,72,091,31,06,47,057,37,27,57,068,48,,,,*43
$GPGST,025331.00,,313.72,313.55,045.8,017.71,017.71,017.74*46
$GPRMC,025331.00,A,3917.26406,N,08203.79826,W,000.0,000.0,070214,07.2,W,A*07
$PTNLRTF,V,A,442427,10,3,3917.26406,N,08203.79826,W,00292,+000.000,+000.000,+000.000,0,1*59
$PTNLRBA,1,1*57
$GPZDA,025333.00,07,02,2014,,*60
$GPGGA,025333.00,3917.26407,N,08203.79827,W,1,10,0.94,00292,M,-033,M,,*53
$GPGLL,3917.26407,N,08203.79827,W,025333.00,A,A*7E
$GPVTG,000.0,T,007.2,M,000.0,N,000.0,K,A*26
$GPGSA,A,3,08,07,23,13,19,16,11,03,06,27,,,1.69,0.94,1.41*06
$GPGSV,3,1,11,09,08,305,14,08,14,303,39,07,45,313,35,23,39,193,39*75
$GPGSV,3,2,11,13,60,239,37,19,61,155,33,16,38,053,39,11,13,166,30*7E
$GPGSV,3,3,11,03,72,091,31,06,47,057,37,27,57,068,47,,,,*4C
$GPGST,025333.00,,278.22,278.06,045.8,016.68,016.68,016.71*43
$GPRMC,025333.00,A,3917.26407,N,08203.79827,W,000.0,000.0,070214,07.2,W,A*05
$PTNLRTF,V,A,442429,10,3,3917.26407,N,08203.79827,W,00292,+000.000,+000.000,+000.000,0,1*57
$PTNLRBA,1,1*57
$GPZDA,025334.00,07,02,2014,,*67
$GPGGA,025334.00,3917.26408,N,08203.79828,W,1,11,0.90,00292,M,-033,M,,*51
$GPGLL,3917.26408,N,08203.79828,W,025334.00,A,A*79
$GPVTG,000.0,T,007.2,M,000.0,N,000.0,K,A*26
$GPGSA,A,3,09,08,07,23,13,19,16,11,03,06,27,,1.56,0.90,1.27*07
$GPGSV,3,1,11,09,08,305,16,08,14,303,39,07,45,313,35,23,39,193,39*77
$GPGSV,3,2,11,13,60,239,37,19,61,155,32,16,38,053,40,11,13,166,30*71
$GPGSV,3,3,11,03,72,091,31,06,47,057,36,27,57,068,47,,,,*4D
$GPGST,025334.00,,263.28,263.12,045.8,016.22,016.22,016.25*4A
$GPRMC,025334.00,A,3917.26408,N,08203.79828,W,000.0,000.0,070214,07.2,W,A*02
$PTNLRTF,V,A,442430,11,3,3917.26408,N,08203.79828,W,00292,+000.000,+000.000,+000.000,0,1*5E
$PTNLRBA,1,1*57
$GPZDA,025336.00,07,02,2014,,*65
$GPGGA,025336.00,3917.26409,N,08203.79826,W,1,11,0.90,00292,M,-033,M,,*5C
$GPGLL,3917.26409,N,08203.79826,W,025336.00,A,A*74
$GPVTG,000.0,T,007.2,M,000.0,N,000.0,K,A*26
$GPGSA,A,3,09,08,07,23,13,19,16,11,03,06,27,,1.56,0.90,1.27*07
$GPGSV,3,1,11,09,08,305,08,08,14,303,39,07,45,313,36,23,39,193,39*7B
$GPGSV,3,2,11,13,60,239,37,19,61,155,32,16,38,053,40,11,13,166,29*79
$GPGSV,3,3,11,03,72,091,30,06,47,057,36,27,57,068,47,,,,*4C
$GPGST,025336.00,,280.90,280.75,045.9,016.76,016.76,016.79*42
$GPRMC,025336.00,A,3917.26409,N,08203.79826,W,000.0,000.0,070214,07.2,W,A*0F
$PTNLRTF,V,A,442432,11,3,3917.26409,N,08203.79826,W,00292,+000.000,+000.000,+000.000,0,1*53
$PTNLRBA,1,1*57
$GPZDA,025337.00,07,02,2014,,*64
$GPGGA,025337.00,3917.26410,N,08203.79826,W,1,11,0.90,00292,M,-033,M,,*55
$GPGLL,3917.26410,N,08203.79826,W,025337.00,A,A*7D
$GPVTG,000.0,T,007.2,M,000.0,N,000.0,K,A*26
$GPGSA,A,3,09,08,07,23,13,19,16,11,03,06,27,,1.56,0.90,1.27*07
$GPGSV,3,1,11,09,08,305,16,08,14,303,38,07,45,313,36,23,39,193,39*75
$GPGSV,3,2,11,13,60,239,37,19,61,155,32,16,38,053,40,11,13,166,29*79
$GPGSV,3,3,11,03,72,091,31,06,47,057,36,27,57,068,48,,,,*42
$GPGST,025337.00,,283.50,283.35,045.9,016.84,016.84,016.86*4B
$GPRMC,025337.00,A,3917.26410,N,08203.79826,W,000.0,000.0,070214,07.2,W,A*06
$PTNLRTF,V,A,442433,11,3,3917.26410,N,08203.79826,W,00292,+000.000,+000.000,+000.000,0,1*5A
$PTNLRBA,1,1*57
$GPZDA,025339.00,07,02,2014,,*6A
$GPGGA,025339.00,3917.26411,N,08203.79824,W,1,11,0.90,00292,M,-033,M,,*58
$GPGLL,3917.26411,N,08203.79824,W,025339.00,A,A*70
$GPVTG,000.0,T,007.2,M,000.0,N,000.0,K,A*26
$GPGSA,A,3,09,08,07,23,13,19,16,11,03,06,27,,1.56,0.90,1.27*07
$GPGSV,3,1,11,09,08,305,20,08,14,303,38,07,45,313,36,23,39,193,39*70
$GPGSV,3,2,11,13,60,239,37,19,61,155,31,16,38,053,40,11,13,166,30*72
$GPGSV,3,3,11,03,72,091,31,06,47,057,37,27,57,068,47,,,,*4C
$GPGST,025339.00,,256.61,256.46,046.0,016.02,016.02,016.05*42
$GPRMC,025339.00,A,3917.26411,N,08203.79824,W,000.0,000.0,070214,07.2,W,A*0B
$PTNLRTF,V,A,442435,11,3,3917.26411,N,08203.79824,W,00292,+000.000,+000.000,+000.000,0,1*5F
$PTNLRBA,1,1*57
$GPZDA,025340.00,07,02,2014,,*64
$GPGGA,025340.00,3917.26412,N,08203.79822,W,1,10,0.94,00292,M,-033,M,,*56
$GPGLL,3917.26412,N,08203.79822,W,025340.00,A,A*7B
$GPVTG,000.0,T,007.2,M,000.0,N,000.0,K,A*26
$GPGSA,A,3,08,07,23,13,19,16,11,03,06,27,,,1.69,0.94,1.41*06
$GPGSV,3,1,11,09,08,305,24,08,14,303,38,07,45,313,36,23,39,193,39*74
$GPGSV,3,2,11,13,60,239,38,19,61,155,31,16,38,053,40,11,13,166,30*7D
$GPGSV,3,3,11,03,72,091,32,06,47,057,38,27,57,068,48,,,,*4F
$GPGST,025340.00,,238.64,238.49,046.0,015.45,015.45,015.48*4C
$GPRMC,025340.00,A,3917.26412,N,08203.79822,W,000.0,000.0,070214,07.2,W,A*00
$PTNLRTF,V,A,442436,10,3,3917.26412,N,08203.79822,W,00292,+000.000,+000.000,+000.000,0,1*58
$PTNLRBA,1,1*57
$GPZDA,025342.00,07,02,2014,,*66
$GPGGA,025342.00,3917.26415,N,08203.79825,W,1,11,0.90,00292,M,-033,M,,*51
$GPGLL,3917.26415,N,08203.79825,W,025342.00,A,A*79
$GPVTG,000.0,T,007.2,M,000.0,N,000.0,K,A*26
$GPGSA,A,3,09,08,07,23,13,19,16,11,03,06,27,,1.56,0.90,1.27*07
$GPGSV,3,1,11,09,08,306,24,08,14,304,38,07,45,313,35,23,39,193,39*73
$GPGSV,3,2,11,13,60,239,39,19,61,154,32,16,38,053,40,11,14,166,31*78
$GPGSV,3,3,11,03,72,090,28,06,47,057,38,27,57,067,48,,,,*4A
$GPGST,025342.00,,214.21,214.06,046.0,014.63,014.63,014.67*48
$GPRMC,025342.00,A,3917.26415,N,08203.79825,W,000.0,000.0,070214,07.2,W,A*02
$PTNLRTF,V,A,442438,11,3,3917.26415,N,08203.79825,W,00292,+000.000,+000.000,+000.000,0,1*57
$PTNLRBA,1,1*57
