$GPZDA,,,,,,*48
$GPGGA,,3917.26428,N,08203.79550,W,7,00,,,,,,,*49
$GPGLL,3917.26428,N,08203.79550,W,,V,M*4F
$GPVTG,,,,,,,,,M*33
$GPGSA,A,1,,,,,,,,,,,,,,,*1E
$GPGSV,1,1,01,29,,000,50,,,,,,,,,,,,*46
$GPRMC,,V,3917.26428,N,08203.79550,W,,,,,,M*78
$PTNLRTF,V,V,,00,0,,,,,,,,,,*5A
$PTNLRBA,1,1*57
$GPZDA,,,,,,*48
$GPGGA,,3917.26428,N,08203.79550,W,7,00,,,,,,,*49
$GPGLL,3917.26428,N,08203.79550,W,,V,M*4F
$GPVTG,,,,,,,,,M*33
$GPGSA,A,1,,,,,,,,,,,,,,,*1E
$GPGSV,1,1,02,29,,000,51,26,,000,49,,,,,,,,*7D
$GPRMC,,V,3917.26428,N,08203.79550,W,,,,,,M*78
$PTNLRTF,V,V,,00,0,,,,,,,,,,*5A
$PTNLRBA,1,1*57
$GPZDA,,,,,,*48
$GPGGA,,3917.26428,N,08203.79550,W,7,00,,,,,,,*49
$GPGLL,3917.26428,N,08203.79550,W,,V,M*4F
$GPVTG,,,,,,,,,M*33
$GPGSA,A,1,,,,,,,,,,,,,,,*1E
$GPGSV,2,1,05,29,,000,51,26,,000,51,05,,000,48,21,,000,42*7C
$GPGSV,2,2,05,02,,000,39,,,,,,,,,,,,*44
$GPRMC,,V,3917.26428,N,08203.79550,W,,,,,,M*78
$PTNLRTF,V,V,,00,0,,,,,,,,,,*5A
$PTNLRBA,1,1*57
$GPZDA,,,,,,*48
$GPGGA,,3917.26428,N,08203.79550,W,7,00,,,,,,,*49
$GPGLL,3917.26428,N,08203.79550,W,,V,M*4F
$GPVTG,,,,,,,,,M*33
$GPGSA,A,1,,,,,,,,,,,,,,,*1E
$GPGSV,2,1,07,29,,000,52,26,,000,51,05,,000,49,21,,000,42*7C
$GPGSV,2,2,07,02,,000,39,15,,000,46,18,,000,35,,,,*4F
$GPRMC,,V,3917.26428,N,08203.79550,W,,,,,,M*78
$PTNLRTF,V,V,,00,0,,,,,,,,,,*5A
$PTNLRBA,1,1*57
$GPZDA,,,,,,*48
$GPGGA,,3917.26428,N,08203.79550,W,7,00,,,,,,,*49
$GPGLL,3917.26428,N,08203.79550,W,,V,M*4F
$GPVTG,,,,,,,,,M*33
$GPGSA,A,1,,,,,,,,,,,,,,,*1E
$GPGSV,2,1,07,29,,000,51,26,,000,51,05,,000,49,21,,000,42*7F
$GPGSV,2,2,07,02,,000,39,15,,000,48,18,,000,36,,,,*42
$GPRMC,,V,3917.26428,N,08203.79550,W,,,,,,M*78
$PTNLRTF,V,V,588230,00,0,,,,,,,,,,*5E
$PTNLRBA,1,1*57
$GPZDA,,,,,,*48
$GPGGA,,3917.26428,N,08203.79550,W,7,00,,,,,,,*49
$GPGLL,3917.26428,N,08203.79550,W,,V,M*4F
$GPVTG,,,,,,,,,M*33
$GPGSA,A,1,,,,,,,,,,,,,,,*1E
$GPGSV,2,1,07,29,,000,51,26,,000,51,05,,000,48,21,,000,42*7E
$GPGSV,2,2,07,02,,000,38,15,27,183,48,18,,000,36,,,,*4C
$GPRMC,,V,3917.26428,N,08203.79550,W,,,,,,M*78
$PTNLRTF,V,V,588231,00,0,,,,,,,,,,*5F
$PTNLRBA,1,1*57
$GPZDA,,,,,,*48
$GPGGA,,3917.26428,N,08203.79550,W,7,00,,,,,,,*49
$GPGLL,3917.26428,N,08203.79550,W,,V,M*4F
$GPVTG,,,,,,,,,M*33
$GPGSA,A,1,,,,,,,,,,,,,,,*1E
$GPGSV,2,1,07,29,,000,51,26,,000,51,05,,000,49,21,,000,42*7F
$GPGSV,2,2,07,02,,000,38,15,27,183,48,18,,000,36,,,,*4C
$GPRMC,,V,3917.26428,N,08203.79550,W,,,,,,M*78
$PTNLRTF,V,V,588232,00,0,,,,,,,,,,*5C
$PTNLRBA,1,1*57
$GPZDA,,,,,,*48
$GPGGA,,3917.26428,N,08203.79550,W,7,00,,,,,,,*49
$GPGLL,3917.26428,N,08203.79550,W,,V,M*4F
$GPVTG,,,,,,,,,M*33
$GPGSA,A,1,,,,,,,,,,,,,,,*1E
$GPGSV,2,1,07,29,,000,51,26,,000,51,05,,000,49,21,,000,41*7C
$GPGSV,2,2,07,02,,000,38,15,27,183,48,18,,000,35,,,,*4F
$GPRMC,,V,3917.26428,N,08203.79550,W,,,,,,M*78
$PTNLRTF,V,V,588234,00,0,,,,,,,,,,*5A
$PTNLRBA,1,1*57
$GPZDA,,,,,,*48
$GPGGA,,3917.26428,N,08203.79550,W,7,00,,,,,,,*49
$GPGLL,3917.26428,N,08203.79550,W,,V,M*4F
$GPVTG,,,,,,,,,M*33
$GPGSA,A,1,,,,,,,,,,,,,,,*1E
$GPGSV,2,1,07,29,,000,51,26,,000,51,05,,000,49,21,,000,41*7C
$GPGSV,2,2,07,02,,000,37,15,27,183,48,18,,000,36,,,,*43
$GPRMC,,V,3917.26428,N,08203.79550,W,,,,,,M*78
$PTNLRTF,V,V,588235,00,0,,,,,,,,,,*5B
$PTNLRBA,1,1*57
$GPZDA,,,,,,*48
$GPGGA,,3917.26428,N,08203.79550,W,7,00,,,,,,,*49
$GPGLL,3917.26428,N,08203.79550,W,,V,M*4F
$GPVTG,,,,,,,,,M*33
$GPGSA,A,1,,,,,,,,,,,,,,,*1E
$GPGSV,2,1,07,29,,000,51,26,,000,51,05,,000,49,21,,000,42*7F
$GPGSV,2,2,07,02,,000,38,15,27,183,48,18,,000,36,,,,*4C
$GPRMC,,V,3917.26428,N,08203.79550,W,,,,,,M*78
$PTNLRTF,V,V,588236,00,0,,,,,,,,,,*58
$PTNLRBA,1,1*57
$GPZDA,,,,,,*48
$GPGGA,,3917.26428,N,08203.79550,W,7,00,,,,,,,*49
$GPGLL,3917.26428,N,08203.79550,W,,V,M*4F
$GPVTG,,,,,,,,,M*33
$GPGSA,A,1,,,,,,,,,,,,,,,*1E
$GPGSV,2,1,07,29,,000,51,26,,000,51,05,,000,50,21,,000,43*76
$GPGSV,2,2,07,02,,000,38,15,27,183,47,18,,000,36,,,,*43
$GPRMC,,V,3917.26428,N,08203.79550,W,,,,,,M*78
$PTNLRTF,V,V,588237,00,0,,,,,,,,,,*59
$PTNLRBA,1,1*57
$GPZDA,,,,,,*48
$GPGGA,,3917.26428,N,08203.79550,W,7,00,,,,,,,*49
$GPGLL,3917.26428,N,08203.79550,W,,V,M*4F
$GPVTG,,,,,,,,,M*33
$GPGSA,A,1,,,,,,,,,,,,,,,*1E
$GPGSV,2,1,07,29,,000,51,26,,000,51,05,,000,49,21,,000,43*7E
$GPGSV,2,2,07,02,,000,39,15,27,183,47,18,,000,36,,,,*42
$GPRMC,,V,3917.26428,N,08203.79550,W,,,,,,M*78
$PTNLRTF,V,V,588238,00,0,,,,,,,,,,*56
$PTNLRBA,1,1*57
$GPZDA,,,,,,*48
$GPGGA,,3917.26428,N,08203.79550,W,7,00,,,,,,,*49
$GPGLL,3917.26428,N,08203.79550,W,,V,M*4F
$GPVTG,,,,,,,,,M*33
$GPGSA,A,1,,,,,,,,,,,,,,,*1E
$GPGSV,2,1,07,29,,000,51,26,,000,50,05,,000,49,21,,000,42*7E
$GPGSV,2,2,07,02,,000,39,15,27,183,48,18,,000,36,,,,*4D
$GPRMC,,V,3917.26428,N,08203.79550,W,,,,,,M*78
$PTNLRTF,V,V,588239,00,0,,,,,,,,,,*57
$PTNLRBA,1,1*57
$GPZDA,,,,,,*48
$GPGGA,,3917.26428,N,08203.79550,W,7,00,,,,,,,*49
$GPGLL,3917.26428,N,08203.79550,W,,V,M*4F
$GPVTG,,,,,,,,,M*33
$GPGSA,A,1,,,,,,,,,,,,,,,*1E
$GPGSV,2,1,07,29,,000,51,26,,000,51,05,,000,49,21,,000,43*7E
$GPGSV,2,2,07,02,,000,39,15,27,183,47,18,,000,36,,,,*42
$GPRMC,,V,3917.26428,N,08203.79550,W,,,,,,M*78
$PTNLRTF,V,V,588240,00,0,,,,,,,,,,*59
$PTNLRBA,1,1*57
$GPZDA,,,,,,*48
$GPGGA,,3917.26428,N,08203.79550,W,7,00,,,,,,,*49
$GPGLL,3917.26428,N,08203.79550,W,,V,M*4F
$GPVTG,,,,,,,,,M*33
$GPGSA,A,1,,,,,,,,,,,,,,,*1E
$GPGSV,2,1,08,29,,000,51,26,,000,51,05,,000,49,21,,000,43*71
$GPGSV,2,2,08,02,,000,39,15,27,183,48,18,,000,36,03,,000,30*72
$GPRMC,,V,3917.26428,N,08203.79550,W,,,,,,M*78
$PTNLRTF,V,V,588241,00,0,,,,,,,,,,*58
$PTNLRBA,1,1*57
$GPZDA,,,,,,*48
$GPGGA,,3917.26428,N,08203.79550,W,7,00,,,,,,,*49
$GPGLL,3917.26428,N,08203.79550,W,,V,M*4F
$GPVTG,,,,,,,,,M*33
$GPGSA,A,1,,,,,,,,,,,,,,,*1E
$GPGSV,2,1,08,29,,000,51,26,,000,51,05,,000,50,21,,000,42*78
$GPGSV,2,2,08,02,,000,39,15,27,183,47,18,,000,36,03,,000,28*74
$GPRMC,,V,3917.26428,N,08203.79550,W,,,,,,M*78
$PTNLRTF,V,V,588242,00,0,,,,,,,,,,*5B
$PTNLRBA,1,1*57
$GPZDA,,,,,,*48
$GPGGA,,3917.26428,N,08203.79550,W,7,00,,,,,,,*49
$GPGLL,3917.26428,N,08203.79550,W,,V,M*4F
$GPVTG,,,,,,,,,M*33
$GPGSA,A,1,,,,,,,,,,,,,,,*1E
$GPGSV,2,1,08,29,,000,51,26,,000,50,05,,000,49,21,,000,42*71
$GPGSV,2,2,08,02,,000,39,15,27,183,48,18,,000,35,03,,000,30*71
$GPRMC,,V,3917.26428,N,08203.79550,W,,,,,,M*78
$PTNLRTF,V,V,588243,00,0,,,,,,,,,,*5A
$PTNLRBA,1,1*57
$GPZDA,,,,,,*48
$GPGGA,,3917.26428,N,08203.79550,W,7,00,,,,,,,*49
$GPGLL,3917.26428,N,08203.79550,W,,V,M*4F
$GPVTG,,,,,,,,,M*33
$GPGSA,A,1,,,,,,,,,,,,,,,*1E
$GPGSV,2,1,08,29,,000,51,26,,000,51,05,,000,49,21,,000,42*70
$GPGSV,2,2,08,02,,000,39,15,27,183,48,18,,000,35,03,,000,30*71
$GPRMC,,V,3917.26428,N,08203.79550,W,,,,,,M*78
$PTNLRTF,V,V,588244,00,0,,,,,,,,,,*5D
$PTNLRBA,1,1*57
$GPZDA,,,,,,*48
$GPGGA,,3917.26428,N,08203.79550,W,7,00,,,,,,,*49
$GPGLL,3917.26428,N,08203.79550,W,,V,M*4F
$GPVTG,,,,,,,,,M*33
$GPGSA,A,1,,,,,,,,,,,,,,,*1E
$GPGSV,2,1,08,29,,000,51,26,,000,51,05,,000,49,21,,000,42*70
$GPGSV,2,2,08,02,,000,38,15,27,183,47,18,,000,35,03,,000,30*7F
$GPRMC,,V,3917.26428,N,08203.79550,W,,,,,,M*78
$PTNLRTF,V,V,588245,00,0,,,,,,,,,,*5C
$PTNLRBA,1,1*57
$GPZDA,,,,,,*48
$GPGGA,,3917.26428,N,08203.79550,W,7,00,,,,,,,*49
$GPGLL,3917.26428,N,08203.79550,W,,V,M*4F
$GPVTG,,,,,,,,,M*33
$GPGSA,A,1,,,,,,,,,,,,,,,*1E
$GPGSV,2,1,08,29,,000,51,26,,000,51,05,,000,50,21,,000,43*79
$GPGSV,2,2,08,02,,000,39,15,27,183,47,18,,000,36,03,,000,30*7D
$GPRMC,192406.00,V,3917.26428,N,08203.79550,W,,,,,,M*5E
$PTNLRTF,V,V,588246,00,0,,,,,,,,,,*5F
$PTNLRBA,1,1*57
$GPZDA,192407.00,23,11,2013,,*6E
$GPGGA,,3917.26428,N,08203.79550,W,7,00,,,,,,,*49
$GPGLL,3917.26428,N,08203.79550,W,,V,M*4F
$GPVTG,,,,,,,,,M*33
$GPGSA,A,1,,,,,,,,,,,,,,,*1E
$GPGSV,2,1,08,29,,000,52,26,,000,51,05,,000,50,21,,000,43*7A
$GPGSV,2,2,08,02,,000,39,15,27,183,47,18,,000,36,03,,000,29*75
$GPRMC,192407.00,V,3917.26428,N,08203.79550,W,,,,,,M*5F
$PTNLRTF,V,V,588247,00,0,,,,,,,,,,*5E
$PTNLRBA,1,1*57
$GPZDA,192408.00,23,11,2013,,*61
$GPGGA,,3917.26428,N,08203.79550,W,7,00,,,,,,,*49
$GPGLL,3917.26428,N,08203.79550,W,,V,M*4F
$GPVTG,,,,,,,,,M*33
$GPGSA,A,1,,,,,,,,,,,,,,,*1E
$GPGSV,2,1,08,29,,000,51,26,,000,50,05,,000,50,21,,000,42*79
$GPGSV,2,2,08,02,,000,39,15,27,183,48,18,,000,36,03,,000,29*7A
$GPRMC,192408.00,V,3917.26428,N,08203.79550,W,,,,,,M*50
$PTNLRTF,V,V,588248,00,0,,,,,,,,,,*51
$PTNLRBA,1,1*57
$GPZDA,192409.00,23,11,2013,,*60
$GPGGA,,3917.26428,N,08203.79550,W,7,00,,,,,,,*49
$GPGLL,3917.26428,N,08203.79550,W,,V,M*4F
$GPVTG,,,,,,,,,M*33
$GPGSA,A,1,,,,,,,,,,,,,,,*1E
$GPGSV,2,1,08,29,,000,51,26,,000,49,05,,000,49,21,,000,42*79
$GPGSV,2,2,08,02,,000,40,15,27,183,47,18,,000,36,03,,000,30*73
$GPRMC,192409.00,V,3917.26428,N,08203.79550,W,,,,,,M*51
$PTNLRTF,V,V,588249,00,0,,,,,,,,,,*50
$PTNLRBA,1,1*57
$GPZDA,192410.00,23,11,2013,,*68
$GPGGA,,3917.26428,N,08203.79550,W,7,00,,,,,,,*49
$GPGLL,3917.26428,N,08203.79550,W,,V,M*4F
$GPVTG,,,,,,,,,M*33
$GPGSA,A,1,,,,,,,,,,,,,,,*1E
$GPGSV,2,1,08,29,,000,51,26,,000,50,05,,000,50,21,,000,43*78
$GPGSV,2,2,08,02,,000,40,15,27,183,47,18,,000,36,03,,000,29*7B
$GPRMC,192410.00,V,3917.26428,N,08203.79550,W,,,,,,M*59
$PTNLRTF,V,V,588250,00,0,,,,,,,,,,*58
$PTNLRBA,1,1*57
$GPZDA,192411.00,23,11,2013,,*69
$GPGGA,,3917.26428,N,08203.79550,W,7,00,,,,,,,*49
$GPGLL,3917.26428,N,08203.79550,W,,V,M*4F
$GPVTG,,,,,,,,,M*33
$GPGSA,A,1,,,,,,,,,,,,,,,*1E
$GPGSV,2,1,08,29,,000,51,26,,000,50,05,,000,49,21,,000,42*71
$GPGSV,2,2,08,02,,000,39,15,27,183,47,18,,000,36,03,,000,30*7D
$GPRMC,192411.00,V,3917.26428,N,08203.79550,W,,,,,,M*58
$PTNLRTF,V,V,588251,00,0,,,,,,,,,,*59
$PTNLRBA,1,1*57
$GPZDA,192412.00,23,11,2013,,*6A
$GPGGA,,3917.26428,N,08203.79550,W,7,00,,,,,,,*49
$GPGLL,3917.26428,N,08203.79550,W,,V,M*4F
$GPVTG,,,,,,,,,M*33
$GPGSA,A,1,,,,,,,,,,,,,,,*1E
$GPGSV,2,1,08,29,,000,51,26,,000,50,05,,000,49,21,,000,42*71
$GPGSV,2,2,08,02,,000,39,15,27,183,48,18,,000,36,03,,000,28*7B
$GPRMC,192412.00,V,3917.26428,N,08203.79550,W,,,,,,M*5B
$PTNLRTF,V,V,588252,00,0,,,,,,,,,,*5A
$PTNLRBA,1,1*57
$GPZDA,192413.00,23,11,2013,,*6B
$GPGGA,,3917.26428,N,08203.79550,W,7,00,,,,,,,*49
$GPGLL,3917.26428,N,08203.79550,W,,V,M*4F
$GPVTG,,,,,,,,,M*33
$GPGSA,A,1,,,,,,,,,,,,,,,*1E
$GPGSV,2,1,08,29,,000,51,26,,000,50,05,,000,50,21,,000,42*79
$GPGSV,2,2,08,02,,000,39,15,27,183,48,18,,000,36,03,,000,29*7A
$GPRMC,192413.00,V,3917.26428,N,08203.79550,W,,,,,,M*5A
$PTNLRTF,V,V,588253,00,0,,,,,,,,,,*5B
$PTNLRBA,1,1*57
$GPZDA,192414.00,23,11,2013,,*6C
$GPGGA,,3917.26428,N,08203.79550,W,7,00,,,,,,,*49
$GPGLL,3917.26428,N,08203.79550,W,,V,M*4F
$GPVTG,,,,,,,,,M*33
$GPGSA,A,1,,,,,,,,,,,,,,,*1E
$GPGSV,2,1,08,29,,000,51,26,,000,51,05,,000,49,21,,000,43*71
$GPGSV,2,2,08,02,,000,39,15,27,183,48,18,,000,35,03,,000,29*79
$GPRMC,192414.00,V,3917.26428,N,08203.79550,W,,,,,,M*5D
$PTNLRTF,V,V,588254,00,0,,,,,,,,,,*5C
$PTNLRBA,1,1*57
$GPZDA,192415.00,23,11,2013,,*6D
$GPGGA,,3917.26428,N,08203.79550,W,7,00,,,,,,,*49
$GPGLL,3917.26428,N,08203.79550,W,,V,M*4F
$GPVTG,,,,,,,,,M*33
$GPGSA,A,1,,,,,,,,,,,,,,,*1E
$GPGSV,2,1,08,29,,000,51,26,,000,50,05,,000,49,21,,000,42*71
$GPGSV,2,2,08,02,,000,39,15,27,183,47,18,,000,36,03,,000,29*75
$GPRMC,192415.00,V,3917.26428,N,08203.79550,W,,,,,,M*5C
$PTNLRTF,V,V,588255,00,0,,,,,,,,,,*5D
$PTNLRBA,1,1*57
$GPZDA,192416.00,23,11,2013,,*6E
$GPGGA,,3917.26428,N,08203.79550,W,7,00,,,,,,,*49
$GPGLL,3917.26428,N,08203.79550,W,,V,M*4F
$GPVTG,,,,,,,,,M*33
$GPGSA,A,1,,,,,,,,,,,,,,,*1E
$GPGSV,2,1,08,29,,000,51,26,,000,51,05,,000,49,21,,000,42*70
$GPGSV,2,2,08,02,,000,39,15,27,183,47,18,,000,36,03,,000,29*75
$GPRMC,192416.00,V,3917.26428,N,08203.79550,W,,,,,,M*5F
$PTNLRTF,V,V,588256,00,0,,,,,,,,,,*5E
$PTNLRBA,1,1*57
$GPZDA,192417.00,23,11,2013,,*6F
$GPGGA,,3917.26428,N,08203.79550,W,7,00,,,,,,,*49
$GPGLL,3917.26428,N,08203.79550,W,,V,M*4F
$GPVTG,,,,,,,,,M*33
$GPGSA,A,1,,,,,,,,,,,,,,,*1E
$GPGSV,2,1,08,29,,000,51,26,,000,50,05,,000,49,21,,000,41*72
$GPGSV,2,2,08,02,,000,39,15,27,183,47,18,,000,36,03,,000,29*75
$GPRMC,192417.00,V,3917.26428,N,08203.79550,W,,,,,,M*5E
$PTNLRTF,V,V,588257,00,0,,,,,,,,,,*5F
$PTNLRBA,1,1*57
$GPZDA,192418.00,23,11,2013,,*60
$GPGGA,,3917.26428,N,08203.79550,W,7,00,,,,,,,*49
$GPGLL,3917.26428,N,08203.79550,W,,V,M*4F
$GPVTG,,,,,,,,,M*33
$GPGSA,A,1,,,,,,,,,,,,,,,*1E
$GPGSV,2,1,08,29,,000,51,26,,000,50,05,,000,49,21,,000,42*71
$GPGSV,2,2,08,02,,000,39,15,27,183,48,18,,000,36,03,,000,29*7A
$GPRMC,192418.00,V,3917.26428,N,08203.79550,W,,,,,,M*51
$PTNLRTF,V,V,588258,00,0,,,,,,,,,,*50
$PTNLRBA,1,1*57
$GPZDA,192419.00,23,11,2013,,*61
$GPGGA,192419.00,3917.25889,N,08203.80530,W,1,07,1.19,00297,M,-033,M,,*52
$GPGLL,3917.25889,N,08203.80530,W,192419.00,A,A*78
$GPVTG,142.4,T,149.6,M,000.2,N,000.3,K,A*2B
$GPGSA,A,3,29,26,05,21,02,15,18,,,,,,2.21,1.19,1.86*03
$GPGSV,2,1,08,29,65,251,50,26,57,119,50,05,52,047,49,21,23,301,42*79
$GPGSV,2,2,08,02,31,106,39,15,41,181,48,18,12,250,35,03,,000,28*7B
$GPGST,192419.00,,043.00,026.41,073.0,006.45,005.27,014.06*49
$GPRMC,192419.00,A,3917.25889,N,08203.80530,W,000.2,142.4,231113,07.2,W,A*01
$PTNLRTF,V,V,588259,07,3,3917.25889,N,08203.80530,W,00297,+000.054,-000.070,+000.070,0,0*47
$PTNLRBA,1,1*57
$GPZDA,192420.00,23,11,2013,,*6B
$GPGGA,192420.00,3917.25940,N,08203.80559,W,1,07,1.19,00297,M,-033,M,,*53
$GPGLL,3917.25940,N,08203.80559,W,192420.00,A,A*79
$GPVTG,000.0,T,007.2,M,000.0,N,000.0,K,A*26
$GPGSA,A,3,29,26,05,21,02,15,18,,,,,,2.21,1.19,1.86*03
$GPGSV,2,1,08,29,65,251,51,26,57,119,50,05,52,047,49,21,23,301,43*79
$GPGSV,2,2,08,02,31,106,39,15,41,181,48,18,12,250,35,03,,000,29*7A
$GPGST,192420.00,,024.16,015.77,075.2,004.86,004.04,010.07*4C
$GPRMC,192420.00,A,3917.25940,N,08203.80559,W,000.0,000.0,231113,07.2,W,A*01
$PTNLRTF,V,V,588260,07,3,3917.25940,N,08203.80559,W,00297,+000.000,+000.000,+000.000,0,0*41
$PTNLRBA,1,1*57
$GPZDA,192421.00,23,11,2013,,*6A
$GPGGA,192421.00,3917.25972,N,08203.80541,W,1,07,1.19,00298,M,-033,M,,*55
$GPGLL,3917.25972,N,08203.80541,W,192421.00,A,A*70
$GPVTG,000.0,T,007.2,M,000.0,N,000.0,K,A*26
$GPGSA,A,3,29,26,05,21,02,15,18,,,,,,2.21,1.19,1.86*03
$GPGSV,2,1,08,29,65,251,51,26,57,119,51,05,52,047,49,21,23,301,43*78
$GPGSV,2,2,08,02,31,106,39,15,41,181,48,18,12,250,36,03,,000,28*78
$GPGST,192421.00,,017.57,011.85,075.0,004.15,003.50,008.30*42
$GPRMC,192421.00,A,3917.25972,N,08203.80541,W,000.0,000.0,231113,07.2,W,A*08
$PTNLRTF,V,V,588261,07,3,3917.25972,N,08203.80541,W,00298,+000.000,+000.000,+000.000,0,0*47
$PTNLRBA,1,1*57
$GPZDA,192422.00,23,11,2013,,*69
$GPGGA,192422.00,3917.25978,N,08203.80540,W,1,07,1.19,00296,M,-033,M,,*53
$GPGLL,3917.25978,N,08203.80540,W,192422.00,A,A*78
$GPVTG,000.0,T,007.2,M,000.0,N,000.0,K,A*26
$GPGSA,A,3,29,26,05,21,02,15,18,,,,,,2.21,1.19,1.86*03
$GPGSV,2,1,08,29,65,251,51,26,57,119,51,05,52,047,49,21,23,301,42*79
$GPGSV,2,2,08,02,31,106,38,15,41,181,47,18,12,250,36,03,,000,29*77
$GPGST,192422.00,,013.81,009.65,075.8,003.68,003.15,007.17*47
$GPRMC,192422.00,A,3917.25978,N,08203.80540,W,000.0,000.0,231113,07.2,W,A*00
$PTNLRTF,V,V,588262,07,3,3917.25978,N,08203.80540,W,00296,+000.000,+000.000,+000.000,0,0*41
$PTNLRBA,1,1*57
$GPZDA,192423.00,23,11,2013,,*68
$GPGGA,192423.00,3917.25997,N,08203.80561,W,1,07,1.19,00298,M,-033,M,,*5E
$GPGLL,3917.25997,N,08203.80561,W,192423.00,A,A*7B
$GPVTG,000.0,T,007.2,M,000.0,N,000.0,K,A*26
$GPGSA,A,3,29,26,05,21,02,15,18,,,,,,2.21,1.19,1.86*03
$GPGSV,2,1,08,29,65,251,51,26,57,119,51,05,52,047,49,21,23,301,43*78
$GPGSV,2,2,08,02,31,106,39,15,41,181,48,18,12,250,36,03,,000,29*79
$GPGST,192423.00,,012.05,008.72,075.9,003.44,002.99,006.55*41
$GPRMC,192423.00,A,3917.25997,N,08203.80561,W,000.0,000.0,231113,07.2,W,A*03
$PTNLRTF,V,V,588263,07,3,3917.25997,N,08203.80561,W,00298,+000.000,+000.000,+000.000,0,0*4C
$PTNLRBA,1,1*57
$GPZDA,192424.00,23,11,2013,,*6F
$GPGGA,192424.00,3917.26018,N,08203.80566,W,1,07,1.19,00298,M,-033,M,,*53
$GPGLL,3917.26018,N,08203.80566,W,192424.00,A,A*76
$GPVTG,000.0,T,007.2,M,000.0,N,000.0,K,A*26
$GPGSA,A,3,29,26,05,21,02,15,18,,,,,,2.21,1.19,1.86*03
$GPGSV,2,1,08,29,65,251,51,26,57,119,50,05,52,047,49,21,23,301,42*78
$GPGSV,2,2,08,02,31,106,38,15,41,181,48,18,12,250,35,03,,000,28*7A
$GPGST,192424.00,,010.77,007.97,076.1,003.26,002.85,006.05*42
$GPRMC,192424.00,A,3917.26018,N,08203.80566,W,000.0,000.0,231113,07.2,W,A*0E
$PTNLRTF,V,V,588264,07,3,3917.26018,N,08203.80566,W,00298,+000.000,+000.000,+000.000,0,0*41
$PTNLRBA,1,1*57
$GPZDA,192425.00,23,11,2013,,*6E
$GPGGA,192425.00,3917.26020,N,08203.80553,W,1,07,1.19,00298,M,-033,M,,*5F
$GPGLL,3917.26020,N,08203.80553,W,192425.00,A,A*7A
$GPVTG,000.0,T,007.2,M,000.0,N,000.0,K,A*26
$GPGSA,A,3,29,26,05,21,02,15,18,,,,,,2.21,1.19,1.86*03
$GPGSV,2,1,08,29,65,251,51,26,58,119,51,05,52,047,49,21,23,301,41*75
$GPGSV,2,2,08,02,31,106,39,15,41,181,48,18,12,250,35,03,,000,29*7A
$GPGST,192425.00,,009.78,007.37,076.0,003.10,002.74,005.66*42
$GPRMC,192425.00,A,3917.26020,N,08203.80553,W,000.0,000.0,231113,07.2,W,A*02
$PTNLRTF,V,V,588265,07,3,3917.26020,N,08203.80553,W,00298,+000.000,+000.000,+000.000,0,0*4D
$PTNLRBA,1,1*57
$GPZDA,192426.00,23,11,2013,,*6D
$GPGGA,192426.00,3917.26026,N,08203.80552,W,1,07,1.19,00298,M,-033,M,,*5B
$GPGLL,3917.26026,N,08203.80552,W,192426.00,A,A*7E
$GPVTG,000.0,T,007.2,M,000.0,N,000.0,K,A*26
$GPGSA,A,3,29,26,05,21,02,15,18,,,,,,2.21,1.19,1.86*03
$GPGSV,2,1,08,29,65,251,51,26,58,119,51,05,52,047,49,21,23,301,42*76
$GPGSV,2,2,08,02,31,106,40,15,41,181,48,18,12,250,35,03,,000,29*74
$GPGST,192426.00,,008.81,006.70,075.9,002.95,002.61,005.32*47
$GPRMC,192426.00,A,3917.26026,N,08203.80552,W,000.0,000.0,231113,07.2,W,A*06
$PTNLRTF,V,V,588266,07,3,3917.26026,N,08203.80552,W,00298,+000.000,+000.000,+000.000,0,0*49
$PTNLRBA,1,1*57
$GPZDA,192427.00,23,11,2013,,*6C
$GPGGA,192427.00,3917.26030,N,08203.80553,W,1,07,1.19,00299,M,-033,M,,*5D
$GPGLL,3917.26030,N,08203.80553,W,192427.00,A,A*79
$GPVTG,000.0,T,007.2,M,000.0,N,000.0,K,A*26
$GPGSA,A,3,29,26,05,21,02,15,18,,,,,,2.21,1.19,1.86*03
$GPGSV,2,1,08,29,65,251,51,26,58,119,51,05,52,047,49,21,23,301,41*75
$GPGSV,2,2,08,02,31,106,40,15,41,181,48,18,12,250,35,03,,000,29*74
$GPGST,192427.00,,008.15,006.27,075.9,002.84,002.53,005.06*4F
$GPRMC,192427.00,A,3917.26030,N,08203.80553,W,000.0,000.0,231113,07.2,W,A*01
$PTNLRTF,V,V,588267,07,3,3917.26030,N,08203.80553,W,00299,+000.000,+000.000,+000.000,0,0*4F
$PTNLRBA,1,1*57
$GPZDA,192428.00,23,11,2013,,*63
$GPGGA,192428.00,3917.26034,N,08203.80563,W,1,07,1.19,00299,M,-033,M,,*55
$GPGLL,3917.26034,N,08203.80563,W,192428.00,A,A*71
$GPVTG,000.0,T,007.2,M,000.0,N,000.0,K,A*26
$GPGSA,A,3,29,26,05,21,02,15,18,,,,,,2.21,1.19,1.86*03
$GPGSV,2,1,08,29,65,251,51,26,58,119,51,05,52,047,49,21,23,301,42*76
$GPGSV,2,2,08,02,31,106,40,15,41,181,48,18,12,250,35,03,,000,28*75
$GPGST,192428.00,,007.54,005.84,075.9,002.73,002.44,004.82*43
$GPRMC,192428.00,A,3917.26034,N,08203.80563,W,000.0,000.0,231113,07.2,W,A*09
$PTNLRTF,V,V,588268,07,3,3917.26034,N,08203.80563,W,00299,+000.000,+000.000,+000.000,0,0*47
$PTNLRBA,1,1*57
$GPZDA,192429.00,23,11,2013,,*62
$GPGGA,192429.00,3917.26042,N,08203.80557,W,1,07,1.19,00299,M,-033,M,,*52
$GPGLL,3917.26042,N,08203.80557,W,192429.00,A,A*76
$GPVTG,000.0,T,007.2,M,000.0,N,000.0,K,A*26
$GPGSA,A,3,29,26,05,21,02,15,18,,,,,,2.21,1.19,1.86*03
$GPGSV,2,1,08,29,65,251,51,26,58,119,51,05,52,047,49,21,23,301,42*76
$GPGSV,2,2,08,02,31,106,40,15,41,181,48,18,12,250,36,03,,000,30*7F
$GPGST,192429.00,,007.11,005.56,075.8,002.65,002.38,004.63*4E
$GPRMC,192429.00,A,3917.26042,N,08203.80557,W,000.0,000.0,231113,07.2,W,A*0E
$PTNLRTF,V,V,588269,07,3,3917.26042,N,08203.80557,W,00299,+000.000,+000.000,+000.000,0,0*40
$PTNLRBA,1,1*57
$GPZDA,192430.00,23,11,2013,,*6A
$GPGGA,192430.00,3917.26046,N,08203.80549,W,1,07,1.19,00299,M,-033,M,,*51
$GPGLL,3917.26046,N,08203.80549,W,192430.00,A,A*75
$GPVTG,000.0,T,007.2,M,000.0,N,000.0,K,A*26
$GPGSA,A,3,29,26,05,21,02,15,18,,,,,,2.21,1.19,1.86*03
$GPGSV,2,1,08,29,65,251,51,26,58,119,51,05,52,047,49,21,23,301,42*76
$GPGSV,2,2,08,02,31,106,40,15,41,181,48,18,12,250,34,03,,000,28*74
$GPGST,192430.00,,006.90,005.48,075.6,002.61,002.36,004.48*4C
$GPRMC,192430.00,A,3917.26046,N,08203.80549,W,000.0,000.0,231113,07.2,W,A*0D
$PTNLRTF,V,V,588270,07,3,3917.26046,N,08203.80549,W,00299,+000.000,+000.000,+000.000,0,0*43
$PTNLRBA,1,1*57
$GPZDA,192431.00,23,11,2013,,*6B
$GPGGA,192431.00,3917.26047,N,08203.80535,W,1,07,1.19,00298,M,-033,M,,*5B
$GPGLL,3917.26047,N,08203.80535,W,192431.00,A,A*7E
$GPVTG,000.0,T,007.2,M,000.0,N,000.0,K,A*26
$GPGSA,A,3,29,26,05,21,02,15,18,,,,,,2.21,1.19,1.86*03
$GPGSV,2,1,08,29,65,251,51,26,58,119,51,05,52,047,49,21,23,301,42*76
$GPGSV,2,2,08,02,31,106,38,15,41,181,48,18,12,250,35,03,,000,29*7B
$GPGST,192431.00,,007.68,006.37,075.5,002.76,002.54,004.46*4F
$GPRMC,192431.00,A,3917.26047,N,08203.80535,W,000.0,000.0,231113,07.2,W,A*06
$PTNLRTF,V,V,588271,07,3,3917.26047,N,08203.80535,W,00298,+000.000,+000.000,+000.000,0,0*49
$PTNLRBA,1,1*57
$GPZDA,192432.00,23,11,2013,,*68
$GPGGA,192432.00,3917.26051,N,08203.80530,W,1,07,1.19,00299,M,-033,M,,*5B
$GPGLL,3917.26051,N,08203.80530,W,192432.00,A,A*7F
$GPVTG,000.0,T,007.2,M,000.0,N,000.0,K,A*26
$GPGSA,A,3,29,26,05,21,02,15,18,,,,,,2.21,1.19,1.86*03
$GPGSV,2,1,08,29,65,251,51,26,58,119,51,05,52,047,49,21,23,301,42*76
$GPGSV,2,2,08,02,31,106,39,15,41,181,48,18,12,250,35,03,,000,30*72
$GPGST,192432.00,,007.28,006.09,075.3,002.68,002.48,004.33*43
$GPRMC,192432.00,A,3917.26051,N,08203.80530,W,000.0,000.0,231113,07.2,W,A*07
$PTNLRTF,V,V,588272,07,3,3917.26051,N,08203.80530,W,00299,+000.000,+000.000,+000.000,0,0*49
$PTNLRBA,1,1*57
$GPZDA,192433.00,23,11,2013,,*69
$GPGGA,192433.00,3917.26044,N,08203.80525,W,1,07,1.19,00298,M,-033,M,,*5B
$GPGLL,3917.26044,N,08203.80525,W,192433.00,A,A*7E
$GPVTG,000.0,T,007.2,M,000.0,N,000.0,K,A*26
$GPGSA,A,3,29,26,05,21,02,15,18,,,,,,2.21,1.19,1.86*03
$GPGSV,2,1,08,29,65,251,51,26,58,119,51,05,52,047,49,21,23,301,42*76
$GPGSV,2,2,08,02,31,106,40,15,41,181,48,18,12,250,34,03,,000,29*75
$GPGST,192433.00,,007.13,006.01,075.2,002.66,002.47,004.22*42
$GPRMC,192433.00,A,3917.26044,N,08203.80525,W,000.0,000.0,231113,07.2,W,A*06
$PTNLRTF,V,V,588273,07,3,3917.26044,N,08203.80525,W,00298,+000.000,+000.000,+000.000,0,0*49
$PTNLRBA,1,1*57
$GPZDA,192434.00,23,11,2013,,*6E
$GPGGA,192434.00,3917.26037,N,08203.80519,W,1,07,1.19,00298,M,-033,M,,*57
$GPGLL,3917.26037,N,08203.80519,W,192434.00,A,A*72
$GPVTG,000.0,T,007.2,M,000.0,N,000.0,K,A*26
$GPGSA,A,3,29,26,05,21,02,15,18,,,,,,2.21,1.19,1.86*03
$GPGSV,2,1,08,29,65,251,51,26,58,119,51,05,52,047,49,21,23,301,42*76
$GPGSV,2,2,08,02,31,106,38,15,41,181,48,18,12,250,33,03,,000,29*7D
$GPGST,192434.00,,007.84,006.79,075.1,002.79,002.62,004.23*4F
$GPRMC,192434.00,A,3917.26037,N,08203.80519,W,000.0,000.0,231113,07.2,W,A*0A
$PTNLRTF,V,V,588274,07,3,3917.26037,N,08203.80519,W,00298,+000.000,+000.000,+000.000,0,0*45
$PTNLRBA,1,1*57
$GPZDA,192435.00,23,11,2013,,*6F
$GPGGA,192435.00,3917.26038,N,08203.80512,W,1,07,1.19,00298,M,-033,M,,*52
$GPGLL,3917.26038,N,08203.80512,W,192435.00,A,A*77
$GPVTG,000.0,T,007.2,M,000.0,N,000.0,K,A*26
$GPGSA,A,3,29,26,05,21,02,15,18,,,,,,2.21,1.19,1.86*03
$GPGSV,2,1,08,29,65,251,51,26,58,119,50,05,52,047,49,21,23,301,43*76
$GPGSV,2,2,08,02,31,106,38,15,41,181,48,18,12,250,34,03,,000,30*72
$GPGST,192435.00,,008.09,007.10,074.9,002.83,002.68,004.19*45
$GPRMC,192435.00,A,3917.26038,N,08203.80512,W,000.0,000.0,231113,07.2,W,A*0F
$PTNLRTF,V,V,588275,07,3,3917.26038,N,08203.80512,W,00298,+000.000,+000.000,+000.000,0,0*40
$PTNLRBA,1,1*57
$GPZDA,192436.00,23,11,2013,,*6C
$GPGGA,192436.00,3917.26038,N,08203.80507,W,1,07,1.19,00298,M,-033,M,,*55
$GPGLL,3917.26038,N,08203.80507,W,192436.00,A,A*70
$GPVTG,000.0,T,007.2,M,000.0,N,000.0,K,A*26
$GPGSA,A,3,29,26,05,21,02,15,18,,,,,,2.21,1.19,1.86*03
$GPGSV,2,1,08,29,65,251,51,26,58,119,50,05,52,047,48,21,23,301,42*76
$GPGSV,2,2,08,02,31,106,39,15,41,181,48,18,12,250,34,03,,000,29*7B
$GPGST,192436.00,,008.39,007.45,074.8,002.88,002.74,004.17*4C
$GPRMC,192436.00,A,3917.26038,N,08203.80507,W,000.0,000.0,231113,07.2,W,A*08
$PTNLRTF,V,V,588276,07,3,3917.26038,N,08203.80507,W,00298,+000.000,+000.000,+000.000,0,0*47
$PTNLRBA,1,1*57
$GPZDA,192437.00,23,11,2013,,*6D
$GPGGA,192437.00,3917.26038,N,08203.80498,W,1,07,1.19,00298,M,-033,M,,*53
$GPGLL,3917.26038,N,08203.80498,W,192437.00,A,A*76
$GPVTG,000.0,T,007.2,M,000.0,N,000.0,K,A*26
$GPGSA,A,3,29,26,05,21,02,15,18,,,,,,2.21,1.19,1.86*03
$GPGSV,2,1,08,29,65,251,50,26,58,119,50,05,52,047,49,21,23,301,42*76
$GPGSV,2,2,08,02,31,106,38,15,41,181,47,18,12,250,33,09,10,073,30*75
$GPGST,192437.00,,008.39,007.51,074.6,002.89,002.75,004.11*40
$GPRMC,192437.00,A,3917.26038,N,08203.80498,W,000.0,000.0,231113,07.2,W,A*0E
$PTNLRTF,V,V,588277,07,3,3917.26038,N,08203.80498,W,00298,+000.000,+000.000,+000.000,0,0*41
$PTNLRBA,1,1*57
$GPZDA,192438.00,23,11,2013,,*62
$GPGGA,192438.00,3917.26036,N,08203.80492,W,1,07,1.19,00297,M,-033,M,,*57
$GPGLL,3917.26036,N,08203.80492,W,192438.00,A,A*7D
$GPVTG,000.0,T,007.2,M,000.0,N,000.0,K,A*26
$GPGSA,A,3,29,26,05,21,02,15,18,,,,,,2.21,1.19,1.86*03
$GPGSV,3,1,09,29,65,251,51,26,58,119,50,05,52,047,49,21,23,301,42*77
$GPGSV,3,2,09,02,31,106,39,15,42,181,48,18,12,250,34,09,10,073,27*79
$GPGSV,3,3,09,06,,000,30,,,,,,,,,,,,*45
$GPGST,192438.00,,008.42,007.58,074.5,002.89,002.76,004.07*4D
$GPRMC,192438.00,A,3917.26036,N,08203.80492,W,000.0,000.0,231113,07.2,W,A*05
$PTNLRTF,V,V,588278,07,3,3917.26036,N,08203.80492,W,00297,+000.000,+000.000,+000.000,0,0*45
$PTNLRBA,1,1*57
$GPZDA,192439.00,23,11,2013,,*63
$GPGGA,192439.00,3917.26035,N,08203.80491,W,1,07,1.19,00298,M,-033,M,,*59
$GPGLL,3917.26035,N,08203.80491,W,192439.00,A,A*7C
$GPVTG,000.0,T,007.2,M,000.0,N,000.0,K,A*26
$GPGSA,A,3,29,26,05,21,02,15,18,,,,,,2.21,1.19,1.86*03
$GPGSV,3,1,10,29,65,251,50,26,58,119,51,05,52,047,49,21,23,301,42*7F
$GPGSV,3,2,10,02,31,106,38,15,42,181,48,18,12,250,34,09,10,073,27*70
$GPGSV,3,3,10,06,,000,29,07,,000,30,,,,,,,,*71
$GPGST,192439.00,,008.13,007.33,074.4,002.84,002.72,003.98*4C
$GPRMC,192439.00,A,3917.26035,N,08203.80491,W,000.0,000.0,231113,07.2,W,A*04
$PTNLRTF,V,V,588279,07,3,3917.26035,N,08203.80491,W,00298,+000.000,+000.000,+000.000,0,0*4B
$PTNLRBA,1,1*57
$GPZDA,192440.00,23,11,2013,,*6D
$GPGGA,192440.00,3917.26032,N,08203.80483,W,1,07,1.19,00297,M,-033,M,,*5C
$GPGLL,3917.26032,N,08203.80483,W,192440.00,A,A*76
$GPVTG,000.0,T,007.2,M,000.0,N,000.0,K,A*26
$GPGSA,A,3,29,26,05,21,02,15,18,,,,,,2.21,1.19,1.86*03
$GPGSV,3,1,10,29,65,251,50,26,58,119,50,05,52,047,48,21,23,301,42*7F
$GPGSV,3,2,10,02,31,106,38,15,42,181,49,18,12,250,34,09,10,073,25*73
$GPGSV,3,3,10,06,,000,29,07,,000,30,,,,,,,,*71
$GPGST,192440.00,,009.86,009.09,074.3,003.13,003.02,004.15*44
$GPRMC,192440.00,A,3917.26032,N,08203.80483,W,000.0,000.0,231113,07.2,W,A*0E
$PTNLRTF,V,V,588280,07,3,3917.26032,N,08203.80483,W,00297,+000.000,+000.000,+000.000,0,0*46
$PTNLRBA,1,1*57
$GPZDA,192441.00,23,11,2013,,*6C
$GPGGA,192441.00,3917.26030,N,08203.80479,W,1,07,1.19,00297,M,-033,M,,*5A
$GPGLL,3917.26030,N,08203.80479,W,192441.00,A,A*70
$GPVTG,000.0,T,007.2,M,000.0,N,000.0,K,A*26
$GPGSA,A,3,29,26,05,21,02,15,18,,,,,,2.21,1.19,1.86*03
$GPGSV,3,1,10,29,65,251,51,26,58,119,50,05,52,047,49,21,23,301,41*7C
$GPGSV,3,2,10,02,31,106,39,15,42,181,48,18,12,250,33,09,10,073,25*74
$GPGSV,3,3,10,06,,000,28,07,,000,30,,,,,,,,*70
$GPGST,192441.00,,010.62,009.88,074.2,003.25,003.15,004.21*4B
$GPRMC,192441.00,A,3917.26030,N,08203.80479,W,000.0,000.0,231113,07.2,W,A*08
$PTNLRTF,V,V,588281,07,3,3917.26030,N,08203.80479,W,00297,+000.000,+000.000,+000.000,0,0*40
$PTNLRBA,1,1*57
$GPZDA,192442.00,23,11,2013,,*6F
$GPGGA,192442.00,3917.26029,N,08203.80483,W,1,07,1.19,00297,M,-033,M,,*54
$GPGLL,3917.26029,N,08203.80483,W,192442.00,A,A*7E
$GPVTG,000.0,T,007.2,M,000.0,N,000.0,K,A*26
$GPGSA,A,3,29,26,05,21,02,15,18,,,,,,2.21,1.19,1.86*03
$GPGSV,3,1,10,29,65,251,50,26,58,119,52,05,52,047,49,21,23,301,42*7C
$GPGSV,3,2,10,02,31,106,38,15,42,181,48,18,12,250,33,09,10,073,25*75
$GPGSV,3,3,10,06,,000,29,07,,000,29,,,,,,,,*79
$GPGST,192442.00,,010.03,009.32,074.1,003.16,003.06,004.10*4D
$GPRMC,192442.00,A,3917.26029,N,08203.80483,W,000.0,000.0,231113,07.2,W,A*06
$PTNLRTF,V,V,588282,07,3,3917.26029,N,08203.80483,W,00297,+000.000,+000.000,+000.000,0,0*4E
$PTNLRBA,1,1*57
$GPZDA,192443.00,23,11,2013,,*6E
$GPGGA,192443.00,3917.26031,N,08203.80491,W,1,07,1.19,00297,M,-033,M,,*5F
$GPGLL,3917.26031,N,08203.80491,W,192443.00,A,A*75
$GPVTG,000.0,T,007.2,M,000.0,N,000.0,K,A*26
$GPGSA,A,3,29,26,05,21,02,15,18,,,,,,2.21,1.19,1.86*03
$GPGSV,3,1,10,29,65,251,50,26,58,119,50,05,52,047,49,21,23,301,42*7E
$GPGSV,3,2,10,02,31,106,39,15,42,181,48,18,12,250,33,09,10,073,25*74
$GPGSV,3,3,10,06,,000,28,07,,000,29,,,,,,,,*78
$GPGST,192443.00,,010.23,009.56,074.0,003.19,003.10,004.09*4D
$GPRMC,192443.00,A,3917.26031,N,08203.80491,W,000.0,000.0,231113,07.2,W,A*0D
$PTNLRTF,V,V,588283,07,3,3917.26031,N,08203.80491,W,00297,+000.000,+000.000,+000.000,0,0*45
$PTNLRBA,1,1*57
$GPZDA,192444.00,23,11,2013,,*69
$GPGGA,192444.00,3917.26032,N,08203.80497,W,1,07,1.19,00297,M,-033,M,,*5D
$GPGLL,3917.26032,N,08203.80497,W,192444.00,A,A*77
$GPVTG,000.0,T,007.2,M,000.0,N,000.0,K,A*26
$GPGSA,A,3,29,26,05,21,02,15,18,,,,,,2.21,1.19,1.86*03
$GPGSV,3,1,11,29,65,251,50,26,58,119,51,05,52,047,49,21,23,301,42*7E
$GPGSV,3,2,11,02,31,106,38,15,42,181,48,18,12,250,33,09,10,073,26*77
$GPGSV,3,3,11,06,,000,28,07,,000,29,08,,000,30,,,,*42
$GPGST,192444.00,,009.94,009.30,073.8,003.15,003.06,004.03*40
$GPRMC,192444.00,A,3917.26032,N,08203.80497,W,000.0,000.0,231113,07.2,W,A*0F
$PTNLRTF,V,V,588284,07,3,3917.26032,N,08203.80497,W,00297,+000.000,+000.000,+000.000,0,0*47
$PTNLRBA,1,1*57
$GPZDA,192445.00,23,11,2013,,*68
$GPGGA,192445.00,3917.26028,N,08203.80501,W,1,07,1.19,00297,M,-033,M,,*59
$GPGLL,3917.26028,N,08203.80501,W,192445.00,A,A*73
$GPVTG,000.0,T,007.2,M,000.0,N,000.0,K,A*26
$GPGSA,A,3,29,26,05,21,02,15,18,,,,,,2.21,1.19,1.86*03
$GPGSV,3,1,11,29,65,251,50,26,58,119,50,05,52,047,49,21,23,301,42*7F
$GPGSV,3,2,11,02,31,106,39,15,42,181,48,18,12,250,33,09,10,073,26*76
$GPGSV,3,3,11,06,,000,28,07,,000,29,08,,000,28,,,,*4B
$GPGST,192445.00,,010.66,010.03,073.6,003.26,003.18,004.09*47
$GPRMC,192445.00,A,3917.26028,N,08203.80501,W,000.0,000.0,231113,07.2,W,A*0B
$PTNLRTF,V,V,588285,07,3,3917.26028,N,08203.80501,W,00297,+000.000,+000.000,+000.000,0,0*43
$PTNLRBA,1,1*57
$GPZDA,192446.00,23,11,2013,,*6B
$GPGGA,192446.00,3917.26026,N,08203.80501,W,1,07,1.19,00297,M,-033,M,,*54
$GPGLL,3917.26026,N,08203.80501,W,192446.00,A,A*7E
$GPVTG,000.0,T,007.2,M,000.0,N,000.0,K,A*26
$GPGSA,A,3,29,26,05,21,02,15,18,,,,,,2.21,1.19,1.86*03
$GPGSV,3,1,11,29,65,251,50,26,58,118,51,05,52,047,49,21,23,301,42*7F
$GPGSV,3,2,11,02,30,106,39,15,42,181,48,18,12,250,32,09,10,073,25*75
$GPGSV,3,3,11,06,,000,28,07,,000,29,08,,000,27,,,,*44
$GPGST,192446.00,,010.36,009.76,073.5,003.21,003.13,004.03*4E
$GPRMC,192446.00,A,3917.26026,N,08203.80501,W,000.0,000.0,231113,07.2,W,A*06
$PTNLRTF,V,V,588286,07,3,3917.26026,N,08203.80501,W,00297,+000.000,+000.000,+000.000,0,0*4E
$PTNLRBA,1,1*57
$GPZDA,192447.00,23,11,2013,,*6A
$GPGGA,192447.00,3917.26026,N,08203.80505,W,1,07,1.19,00297,M,-033,M,,*51
$GPGLL,3917.26026,N,08203.80505,W,192447.00,A,A*7B
$GPVTG,000.0,T,007.2,M,000.0,N,000.0,K,A*26
$GPGSA,A,3,29,26,05,21,02,15,18,,,,,,2.21,1.19,1.86*03
$GPGSV,3,1,11,29,65,251,48,26,58,118,51,05,52,047,49,21,23,301,41*75
$GPGSV,3,2,11,02,30,106,39,15,42,181,48,18,12,250,33,09,10,073,25*74
$GPGSV,3,3,11,06,,000,28,07,,000,29,08,,000,28,,,,*4B
$GPGST,192447.00,,011.08,010.50,073.5,003.32,003.25,004.09*42
$GPRMC,192447.00,A,3917.26026,N,08203.80505,W,000.0,000.0,231113,07.2,W,A*03
$PTNLRTF,V,V,588287,07,3,3917.26026,N,08203.80505,W,00297,+000.000,+000.000,+000.000,0,0*4B
$PTNLRBA,1,1*57
$GPZDA,192448.00,23,11,2013,,*65
$GPGGA,192448.00,3917.26027,N,08203.80508,W,1,07,1.19,00297,M,-033,M,,*52
$GPGLL,3917.26027,N,08203.80508,W,192448.00,A,A*78
$GPVTG,000.0,T,007.2,M,000.0,N,000.0,K,A*26
$GPGSA,A,3,29,26,05,21,02,15,18,,,,,,2.21,1.19,1.86*03
$GPGSV,3,1,11,29,65,251,51,26,58,118,51,05,52,047,49,21,23,301,42*7E
$GPGSV,3,2,11,02,30,106,39,15,42,181,48,18,12,250,34,09,10,073,25*73
$GPGSV,3,3,11,06,,000,29,07,,000,28,08,,000,26,,,,*45
$GPGST,192448.00,,010.55,009.99,073.4,003.24,003.17,004.00*47
$GPRMC,192448.00,A,3917.26027,N,08203.80508,W,000.0,000.0,231113,07.2,W,A*00
$PTNLRTF,V,V,588288,07,3,3917.26027,N,08203.80508,W,00297,+000.000,+000.000,+000.000,0,0*48
$PTNLRBA,1,1*57
$GPZDA,192449.00,23,11,2013,,*64
$GPGGA,192449.00,3917.26027,N,08203.80511,W,1,07,1.19,00297,M,-033,M,,*5B
$GPGLL,3917.26027,N,08203.80511,W,192449.00,A,A*71
$GPVTG,000.0,T,007.2,M,000.0,N,000.0,K,A*26
$GPGSA,A,3,29,26,05,21,02,15,18,,,,,,2.21,1.19,1.86*03
$GPGSV,3,1,11,29,65,251,51,26,58,118,51,05,52,047,49,21,23,301,42*7E
$GPGSV,3,2,11,02,30,106,40,15,42,181,48,18,12,250,34,09,10,073,25*7D
$GPGSV,3,3,11,06,,000,29,07,,000,28,08,,000,27,,,,*44
$GPGST,192449.00,,010.16,009.61,073.4,003.18,003.11,003.93*42
$GPRMC,192449.00,A,3917.26027,N,08203.80511,W,000.0,000.0,231113,07.2,W,A*09
$PTNLRTF,V,V,588289,07,3,3917.26027,N,08203.80511,W,00297,+000.000,+000.000,+000.000,0,0*41
$PTNLRBA,1,1*57
$GPZDA,192450.00,23,11,2013,,*6C
$GPGGA,192450.00,3917.26028,N,08203.80511,W,1,07,1.19,00297,M,-033,M,,*5C
$GPGLL,3917.26028,N,08203.80511,W,192450.00,A,A*76
$GPVTG,000.0,T,007.2,M,000.0,N,000.0,K,A*26
$GPGSA,A,3,29,26,05,21,02,15,18,,,,,,2.21,1.19,1.86*03
$GPGSV,3,1,11,29,65,251,51,26,58,118,51,05,52,047,48,21,23,301,42*7F
$GPGSV,3,2,11,02,30,106,39,15,42,181,48,18,12,250,35,09,10,073,25*72
$GPGSV,3,3,11,06,,000,28,07,,000,29,08,,000,27,,,,*44
$GPGST,192450.00,,010.11,009.58,073.4,003.17,003.10,003.90*4A
$GPRMC,192450.00,A,3917.26028,N,08203.80511,W,000.0,000.0,231113,07.2,W,A*0E
$PTNLRTF,V,V,588290,07,3,3917.26028,N,08203.80511,W,00297,+000.000,+000.000,+000.000,0,0*46
$PTNLRBA,1,1*57
$GPZDA,192451.00,23,11,2013,,*6D
$GPGGA,192451.00,3917.26029,N,08203.80510,W,1,07,1.19,00297,M,-033,M,,*5D
$GPGLL,3917.26029,N,08203.80510,W,192451.00,A,A*77
$GPVTG,000.0,T,007.2,M,000.0,N,000.0,K,A*26
$GPGSA,A,3,29,26,05,21,02,15,18,,,,,,2.21,1.19,1.86*03
$GPGSV,3,1,11,29,65,251,51,26,58,118,51,05,52,047,48,21,23,301,42*7F
$GPGSV,3,2,11,02,30,106,39,15,42,181,48,18,12,250,35,09,10,073,25*72
$GPGSV,3,3,11,06,,000,29,07,,000,28,08,,000,27,,,,*44
$GPGST,192451.00,,010.20,009.70,073.5,003.19,003.12,003.89*46
$GPRMC,192451.00,A,3917.26029,N,08203.80510,W,000.0,000.0,231113,07.2,W,A*0F
$PTNLRTF,V,V,588291,07,3,3917.26029,N,08203.80510,W,00297,+000.000,+000.000,+000.000,0,0*47
$PTNLRBA,1,1*57
$GPZDA,192452.00,23,11,2013,,*6E
$GPGGA,192452.00,3917.26027,N,08203.80507,W,1,07,1.19,00297,M,-033,M,,*56
$GPGLL,3917.26027,N,08203.80507,W,192452.00,A,A*7C
$GPVTG,000.0,T,007.2,M,000.0,N,000.0,K,A*26
$GPGSA,A,3,29,26,05,21,02,15,18,,,,,,2.21,1.19,1.86*03
$GPGSV,3,1,11,29,65,251,52,26,58,118,51,05,52,047,49,21,23,301,41*7E
$GPGSV,3,2,11,02,30,106,39,15,42,181,49,18,12,250,35,09,10,073,26*70
$GPGSV,3,3,11,06,,000,28,07,,000,28,08,,000,27,,,,*45
$GPGST,192452.00,,010.64,010.15,073.5,003.26,003.19,003.93*42
$GPRMC,192452.00,A,3917.26027,N,08203.80507,W,000.0,000.0,231113,07.2,W,A*04
$PTNLRTF,V,V,588292,07,3,3917.26027,N,08203.80507,W,00297,+000.000,+000.000,+000.000,0,0*4C
$PTNLRBA,1,1*57
$GPZDA,192453.00,23,11,2013,,*6F
$GPGGA,192453.00,3917.26028,N,08203.80505,W,1,07,1.19,00297,M,-033,M,,*5A
$GPGLL,3917.26028,N,08203.80505,W,192453.00,A,A*70
$GPVTG,000.0,T,007.2,M,000.0,N,000.0,K,A*26
$GPGSA,A,3,29,26,05,21,02,15,18,,,,,,2.21,1.19,1.86*03
$GPGSV,3,1,11,29,65,251,51,26,58,118,50,05,52,047,49,21,23,301,43*7E
$GPGSV,3,2,11,02,30,106,39,15,42,181,49,18,12,250,35,09,10,073,24*72
$GPGSV,3,3,11,06,,000,29,07,,000,28,08,,000,27,,,,*44
$GPGST,192453.00,,010.74,010.26,073.4,003.27,003.21,003.92*48
$GPRMC,192453.00,A,3917.26028,N,08203.80505,W,000.0,000.0,231113,07.2,W,A*08
$PTNLRTF,V,V,588293,07,3,3917.26028,N,08203.80505,W,00297,+000.000,+000.000,+000.000,0,0*40
$PTNLRBA,1,1*57
$GPZDA,192454.00,23,11,2013,,*68
$GPGGA,192454.00,3917.26031,N,08203.80503,W,1,07,1.19,00297,M,-033,M,,*53
$GPGLL,3917.26031,N,08203.80503,W,192454.00,A,A*79
$GPVTG,000.0,T,007.2,M,000.0,N,000.0,K,A*26
$GPGSA,A,3,29,26,05,21,02,15,18,,,,,,2.21,1.19,1.86*03
$GPGSV,3,1,11,29,65,251,51,26,58,118,51,05,52,047,48,21,23,301,42*7F
$GPGSV,3,2,11,02,30,106,39,15,42,181,48,18,12,250,34,09,10,073,25*73
$GPGSV,3,3,11,06,,000,29,07,,000,30,08,,000,29,,,,*43
$GPGST,192454.00,,010.69,010.23,073.4,003.26,003.20,003.90*44
$GPRMC,192454.00,A,3917.26031,N,08203.80503,W,000.0,000.0,231113,07.2,W,A*01
$PTNLRTF,V,V,588294,07,3,3917.26031,N,08203.80503,W,00297,+000.000,+000.000,+000.000,0,0*49
$PTNLRBA,1,1*57
$GPZDA,192455.00,23,11,2013,,*69
$GPGGA,192455.00,3917.26035,N,08203.80499,W,1,07,1.19,00297,M,-033,M,,*54
$GPGLL,3917.26035,N,08203.80499,W,192455.00,A,A*7E
$GPVTG,000.0,T,007.2,M,000.0,N,000.0,K,A*26
$GPGSA,A,3,29,26,05,21,02,15,18,,,,,,2.21,1.19,1.86*03
$GPGSV,3,1,11,29,65,251,51,26,58,118,51,05,52,047,49,21,23,301,42*7E
$GPGSV,3,2,11,02,30,106,39,15,42,181,48,18,12,250,35,09,10,073,25*72
$GPGSV,3,3,11,06,,000,28,07,,000,30,08,,000,28,,,,*43
$GPGST,192455.00,,011.72,011.27,073.4,003.42,003.36,004.01*41
$GPRMC,192455.00,A,3917.26035,N,08203.80499,W,000.0,000.0,231113,07.2,W,A*06
$PTNLRTF,V,V,588295,07,3,3917.26035,N,08203.80499,W,00297,+000.000,+000.000,+000.000,0,0*4E
$PTNLRBA,1,1*57
$GPZDA,192456.00,23,11,2013,,*6A
$GPGGA,192456.00,3917.26037,N,08203.80499,W,1,07,1.19,00297,M,-033,M,,*55
$GPGLL,3917.26037,N,08203.80499,W,192456.00,A,A*7F
$GPVTG,000.0,T,007.2,M,000.0,N,000.0,K,A*26
$GPGSA,A,3,29,26,05,21,02,15,18,,,,,,2.21,1.19,1.86*03
$GPGSV,3,1,11,29,65,250,50,26,58,118,51,05,52,047,48,21,23,301,43*7E
$GPGSV,3,2,11,02,30,106,39,15,42,181,49,18,12,250,34,09,10,073,25*72
$GPGSV,3,3,11,06,,000,28,07,,000,28,08,,000,27,,,,*45
$GPGST,192456.00,,012.51,012.07,073.3,003.53,003.48,004.09*47
$GPRMC,192456.00,A,3917.26037,N,08203.80499,W,000.0,000.0,231113,07.2,W,A*07
$PTNLRTF,V,V,588296,07,3,3917.26037,N,08203.80499,W,00297,+000.000,+000.000,+000.000,0,0*4F
$PTNLRBA,1,1*57
$GPZDA,192457.00,23,11,2013,,*6B
$GPGGA,192457.00,3917.26039,N,08203.80497,W,1,07,1.19,00297,M,-033,M,,*54
$GPGLL,3917.26039,N,08203.80497,W,192457.00,A,A*7E
$GPVTG,000.0,T,007.2,M,000.0,N,000.0,K,A*26
$GPGSA,A,3,29,26,05,21,02,15,18,,,,,,2.21,1.19,1.86*03
$GPGSV,3,1,11,29,65,250,50,26,58,118,51,05,52,047,49,21,23,301,41*7D
$GPGSV,3,2,11,02,30,106,39,15,42,181,48,18,12,250,33,09,10,073,25*74
$GPGSV,3,3,11,06,,000,28,07,,000,28,08,,000,28,,,,*4A
$GPGST,192457.00,,012.42,011.99,073.3,003.52,003.47,004.07*40
$GPRMC,192457.00,A,3917.26039,N,08203.80497,W,000.0,000.0,231113,07.2,W,A*06
$PTNLRTF,V,V,588297,07,3,3917.26039,N,08203.80497,W,00297,+000.000,+000.000,+000.000,0,0*4E
$PTNLRBA,1,1*57
$GPZDA,192458.00,23,11,2013,,*64
$GPGGA,192458.00,3917.26040,N,08203.80497,W,1,07,1.19,00297,M,-033,M,,*55
$GPGLL,3917.26040,N,08203.80497,W,192458.00,A,A*7F
$GPVTG,000.0,T,007.2,M,000.0,N,000.0,K,A*26
$GPGSA,A,3,29,26,05,21,02,15,18,,,,,,2.21,1.19,1.86*03
$GPGSV,3,1,11,29,65,250,51,26,58,118,51,05,52,047,48,21,23,301,42*7E
$GPGSV,3,2,11,02,30,106,40,15,42,181,49,18,12,250,33,09,10,073,25*7B
$GPGSV,3,3,11,06,,000,29,07,,000,29,08,,000,27,,,,*45
$GPGST,192458.00,,013.31,012.89,073.3,003.64,003.60,004.17*49
$GPRMC,192458.00,A,3917.26040,N,08203.80497,W,000.0,000.0,231113,07.2,W,A*07
$PTNLRTF,V,V,588298,07,3,3917.26040,N,08203.80497,W,00297,+000.000,+000.000,+000.000,0,0*4F
$PTNLRBA,1,1*57
$GPZDA,192459.00,23,11,2013,,*65
$GPGGA,192459.00,3917.26043,N,08203.80496,W,1,07,1.19,00297,M,-033,M,,*56
$GPGLL,3917.26043,N,08203.80496,W,192459.00,A,A*7C
$GPVTG,000.0,T,007.2,M,000.0,N,000.0,K,A*26
$GPGSA,A,3,29,26,05,21,02,15,18,,,,,,2.21,1.19,1.86*03
$GPGSV,3,1,11,29,65,250,51,26,58,118,50,05,52,047,49,21,23,301,43*7F
$GPGSV,3,2,11,02,30,106,40,15,42,181,49,18,12,250,34,09,10,073,25*7C
$GPGSV,3,3,11,06,,000,29,07,,000,29,08,,000,27,,,,*45
$GPGST,192459.00,,013.91,013.50,073.2,003.73,003.68,004.23*4F
$GPRMC,192459.00,A,3917.26043,N,08203.80496,W,000.0,000.0,231113,07.2,W,A*04
$PTNLRTF,V,V,588299,07,3,3917.26043,N,08203.80496,W,00297,+000.000,+000.000,+000.000,0,0*4C
$PTNLRBA,1,1*57
$GPZDA,192500.00,23,11,2013,,*68
$GPGGA,192500.00,3917.26044,N,08203.80501,W,1,07,1.19,00298,M,-033,M,,*5C
$GPGLL,3917.26044,N,08203.80501,W,192500.00,A,A*79
$GPVTG,000.0,T,007.2,M,000.0,N,000.0,K,A*26
$GPGSA,A,3,29,26,05,21,02,15,18,,,,,,2.21,1.19,1.86*03
$GPGSV,3,1,11,29,65,250,51,26,58,118,51,05,52,047,49,21,23,301,42*7F
$GPGSV,3,2,11,02,30,106,40,15,42,181,49,18,12,250,34,09,10,073,26*7F
$GPGSV,3,3,11,06,,000,29,07,,000,27,08,,000,27,,,,*4B
$GPGST,192500.00,,013.71,013.31,073.2,003.70,003.65,004.19*4C
$GPRMC,192500.00,A,3917.26044,N,08203.80501,W,000.0,000.0,231113,07.2,W,A*01
$PTNLRTF,V,V,588300,07,3,3917.26044,N,08203.80501,W,00298,+000.000,+000.000,+000.000,0,0*4A
$PTNLRBA,1,1*57
$GPZDA,192501.00,23,11,2013,,*69
$GPGGA,192501.00,3917.26047,N,08203.80504,W,1,07,1.19,00298,M,-033,M,,*5B
$GPGLL,3917.26047,N,08203.80504,W,192501.00,A,A*7E
$GPVTG,000.0,T,007.2,M,000.0,N,000.0,K,A*26
$GPGSA,A,3,29,26,05,21,02,15,18,,,,,,2.21,1.19,1.86*03
$GPGSV,3,1,11,29,65,250,51,26,58,118,51,05,52,047,48,21,23,301,42*7E
$GPGSV,3,2,11,02,30,106,39,15,42,181,49,18,12,250,33,09,10,073,26*76
$GPGSV,3,3,11,06,,000,29,07,,000,29,08,,000,28,,,,*4A
$GPGST,192501.00,,013.97,013.58,073.2,003.73,003.69,004.21*4E
$GPRMC,192501.00,A,3917.26047,N,08203.80504,W,000.0,000.0,231113,07.2,W,A*06
$PTNLRTF,V,V,588301,07,3,3917.26047,N,08203.80504,W,00298,+000.000,+000.000,+000.000,0,0*4D
$PTNLRBA,1,1*57
$GPZDA,192502.00,23,11,2013,,*6A
$GPGGA,192502.00,3917.26051,N,08203.80505,W,1,07,1.19,00298,M,-033,M,,*5E
$GPGLL,3917.26051,N,08203.80505,W,192502.00,A,A*7B
$GPVTG,000.0,T,007.2,M,000.0,N,000.0,K,A*26
$GPGSA,A,3,29,26,05,21,02,15,18,,,,,,2.21,1.19,1.86*03
$GPGSV,3,1,11,29,65,250,51,26,58,118,51,05,52,047,49,21,24,301,42*78
$GPGSV,3,2,11,02,30,106,40,15,42,181,48,18,12,250,34,09,10,073,25*7D
$GPGSV,3,3,11,06,,000,28,07,,000,28,08,,000,27,,,,*45
$GPGST,192502.00,,014.40,014.02,073.2,003.79,003.75,004.25*4B
$GPRMC,192502.00,A,3917.26051,N,08203.80505,W,000.0,000.0,231113,07.2,W,A*03
$PTNLRTF,V,V,588302,07,3,3917.26051,N,08203.80505,W,00298,+000.000,+000.000,+000.000,0,0*48
$PTNLRBA,1,1*57
$GPZDA,192503.00,23,11,2013,,*6B
$GPGGA,192503.00,3917.26054,N,08203.80506,W,1,07,1.19,00298,M,-033,M,,*59
$GPGLL,3917.26054,N,08203.80506,W,192503.00,A,A*7C
$GPVTG,000.0,T,007.2,M,000.0,N,000.0,K,A*26
$GPGSA,A,3,29,26,05,21,02,15,18,,,,,,2.21,1.19,1.86*03
$GPGSV,3,1,11,29,65,250,51,26,58,118,51,05,52,047,49,21,24,301,42*78
$GPGSV,3,2,11,02,30,106,39,15,42,181,48,18,12,250,33,09,10,073,25*74
$GPGSV,3,3,11,06,,000,28,07,,000,29,08,,000,28,,,,*4B
$GPGST,192503.00,,014.95,014.57,073.3,003.86,003.82,004.31*4E
$GPRMC,192503.00,A,3917.26054,N,08203.80506,W,000.0,000.0,231113,07.2,W,A*04
$PTNLRTF,V,V,588303,07,3,3917.26054,N,08203.80506,W,00298,+000.000,+000.000,+000.000,0,0*4F
$PTNLRBA,1,1*57
$GPZDA,192504.00,23,11,2013,,*6C
$GPGGA,192504.00,3917.26056,N,08203.80505,W,1,07,1.19,00298,M,-033,M,,*5F
$GPGLL,3917.26056,N,08203.80505,W,192504.00,A,A*7A
$GPVTG,000.0,T,007.2,M,000.0,N,000.0,K,A*26
$GPGSA,A,3,29,26,05,21,02,15,18,,,,,,2.21,1.19,1.86*03
$GPGSV,3,1,11,29,65,250,51,26,58,118,51,05,52,047,48,21,24,301,42*79
$GPGSV,3,2,11,02,30,106,39,15,42,181,48,18,12,250,33,09,10,073,25*74
$GPGSV,3,3,11,06,,000,28,07,,000,28,08,,000,27,,,,*45
$GPGST,192504.00,,015.85,015.48,073.3,003.98,003.94,004.40*48
$GPRMC,192504.00,A,3917.26056,N,08203.80505,W,000.0,000.0,231113,07.2,W,A*02
$PTNLRTF,V,V,588304,07,3,3917.26056,N,08203.80505,W,00298,+000.000,+000.000,+000.000,0,0*49
$PTNLRBA,1,1*57
$GPZDA,192505.00,23,11,2013,,*6D
$GPGGA,192505.00,3917.26059,N,08203.80507,W,1,07,1.19,00298,M,-033,M,,*53
$GPGLL,3917.26059,N,08203.80507,W,192505.00,A,A*76
$GPVTG,000.0,T,007.2,M,000.0,N,000.0,K,A*26
$GPGSA,A,3,29,26,05,21,02,15,18,,,,,,2.21,1.19,1.86*03
$GPGSV,3,1,12,29,65,250,50,26,58,118,50,05,52,047,48,21,24,301,41*79
$GPGSV,3,2,12,02,30,106,39,15,42,181,48,18,12,250,34,12,,000,30*7B
$GPGSV,3,3,12,09,10,073,24,06,,000,29,07,,000,29,08,,000,28*73
$GPGST,192505.00,,016.21,015.84,073.3,004.02,003.98,004.43*4F
$GPRMC,192505.00,A,3917.26059,N,08203.80507,W,000.0,000.0,231113,07.2,W,A*0E
$PTNLRTF,V,V,588305,07,3,3917.26059,N,08203.80507,W,00298,+000.000,+000.000,+000.000,0,0*45
$PTNLRBA,1,1*57
$GPZDA,192506.00,23,11,2013,,*6E
$GPGGA,192506.00,3917.26062,N,08203.80499,W,1,07,1.19,00298,M,-033,M,,*5E
$GPGLL,3917.26062,N,08203.80499,W,192506.00,A,A*7B
$GPVTG,066.7,T,073.9,M,000.1,N,000.3,K,A*2B
$GPGSA,A,3,29,26,05,21,02,15,18,,,,,,2.21,1.19,1.86*03
$GPGSV,3,1,12,29,65,250,51,26,58,118,51,05,52,047,49,21,24,301,42*7B
$GPGSV,3,2,12,02,30,106,39,15,42,181,48,18,12,250,34,12,,000,28*72
$GPGSV,3,3,12,09,10,073,26,06,,000,28,07,,000,29,08,,000,27*7F
$GPGST,192506.00,,016.91,016.55,073.2,004.11,004.07,004.50*48
$GPRMC,192506.00,A,3917.26062,N,08203.80499,W,000.1,066.7,231113,07.2,W,A*05
$PTNLRTF,V,V,588306,07,3,3917.26062,N,08203.80499,W,00298,+000.066,+000.028,-000.283,0,0*4D
$PTNLRBA,1,1*57
$GPZDA,192507.00,23,11,2013,,*6F
$GPGGA,192507.00,3917.26062,N,08203.80499,W,1,07,1.19,00298,M,-033,M,,*5F
$GPGLL,3917.26062,N,08203.80499,W,192507.00,A,A*7A
$GPVTG,293.5,T,300.7,M,000.0,N,000.1,K,A*2B
$GPGSA,A,3,29,26,05,21,02,15,18,,,,,,2.21,1.19,1.86*03
$GPGSV,3,1,12,29,65,250,51,26,58,118,51,05,52,047,48,21,24,301,42*7A
$GPGSV,3,2,12,02,30,106,40,15,42,181,48,18,12,250,33,12,,000,27*74
$GPGSV,3,3,12,09,10,073,25,06,,000,28,07,,000,29,08,,000,27*7C
$GPGST,192507.00,,017.54,017.19,073.1,004.18,004.15,004.57*46
$GPRMC,192507.00,A,3917.26062,N,08203.80499,W,000.0,293.5,231113,07.2,W,A*0F
$PTNLRTF,V,V,588307,07,3,3917.26062,N,08203.80499,W,00298,-000.018,+000.008,-000.136,0,0*4C
$PTNLRBA,1,1*57
$GPZDA,192508.00,23,11,2013,,*60
$GPGGA,192508.00,3917.26062,N,08203.80499,W,1,07,1.19,00298,M,-033,M,,*50
$GPGLL,3917.26062,N,08203.80499,W,192508.00,A,A*75
$GPVTG,000.0,T,007.2,M,000.0,N,000.0,K,A*26
$GPGSA,A,3,29,26,05,21,02,15,18,,,,,,2.21,1.19,1.86*03
$GPGSV,3,1,12,29,65,250,51,26,58,118,51,05,52,047,48,21,24,301,42*7A
$GPGSV,3,2,12,02,30,106,40,15,42,181,47,18,12,250,33,12,,000,25*79
$GPGSV,3,3,12,09,10,073,24,06,,000,29,07,,000,29,08,,000,27*7C
$GPGST,192508.00,,018.35,018.00,073.1,004.28,004.25,004.65*47
$GPRMC,192508.00,A,3917.26062,N,08203.80499,W,000.0,000.0,231113,07.2,W,A*0D
$PTNLRTF,V,V,588308,07,3,3917.26062,N,08203.80499,W,00298,+000.000,+000.000,+000.000,0,0*46
$PTNLRBA,1,1*57
$GPZDA,192509.00,23,11,2013,,*61
$GPGGA,192509.00,3917.26063,N,08203.80500,W,1,07,1.19,00298,M,-033,M,,*51
$GPGLL,3917.26063,N,08203.80500,W,192509.00,A,A*74
$GPVTG,000.0,T,007.2,M,000.0,N,000.0,K,A*26
$GPGSA,A,3,29,26,05,21,02,15,18,,,,,,2.21,1.19,1.86*03
$GPGSV,3,1,12,29,65,250,51,26,58,118,51,05,52,047,47,21,24,301,42*75
$GPGSV,3,2,12,02,30,106,40,15,42,181,48,18,12,250,34,12,,000,27*73
$GPGSV,3,3,12,09,10,073,26,06,,000,28,07,,000,28,08,,000,26*7F
$GPGST,192509.00,,018.57,018.23,073.1,004.31,004.27,004.67*4B
$GPRMC,192509.00,A,3917.26063,N,08203.80500,W,000.0,000.0,231113,07.2,W,A*0C
$PTNLRTF,V,V,588309,07,3,3917.26063,N,08203.80500,W,00298,+000.000,+000.000,+000.000,0,0*47
$PTNLRBA,1,1*57
$GPZDA,192510.00,23,11,2013,,*69
$GPGGA,192510.00,3917.26064,N,08203.80497,W,1,07,1.19,00298,M,-033,M,,*51
$GPGLL,3917.26064,N,08203.80497,W,192510.00,A,A*74
$GPVTG,000.0,T,007.2,M,000.0,N,000.0,K,A*26
$GPGSA,A,3,29,26,05,21,02,15,18,,,,,,2.21,1.19,1.86*03
$GPGSV,3,1,12,29,65,250,51,26,58,118,51,05,52,047,48,21,24,301,43*7B
$GPGSV,3,2,12,02,30,106,40,15,42,181,48,18,12,250,33,12,,000,26*75
$GPGSV,3,3,12,09,10,073,25,06,,000,00,07,,000,28,08,,000,29*79
$GPGST,192510.00,,018.88,018.55,073.2,004.34,004.31,004.69*4F
$GPRMC,192510.00,A,3917.26064,N,08203.80497,W,000.0,000.0,231113,07.2,W,A*0C
$PTNLRTF,V,V,588310,07,3,3917.26064,N,08203.80497,W,00298,+000.000,+000.000,+000.000,0,0*47
$PTNLRBA,1,1*57
$GPZDA,192511.00,23,11,2013,,*68
$GPGGA,192511.00,3917.26066,N,08203.80497,W,1,07,1.19,00298,M,-033,M,,*52
$GPGLL,3917.26066,N,08203.80497,W,192511.00,A,A*77
$GPVTG,000.0,T,007.2,M,000.0,N,000.0,K,A*26
$GPGSA,A,3,29,26,05,21,02,15,18,,,,,,2.21,1.19,1.86*03
$GPGSV,3,1,11,29,65,250,51,26,58,118,51,05,52,047,48,21,24,301,42*79
$GPGSV,3,2,11,02,30,106,39,15,42,181,49,18,12,250,32,12,,000,26*78
$GPGSV,3,3,11,09,10,073,24,07,,000,29,08,,000,28,,,,*4D
$GPGST,192511.00,,019.52,019.19,073.2,004.41,004.38,004.75*47
$GPRMC,192511.00,A,3917.26066,N,08203.80497,W,000.0,000.0,231113,07.2,W,A*0F
$PTNLRTF,V,V,588311,07,3,3917.26066,N,08203.80497,W,00298,+000.000,+000.000,+000.000,0,0*44
$PTNLRBA,1,1*57
$GPZDA,192512.00,23,11,2013,,*6B
$GPGGA,192512.00,3917.26066,N,08203.80494,W,1,07,1.19,00298,M,-033,M,,*52
$GPGLL,3917.26066,N,08203.80494,W,192512.00,A,A*77
$GPVTG,000.0,T,007.2,M,000.0,N,000.0,K,A*26
$GPGSA,A,3,29,26,05,21,02,15,18,,,,,,2.21,1.19,1.86*03
$GPGSV,3,1,11,29,65,250,52,26,58,118,51,05,52,047,48,21,24,301,41*79
$GPGSV,3,2,11,02,30,106,40,15,42,181,49,18,12,250,33,12,,000,27*76
$GPGSV,3,3,11,09,10,073,24,07,,000,29,08,,000,29,,,,*4C
$GPGST,192512.00,,020.51,020.18,073.1,004.53,004.50,004.85*47
$GPRMC,192512.00,A,3917.26066,N,08203.80494,W,000.0,000.0,231113,07.2,W,A*0F
$PTNLRTF,V,V,588312,07,3,3917.26066,N,08203.80494,W,00298,+000.000,+000.000,+000.000,0,0*44
$PTNLRBA,1,1*57
$GPZDA,192513.00,23,11,2013,,*6A
$GPGGA,192513.00,3917.26067,N,08203.80493,W,1,07,1.19,00298,M,-033,M,,*55
$GPGLL,3917.26067,N,08203.80493,W,192513.00,A,A*70
$GPVTG,000.0,T,007.2,M,000.0,N,000.0,K,A*26
$GPGSA,A,3,29,26,05,21,02,15,18,,,,,,2.21,1.19,1.86*03
$GPGSV,3,1,09,29,65,250,51,26,58,118,51,05,52,047,48,21,24,301,42*70
$GPGSV,3,2,09,02,30,106,38,15,42,181,49,18,12,250,33,12,,000,26*71
$GPGSV,3,3,09,08,,000,27,,,,,,,,,,,,*4D
$GPGST,192513.00,,020.95,020.64,073.1,004.57,004.55,004.89*48
$GPRMC,192513.00,A,3917.26067,N,08203.80493,W,000.0,000.0,231113,07.2,W,A*08
$PTNLRTF,V,V,588313,07,3,3917.26067,N,08203.80493,W,00298,+000.000,+000.000,+000.000,0,0*43
$PTNLRBA,1,1*57
$GPZDA,192514.00,23,11,2013,,*6D
$GPGGA,192514.00,3917.26069,N,08203.80494,W,1,07,1.19,00298,M,-033,M,,*5B
$GPGLL,3917.26069,N,08203.80494,W,192514.00,A,A*7E
$GPVTG,000.0,T,007.2,M,000.0,N,000.0,K,A*26
$GPGSA,A,3,29,26,05,21,02,15,18,,,,,,2.21,1.19,1.86*03
$GPGSV,3,1,09,29,65,250,51,26,58,118,51,05,52,047,47,21,24,301,42*7F
$GPGSV,3,2,09,02,30,106,40,15,42,181,48,18,12,250,32,12,,000,27*7F
$GPGSV,3,3,09,08,,000,29,,,,,,,,,,,,*43
$GPGST,192514.00,,020.71,020.40,073.1,004.55,004.52,004.86*49
$GPRMC,192514.00,A,3917.26069,N,08203.80494,W,000.0,000.0,231113,07.2,W,A*06
$PTNLRTF,V,V,588314,07,3,3917.26069,N,08203.80494,W,00298,+000.000,+000.000,+000.000,0,0*4D
$PTNLRBA,1,1*57
$GPZDA,192515.00,23,11,2013,,*6C
$GPGGA,192515.00,3917.26069,N,08203.80492,W,1,07,1.19,00298,M,-033,M,,*5C
$GPGLL,3917.26069,N,08203.80492,W,192515.00,A,A*79
$GPVTG,000.0,T,007.2,M,000.0,N,000.0,K,A*26
$GPGSA,A,3,29,26,05,21,02,15,18,,,,,,2.21,1.19,1.86*03
$GPGSV,3,1,09,29,65,250,51,26,58,118,51,05,52,047,48,21,24,301,41*73
$GPGSV,3,2,09,02,30,106,39,15,42,181,48,18,12,250,32,12,,000,26*70
$GPGSV,3,3,09,08,,000,28,,,,,,,,,,,,*42
$GPGST,192515.00,,021.78,021.47,073.1,004.66,004.64,004.96*42
$GPRMC,192515.00,A,3917.26069,N,08203.80492,W,000.0,000.0,231113,07.2,W,A*01
$PTNLRTF,V,V,588315,07,3,3917.26069,N,08203.80492,W,00298,+000.000,+000.000,+000.000,0,0*4A
$PTNLRBA,1,1*57
$GPZDA,192516.00,23,11,2013,,*6F
$GPGGA,192516.00,3917.26069,N,08203.80490,W,1,07,1.19,00298,M,-033,M,,*5D
$GPGLL,3917.26069,N,08203.80490,W,192516.00,A,A*78
$GPVTG,000.0,T,007.2,M,000.0,N,000.0,K,A*26
$GPGSA,A,3,29,26,05,21,02,15,18,,,,,,2.21,1.19,1.86*03
$GPGSV,3,1,09,29,65,250,50,26,58,118,50,05,52,047,49,21,24,301,41*72
$GPGSV,3,2,09,02,30,106,40,15,42,181,49,18,12,250,31,12,,000,27*7D
$GPGSV,3,3,09,08,,000,28,,,,,,,,,,,,*42
$GPGST,192516.00,,023.82,023.52,073.1,004.88,004.85,005.16*46
$GPRMC,192516.00,A,3917.26069,N,08203.80490,W,000.0,000.0,231113,07.2,W,A*00
$PTNLRTF,V,V,588316,07,3,3917.26069,N,08203.80490,W,00298,+000.000,+000.000,+000.000,0,0*4B
$PTNLRBA,1,1*57
$GPZDA,192517.00,23,11,2013,,*6E
$GPGGA,192517.00,3917.26069,N,08203.80492,W,1,07,1.19,00298,M,-033,M,,*5E
$GPGLL,3917.26069,N,08203.80492,W,192517.00,A,A*7B
$GPVTG,000.0,T,007.2,M,000.0,N,000.0,K,A*26
$GPGSA,A,3,29,26,05,21,02,15,18,,,,,,2.21,1.19,1.86*03
$GPGSV,3,1,10,29,65,250,50,26,58,118,51,05,52,047,48,21,24,301,42*79
$GPGSV,3,2,10,02,30,106,39,15,42,181,49,18,12,250,32,12,,000,27*78
$GPGSV,3,3,10,13,,000,30,08,,000,28,,,,,,,,*7B
$GPGST,192517.00,,024.61,024.32,073.1,004.96,004.93,005.23*42
$GPRMC,192517.00,A,3917.26069,N,08203.80492,W,000.0,000.0,231113,07.2,W,A*03
$PTNLRTF,V,V,588317,07,3,3917.26069,N,08203.80492,W,00298,+000.000,+000.000,+000.000,0,0*48
$PTNLRBA,1,1*57
$GPZDA,192518.00,23,11,2013,,*61
$GPGGA,192518.00,3917.26069,N,08203.80492,W,1,07,1.19,00298,M,-033,M,,*51
$GPGLL,3917.26069,N,08203.80492,W,192518.00,A,A*74
$GPVTG,000.0,T,007.2,M,000.0,N,000.0,K,A*26
$GPGSA,A,3,29,26,05,21,02,15,18,,,,,,2.21,1.19,1.86*03
$GPGSV,3,1,10,29,65,250,51,26,58,118,51,05,52,047,48,21,24,301,42*78
$GPGSV,3,2,10,02,30,106,40,15,42,181,48,18,12,250,33,12,,000,26*77
$GPGSV,3,3,10,13,,000,28,08,,000,28,,,,,,,,*72
$GPGST,192518.00,,026.00,025.71,073.1,005.10,005.07,005.36*49
$GPRMC,192518.00,A,3917.26069,N,08203.80492,W,000.0,000.0,231113,07.2,W,A*0C
$PTNLRTF,V,V,588318,07,3,3917.26069,N,08203.80492,W,00298,+000.000,+000.000,+000.000,0,0*47
$PTNLRBA,1,1*57
$GPZDA,192519.00,23,11,2013,,*60
$GPGGA,192519.00,3917.26070,N,08203.80493,W,1,07,1.19,00298,M,-033,M,,*59
$GPGLL,3917.26070,N,08203.80493,W,192519.00,A,A*7C
$GPVTG,000.0,T,007.2,M,000.0,N,000.0,K,A*26
$GPGSA,A,3,29,26,05,21,02,15,18,,,,,,2.21,1.19,1.86*03
$GPGSV,3,1,09,29,65,250,51,26,58,118,51,05,51,048,49,21,24,301,42*7D
$GPGSV,3,2,09,02,30,106,40,15,42,181,49,18,12,250,32,12,,000,25*7C
$GPGSV,3,3,09,13,,000,28,,,,,,,,,,,,*48
$GPGST,192519.00,,026.55,026.27,073.1,005.15,005.13,005.41*48
$GPRMC,192519.00,A,3917.26070,N,08203.80493,W,000.0,000.0,231113,07.2,W,A*04
$PTNLRTF,V,V,588319,07,3,3917.26070,N,08203.80493,W,00298,+000.000,+000.000,+000.000,0,0*4F
$PTNLRBA,1,1*57
$GPZDA,192520.00,23,11,2013,,*6A
$GPGGA,192520.00,3917.26070,N,08203.80492,W,1,07,1.19,00298,M,-033,M,,*52
$GPGLL,3917.26070,N,08203.80492,W,192520.00,A,A*77
$GPVTG,000.0,T,007.2,M,000.0,N,000.0,K,A*26
$GPGSA,A,3,29,26,05,21,02,15,18,,,,,,2.21,1.19,1.86*03
$GPGSV,3,1,09,29,65,250,51,26,58,118,51,05,51,048,47,21,24,301,42*73
$GPGSV,3,2,09,02,30,106,39,15,42,181,49,18,12,250,32,12,,000,26*71
$GPGSV,3,3,09,13,,000,29,,,,,,,,,,,,*49
$GPGST,192520.00,,029.29,029.01,073.0,005.41,005.39,005.65*43
$GPRMC,192520.00,A,3917.26070,N,08203.80492,W,000.0,000.0,231113,07.2,W,A*0F
$PTNLRTF,V,V,588320,07,3,3917.26070,N,08203.80492,W,00298,+000.000,+000.000,+000.000,0,0*44
$PTNLRBA,1,1*57
$GPZDA,192521.00,23,11,2013,,*6B
$GPGGA,192521.00,3917.26069,N,08203.80493,W,1,07,1.19,00298,M,-033,M,,*5A
$GPGLL,3917.26069,N,08203.80493,W,192521.00,A,A*7F
$GPVTG,000.0,T,007.2,M,000.0,N,000.0,K,A*26
$GPGSA,A,3,29,26,05,21,02,15,18,,,,,,2.21,1.19,1.86*03
$GPGSV,3,1,09,29,65,250,51,26,58,118,51,05,51,048,48,21,24,301,42*7C
$GPGSV,3,2,09,02,30,106,39,15,42,181,49,18,12,250,33,12,,000,26*70
$GPGSV,3,3,09,13,,000,28,,,,,,,,,,,,*48
$GPGST,192521.00,,030.84,030.57,073.0,005.55,005.53,005.78*43
$GPRMC,192521.00,A,3917.26069,N,08203.80493,W,000.0,000.0,231113,07.2,W,A*07
$PTNLRTF,V,V,588321,07,3,3917.26069,N,08203.80493,W,00298,+000.000,+000.000,+000.000,0,0*4C
$PTNLRBA,1,1*57
$GPZDA,192522.00,23,11,2013,,*68
$GPGGA,192522.00,3917.26070,N,08203.80494,W,1,07,1.19,00298,M,-033,M,,*56
$GPGLL,3917.26070,N,08203.80494,W,192522.00,A,A*73
$GPVTG,000.0,T,007.2,M,000.0,N,000.0,K,A*26
$GPGSA,A,3,29,26,05,21,02,15,18,,,,,,2.21,1.19,1.86*03
$GPGSV,3,1,09,29,65,250,51,26,58,118,50,05,51,048,49,21,24,301,41*7F
$GPGSV,3,2,09,02,30,106,39,15,42,181,49,18,12,250,32,12,,000,26*71
$GPGSV,3,3,09,13,,000,28,,,,,,,,,,,,*48
$GPGST,192522.00,,031.25,030.98,073.0,005.59,005.57,005.82*44
$GPRMC,192522.00,A,3917.26070,N,08203.80494,W,000.0,000.0,231113,07.2,W,A*0B
$PTNLRTF,V,V,588322,07,3,3917.26070,N,08203.80494,W,00298,+000.000,+000.000,+000.000,0,0*40
$PTNLRBA,1,1*57
$GPZDA,192523.00,23,11,2013,,*69
$GPGGA,192523.00,3917.26072,N,08203.80494,W,1,07,1.19,00298,M,-033,M,,*55
$GPGLL,3917.26072,N,08203.80494,W,192523.00,A,A*70
$GPVTG,000.0,T,007.2,M,000.0,N,000.0,K,A*26
$GPGSA,A,3,29,26,05,21,02,15,18,,,,,,2.21,1.19,1.86*03
$GPGSV,3,1,09,29,65,250,51,26,58,118,51,05,51,048,49,21,24,301,41*7E
$GPGSV,3,2,09,02,30,106,38,15,42,181,49,18,12,250,32,12,,000,27*71
$GPGSV,3,3,09,13,,000,28,,,,,,,,,,,,*48
$GPGST,192523.00,,031.68,031.42,073.0,005.63,005.61,005.85*41
$GPRMC,192523.00,A,3917.26072,N,08203.80494,W,000.0,000.0,231113,07.2,W,A*08
$PTNLRTF,V,V,588323,07,3,3917.26072,N,08203.80494,W,00298,+000.000,+000.000,+000.000,0,0*43
$PTNLRBA,1,1*57
$GPZDA,192524.00,23,11,2013,,*6E
$GPGGA,192524.00,3917.26073,N,08203.80497,W,1,06,1.50,00298,M,-033,M,,*5C
$GPGLL,3917.26073,N,08203.80497,W,192524.00,A,A*75
$GPVTG,000.0,T,007.2,M,000.0,N,000.0,K,A*26
$GPGSA,A,3,29,26,05,21,15,18,,,,,,,2.96,1.50,2.56*0E
$GPGSV,3,1,09,29,65,250,51,26,58,118,51,05,51,048,48,21,24,301,41*7F
$GPGSV,3,2,09,02,30,106,39,15,42,181,49,18,12,250,32,12,,000,26*71
$GPGSV,3,3,09,13,,000,27,,,,,,,,,,,,*47
$GPGST,192524.00,,032.08,031.82,072.9,005.66,005.64,005.88*4A
$GPRMC,192524.00,A,3917.26073,N,08203.80497,W,000.0,000.0,231113,07.2,W,A*0D
$PTNLRTF,V,V,588324,06,3,3917.26073,N,08203.80497,W,00298,+000.000,+000.000,+000.000,0,0*47
$PTNLRBA,1,1*57
$GPZDA,192525.00,23,11,2013,,*6F
$GPGGA,192525.00,3917.26074,N,08203.80496,W,1,07,1.19,00298,M,-033,M,,*57
$GPGLL,3917.26074,N,08203.80496,W,192525.00,A,A*72
$GPVTG,000.0,T,007.2,M,000.0,N,000.0,K,A*26
$GPGSA,A,3,29,26,05,21,02,15,18,,,,,,2.21,1.19,1.86*03
$GPGSV,3,1,09,29,65,250,51,26,58,118,50,05,51,048,48,21,24,301,42*7D
$GPGSV,3,2,09,02,30,106,39,15,42,181,48,18,12,250,33,12,,000,27*70
$GPGSV,3,3,09,13,,000,28,,,,,,,,,,,,*48
$GPGST,192525.00,,033.55,033.29,072.9,005.79,005.77,006.00*4E
$GPRMC,192525.00,A,3917.26074,N,08203.80496,W,000.0,000.0,231113,07.2,W,A*0A
$PTNLRTF,V,V,588325,07,3,3917.26074,N,08203.80496,W,00298,+000.000,+000.000,+000.000,0,0*41
$PTNLRBA,1,1*57
$GPZDA,192526.00,23,11,2013,,*6C
$GPGGA,192526.00,3917.26074,N,08203.80494,W,1,07,1.19,00298,M,-033,M,,*56
$GPGLL,3917.26074,N,08203.80494,W,192526.00,A,A*73
$GPVTG,000.0,T,007.2,M,000.0,N,000.0,K,A*26
$GPGSA,A,3,29,26,05,21,02,15,18,,,,,,2.21,1.19,1.86*03
$GPGSV,3,1,09,29,65,250,51,26,58,118,51,05,51,048,49,21,24,301,42*7D
$GPGSV,3,2,09,02,30,106,39,15,42,181,48,18,12,250,34,12,,000,26*76
$GPGSV,3,3,09,13,,000,28,,,,,,,,,,,,*48
$GPGST,192526.00,,035.46,035.21,072.9,005.95,005.94,006.16*4F
$GPRMC,192526.00,A,3917.26074,N,08203.80494,W,000.0,000.0,231113,07.2,W,A*0B
$PTNLRTF,V,V,588326,07,3,3917.26074,N,08203.80494,W,00298,+000.000,+000.000,+000.000,0,0*40
$PTNLRBA,1,1*57
$GPZDA,192527.00,23,11,2013,,*6D
$GPGGA,192527.00,3917.26075,N,08203.80490,W,1,07,1.19,00298,M,-033,M,,*52
$GPGLL,3917.26075,N,08203.80490,W,192527.00,A,A*77
$GPVTG,000.0,T,007.2,M,000.0,N,000.0,K,A*26
$GPGSA,A,3,29,26,05,21,02,15,18,,,,,,2.21,1.19,1.86*03
$GPGSV,3,1,09,29,65,250,51,26,58,118,51,05,51,048,48,21,24,301,43*7D
$GPGSV,3,2,09,02,30,106,39,15,42,181,48,18,12,250,34,12,,000,25*75
$GPGSV,3,3,09,13,,000,28,,,,,,,,,,,,*48
$GPGST,192527.00,,037.36,037.11,072.9,006.11,006.09,006.30*46
$GPRMC,192527.00,A,3917.26075,N,08203.80490,W,000.0,000.0,231113,07.2,W,A*0F
$PTNLRTF,V,V,588327,07,3,3917.26075,N,08203.80490,W,00298,+000.000,+000.000,+000.000,0,0*44
$PTNLRBA,1,1*57
$GPZDA,192528.00,23,11,2013,,*62
$GPGGA,192528.00,3917.26075,N,08203.80491,W,1,07,1.19,00298,M,-033,M,,*5C
$GPGLL,3917.26075,N,08203.80491,W,192528.00,A,A*79
$GPVTG,000.0,T,007.2,M,000.0,N,000.0,K,A*26
$GPGSA,A,3,29,26,05,21,02,15,18,,,,,,2.21,1.19,1.86*03
$GPGSV,3,1,09,29,65,250,52,26,58,118,50,05,51,048,48,21,24,301,42*7E
$GPGSV,3,2,09,02,30,106,39,15,42,181,48,18,12,250,33,12,,000,27*70
$GPGSV,3,3,09,13,,000,28,,,,,,,,,,,,*48
$GPGST,192528.00,,038.25,038.01,072.9,006.18,006.17,006.37*4B
$GPRMC,192528.00,A,3917.26075,N,08203.80491,W,000.0,000.0,231113,07.2,W,A*01
$PTNLRTF,V,V,588328,07,3,3917.26075,N,08203.80491,W,00298,+000.000,+000.000,+000.000,0,0*4A
$PTNLRBA,1,1*57
$GPZDA,192529.00,23,11,2013,,*63
$GPGGA,192529.00,3917.26077,N,08203.80489,W,1,07,1.19,00298,M,-033,M,,*56
$GPGLL,3917.26077,N,08203.80489,W,192529.00,A,A*73
$GPVTG,000.0,T,007.2,M,000.0,N,000.0,K,A*26
$GPGSA,A,3,29,26,05,21,02,15,18,,,,,,2.21,1.19,1.86*03
$GPGSV,3,1,09,29,65,250,51,26,58,118,51,05,51,048,48,21,24,301,43*7D
