$GPZDA,014935.00,24,12,2013,,*69
$GPGGA,014935.00,4003.48268,N,08254.66493,W,2,08,0.93,00247,M,-033,M,,*5B
$GPGLL,4003.48268,N,08254.66493,W,014935.00,A,D*76
$GPVTG,000.0,T,006.7,M,000.00,N,000.00,K,D*27
$GPGSA,A,3,25,29,31,32,14,20,16,23,,,,,1.75,0.93,1.49*09
$GPGSV,3,1,09,25,20,042,35,29,12,074,30,31,65,029,37,32,60,251,39*7A
$GPGSV,3,2,09,14,32,106,38,20,36,297,37,16,25,193,44,46,43,203,44*79
$GPGSV,3,3,09,23,14,302,33,,,,,,,,,,,,*45
$GPGST,014935.00,,146.57,146.44,020.5,012.10,012.11,012.12*47
$GPRMC,014935.00,A,4003.48268,N,08254.66493,W,000.00,000.0,241213,06.7,W,D*3E
$PTNLRTF,V$GPZDA,014939.00,24,12,2013,,*65
$GPGGA,014939.00,4003.48261,N,08254.66483,W,2,08,0.93,00247,M,-033,M,,*5F
$GPGLL,4003.48261,N,08254.66483,W,014939.00,A,D*72
$GPVTG,000.0,T,006.7,M,000.00,N,000.00,K,D*27
$GPGSA,A,3,25,29,31,32,14,20,16,23,,,,,1.76,0.93,1.49*0A
$GPGSV,3,1,09,25,20,042,31,29,12,074,32,31,65,029,41,32,60,251,38*7C
$GPGSV,3,2,09,14,32,106,35,20,36,297,38,16,25,193,41,46,43,203,44*7E
$GPGSV,3,3,09,23,14,302,40,,,,,,,,,,,,*41
$GPGST,014939.00,,123.67,123.55,020.5,011.12,011.12,011.13*4B
$GPRMC,014939.00,A,4003.48261,N,08254.66483,W,000.00,000.0,241213,06.7,W,D*3A
$PTNLRTF,V,A,179395,08,3,4003.48261,N,08254.66483,W,00247,+000.000,+000.000,+000.000,0,1*50
$PTNLRBA,1,1*57
$GPZDA,014940.00,24,12,2013,,*6B
$GPGGA,014940.00,4003.48258,N,08254.66482,W,2,07,0.99,00247,M,-033,M,,*5F
$GPGLL,4003.48258,N,08254.66482,W,014940.00,A,D*77
$GPVTG,000.0,T,006.7,M,000.00,N,000.00,K,D*27
$GPGSA,A,3,25,29,31,32,14,16,23,,,,,,1.79,0.99,1.49*0D
$GPGSV,3,1,09,25,20,042,27,29,12,074,31,31,65,029,39,32,60,251,38*77
$GPGSV,3,2,09,14,32,106,36,20,36,297,38,16,25,193,42,46,43,203,44*7E
$GPGSV,3,3,09,23,14,302,42,,,,,,,,,,,,*43
$GPGST,014940.00,,122.16,122.04,020.5,011.05,011.05,011.07*42
$GPRMC,014940.00,A,4003.48258,N,08254.66482,W,000.00,000.0,241213,06.7,W,D*3F
$PTNLRTF,V,A,179396,07,3,4003.48258,N,08254.66482,W,00247,+000.000,+000.000,+000.000,0,1*57
$PTNLRBA,1,1*57
$GPZDA,014942.00,24,12,2013,,*69
$GPGGA,014942.00,4003.48252,N,08254.66469,W,2,08,0.93,00247,M,-033,M,,*57
$GPGLL,4003.48252,N,08254.66469,W,014942.00,A,D*7A
$GPVTG,000.0,T,006.7,M,000.00,N,000.00,K,D*27
$GPGSA,A,3,25,29,31,32,14,20,16,23,,,,,1.76,0.93,1.49*0A
$GPGSV,3,1,09,25,20,042,29,29,12,074,28,31,65,029,36,32,60,251,38*7E
$GPGSV,3,2,09,14,32,106,37,20,36,297,37,16,25,193,42,46,43,203,45*71
$GPGSV,3,3,09,23,14,302,41,,,,,,,,,,,,*40
$GPGST,014942.00,,117.88,117.77,020.4,010.85,010.86,010.87*48
$GPRMC,014942.00,A,4003.48252,N,08254.66469,W,000.00,000.0,241213,06.7,W,D*32
$PTNLRTF,V,A,179398,08,3,4003.48252,N,08254.66469,W,00247,+000.000,+000.000,+000.000,0,1*59
$PTNLRBA,1,1*57
$GPZDA,014943.00,24,12,2013,,*68
$GPGGA,014943.00,4003.48250,N,08254.66466,W,2,08,0.93,00247,M,-033,M,,*5B
$GPGLL,4003.48250,N,08254.66466,W,014943.00,A,D*76
$GPVTG,000.0,T,006.7,M,000.00,N,000.00,K,D*27
$GPGSA,A,3,25,29,31,32,14,20,16,23,,,,,1.76,0.93,1.49*0A
$GPGSV,3,1,09,25,20,042,23,29,12,074,26,31,65,029,36,32,60,251,39*7B
$GPGSV,3,2,09,14,32,106,37,20,36,297,37,16,25,193,42,46,43,203,44*70
$GPGSV,3,3,09,23,14,302,42,,,,,,,,,,,,*43
$GPGST,014943.00,,121.86,121.75,020.3,011.03,011.04,011.05*4D
$GPRMC,014943.00,A,4003.48250,N,08254.66466,W,000.00,000.0,241213,06.7,W,D*3E
$PTNLRTF,V,A,179399,08,3,4003.48250,N,08254.66466,W,00247,+000.000,+000.000,+000.000,0,1*55
$PTNLRBA,1,1*57
$GPZDA,014945.00,24,12,2013,,*6E
$GPGGA,014945.00,4003.48245,N,08254.66456,W,2,08,0.93,00247,M,-033,M,,*5A
$GPGLL,4003.48245,N,08254.66456,W,014945.00,A,D*77
$GPVTG,000.0,T,006.7,M,000.00,N,000.00,K,D*27
$GPGSA,A,3,25,29,31,32,14,20,16,23,,,,,1.76,0.93,1.49*0A
$GPGSV,3,1,09,25,20,042,29,29,12,074,26,31,65,029,36,32,60,251,39*71
$GPGSV,3,2,09,14,32,106,37,20,36,297,35,16,25,193,41,46,43,203,44*71
$GPGSV,3,3,09,23,14,302,42,,,,,,,,,,,,*43
$GPGST,014945.00,,129.35,129.24,020.1,011.37,011.37,011.39*4D
$GPRMC,014945.00,A,4003.48245,N,08254.66456,W,000.00,000.0,241213,06.7,W,D*3F
$PTNLRTF,V,A,179401,08,3,4003.48245,N,08254.66456,W,00247,+000.000,+000.000,+000.000,0,1*54
$PTNLRBA,1,1*57
$GPZDA,014946.00,24,12,2013,,*6D
$GPGGA,014946.00,4003.48242,N,08254.66450,W,2,08,0.93,00247,M,-033,M,,*58
$GPGLL,4003.48242,N,08254.66450,W,014946.00,A,D*75
$GPVTG,000.0,T,006.7,M,000.00,N,000.00,K,D*27
$GPGSA,A,3,25,29,31,32,14,20,16,23,,,,,1.76,0.93,1.49*0A
$GPGSV,3,1,09,25,20,042,30,29,12,074,25,31,65,029,36,32,60,251,39*7A
$GPGSV,3,2,09,14,32,106,37,20,36,297,37,16,25,193,42,46,43,203,45*71
$GPGSV,3,3,09,23,14,302,42,,,,,,,,,,,,*43
$GPGST,014946.00,,127.84,127.74,020.0,011.30,011.31,011.32*4A
$GPRMC,014946.00,A,4003.48242,N,08254.66450,W,000.00,000.0,241213,06.7,W,D*3D
$PTNLRTF,V,A,179402,08,3,4003.48242,N,08254.66450,W,00247,+000.000,+000.000,+000.000,0,1*56
$PTNLRBA,1,1*57
$GPZDA,014948.00,24,12,2013,,*63
$GPGGA,014948.00,4003.48237,N,08254.66435,W,2,08,0.93,00247,M,-033,M,,*57
$GPGLL,4003.48237,N,08254.66435,W,014948.00,A,D*7A
$GPVTG,000.0,T,006.7,M,000.00,N,000.00,K,D*27
$GPGSA,A,3,25,29,31,32,14,20,16,23,,,,,1.76,0.93,1.49*0A
$GPGSV,3,1,09,25,20,042,28,29,12,074,24,31,65,029,36,32,60,251,39*72
$GPGSV,3,2,09,14,32,106,36,20,36,297,38,16,25,193,41,46,43,203,45*7C
$GPGSV,3,3,09,23,14,302,42,,,,,,,,,,,,*43
$GPGST,014948.00,,173.14,173.04,019.9,013.15,013.16,013.17*4E
$GPRMC,014948.00,A,4003.48237,N,08254.66435,W,000.00,000.0,241213,06.7,W,D*32
$PTNLRTF,V,A,179404,08,3,4003.48237,N,08254.66435,W,00247,+000.000,+000.000,+000.000,0,1*51
$PTNLRBA,1,1*57
$GPZDA,014949.00,24,12,2013,,*62
$GPGGA,014949.00,4003.48235,N,08254.66428,W,2,07,0.98,00247,M,-033,M,,*5C
$GPGLL,4003.48235,N,08254.66428,W,014949.00,A,D*75
$GPVTG,000.0,T,006.7,M,000.00,N,000.00,K,D*27
$GPGSA,A,3,25,31,32,14,20,16,23,,,,,,1.90,0.98,1.63*0A
$GPGSV,3,1,09,25,20,042,28,29,12,074,27,31,65,029,37,32,60,251,39*70
$GPGSV,3,2,09,14,32,106,37,20,36,297,39,16,25,193,42,46,43,203,45*7F
$GPGSV,3,3,09,23,14,302,42,,,,,,,,,,,,*43
$GPGST,014949.00,,171.55,171.45,019.7,013.09,013.10,013.11*4C
$GPRMC,014949.00,A,4003.48235,N,08254.66428,W,000.00,000.0,241213,06.7,W,D*3D
$PTNLRTF,V,A,179405,07,3,4003.48235,N,08254.66428,W,00247,+000.000,+000.000,+000.000,0,1*51
$PTNLRBA,1,1*57
$GPZDA,014951.00,24,12,2013,,*6B
$GPGGA,014951.00,4003.48232,N,08254.66419,W,2,08,0.93,00247,M,-033,M,,*54
$GPGLL,4003.48232,N,08254.66419,W,014951.00,A,D*79
$GPVTG,000.0,T,006.7,M,000.00,N,000.00,K,D*27
$GPGSA,A,3,25,29,31,32,14,20,16,23,,,,,1.76,0.93,1.49*0A
$GPGSV,3,1,09,25,20,042,27,29,12,074,29,31,65,029,36,32,60,251,38*71
$GPGSV,3,2,09,14,32,106,37,20,36,297,40,16,25,193,42,46,43,203,45*71
$GPGSV,3,3,09,23,14,302,42,,,,,,,,,,,,*43
$GPGST,014951.00,,174.44,174.35,019.5,013.20,013.21,013.22*49
$GPRMC,014951.00,A,4003.48232,N,08254.66419,W,000.00,000.0,241213,06.7,W,D*31
$PTNLRTF,V,A,179407,08,3,4003.48232,N,08254.66419,W,00247,+000.000,+000.000,+000.000,0,1*59
$PTNLRBA,1,1*57
$GPZDA,014952.00,24,12,2013,,*68
$GPGGA,014952.00,4003.48230,N,08254.66413,W,2,08,0.93,00247,M,-033,M,,*5F
$GPGLL,4003.48230,N,08254.66413,W,014952.00,A,D*72
$GPVTG,000.0,T,006.7,M,000.00,N,000.00,K,D*27
$GPGSA,A,3,25,29,31,32,14,20,16,23,,,,,1.76,0.93,1.49*0A
$GPGSV,3,1,09,25,20,042,29,29,12,074,27,31,65,029,36,32,60,251,37*7E
$GPGSV,3,2,09,14,32,106,37,20,36,297,39,16,25,193,40,46,43,203,45*7D
$GPGSV,3,3,09,23,14,302,42,,,,,,,,,,,,*43
$GPGST,014952.00,,172.64,172.54,019.3,013.14,013.14,013.15*4C
$GPRMC,014952.00,A,4003.48230,N,08254.66413,W,000.00,000.0,241213,06.7,W,D*3A
$PTNLRTF,V,A,179408,08,3,4003.48230,N,08254.66413,W,00247,+000.000,+000.000,+000.000,0,1*5E
$PTNLRBA,1,1*57
$GPZDA,014954.00,24,12,2013,,*6E
$GPGGA,014954.00,4003.48226,N,08254.66409,W,2,08,0.93,00247,M,-033,M,,*55
$GPGLL,4003.48226,N,08254.66409,W,014954.00,A,D*78
$GPVTG,000.0,T,006.7,M,000.00,N,000.00,K,D*27
$GPGSA,A,3,25,29,31,32,14,20,16,23,,,,,1.76,0.93,1.49*0A
$GPGSV,3,1,09,25,20,042,27,29,13,074,30,31,65,030,34,32,60,250,36*7D
$GPGSV,3,2,09,14,32,107,37,20,37,297,37,16,26,193,39,46,43,203,43*78
$GPGSV,3,3,09,23,14,303,41,,,,,,,,,,,,*41
$GPGST,014954.00,,149.08,148.99,019.1,012.21,012.21,012.22*47
$GPRMC,014954.00,A,4003.48226,N,08254.66409,W,000.00,000.0,241213,06.7,W,D*30
$PTNLRTF,V,A,179410,08,3,4003.48226,N,08254.66409,W,00247,+000.000,+000.000,+000.000,0,1*5B
$PTNLRBA,1,1*57
$GPZDA,014955.00,24,12,2013,,*6F
$GPGGA,014955.00,4003.48225,N,08254.66406,W,2,08,0.93,00247,M,-033,M,,*58
$GPGLL,4003.48225,N,08254.66406,W,014955.00,A,D*75
$GPVTG,000.0,T,006.7,M,000.00,N,000.00,K,D*27
$GPGSA,A,3,25,29,31,32,14,20,16,23,,,,,1.76,0.93,1.49*0A
$GPGSV,3,1,09,25,20,042,27,29,13,074,31,31,65,030,36,32,60,250,37*7F
$GPGSV,3,2,09,14,32,107,37,20,37,297,38,16,26,193,40,46,43,203,43*79
$GPGSV,3,3,09,23,14,303,41,,,,,,,,,,,,*41
$GPGST,014955.00,,139.71,139.62,019.0,011.82,011.82,011.83*44
$GPRMC,014955.00,A,4003.48225,N,08254.66406,W,000.00,000.0,241213,06.7,W,D*3D
$PTNLRTF,V,A,179412,07,3,4003.48225,N,08254.66406,W,00247,+000.000,+000.000,+000.000,0,1*5A
$PTNLRBA,1,1*57
$GPZDA,014957.00,24,12,2013,,*6D
$GPGGA,014957.00,4003.48222,N,08254.66401,W,2,08,0.93,00247,M,-033,M,,*5A
$GPGLL,4003.48222,N,08254.66401,W,014957.00,A,D*77
$GPVTG,000.0,T,006.7,M,000.00,N,000.00,K,D*27
$GPGSA,A,3,25,29,31,32,14,20,16,23,,,,,1.76,0.93,1.50*02
$GPGSV,3,1,09,25,20,042,27,29,13,074,31,31,65,030,35,32,60,250,37*7C
$GPGSV,3,2,09,14,32,107,37,20,37,297,38,16,26,193,41,46,43,203,44*7F
$GPGSV,3,3,09,23,14,303,42,,,,,,,,,,,,*42
$GPGST,014957.00,,136.60,136.51,018.8,011.68,011.69,011.70*42
$GPRMC,014957.00,A,4003.48222,N,08254.66401,W,000.00,000.0,241213,06.7,W,D*3F
$PTNLRTF,V,A,179413,08,3,4003.48222,N,08254.66401,W,00247,+000.000,+000.000,+000.000,0,1*54
$PTNLRBA,1,1*57
$GPZDA,014959.00,24,12,2013,,*63
$GPGGA,014959.00,4003.48218,N,08254.66392,W,2,08,0.93,00248,M,-033,M,,*5F
$GPGLL,4003.48218,N,08254.66392,W,014959.00,A,D*7D
$GPVTG,000.0,T,006.7,M,000.00,N,000.00,K,D*27
$GPGSA,A,3,25,29,31,32,14,20,16,23,,,,,1.76,0.93,1.50*02
$GPGSV,3,1,09,25,20,042,28,29,13,074,31,31,65,030,36,32,60,250,37*70
$GPGSV,3,2,09,14,32,107,37,20,37,297,38,16,26,193,42,46,43,203,45*7D
$GPGSV,3,3,09,23,14,303,41,,,,,,,,,,,,*41
$GPGST,014959.00,,131.19,131.11,018.7,011.45,011.45,011.47*4C
$GPRMC,014959.00,A,4003.48218,N,08254.66392,W,000.00,000.0,241213,06.7,W,D*35
$PTNLRTF,V,A,179415,08,3,4003.48218,N,08254.66392,W,00248,+000.000,+000.000,+000.000,0,1*59
$PTNLRBA,1,1*57
$GPZDA,015000.00,24,12,2013,,*67
$GPGGA,015000.00,4003.48216,N,08254.66388,W,2,07,1.02,00248,M,-033,M,,*58
$GPGLL,4003.48216,N,08254.66388,W,015000.00,A,D*7C
$GPVTG,000.0,T,006.7,M,000.00,N,000.00,K,D*27
$GPGSA,A,3,29,31,32,14,20,16,23,,,,,,1.83,1.02,1.51*07
$GPGSV,3,1,09,25,20,042,28,29,13,074,33,31,65,030,36,32,60,250,37*72
$GPGSV,3,2,09,14,32,107,38,20,37,297,39,16,26,193,41,46,43,203,44*71
$GPGSV,3,3,09,23,14,303,40,,,,,,,,,,,,*40
$GPGST,015000.00,,124.92,124.84,018.6,011.17,011.18,011.19*42
$GPRMC,015000.00,A,4003.48216,N,08254.66388,W,000.00,000.0,241213,06.7,W,D*34
$PTNLRTF,V,A,179416,07,3,4003.48216,N,08254.66388,W,00248,+000.000,+000.000,+000.000,0,1*50
$PTNLRBA,1,1*57
