$GPZDA,213903.00,12,02,2014,,*6A
$GPGGA,213903.00,3917.26154,N,08203.79189,W,1,03,3.10,00317,M,-033,M,,*52
$GPGLL,3917.26154,N,08203.79189,W,213903.00,A,A*7E
$GPVTG,029.8,T,037.0,M,003.3,N,006.2,K,A*20
$GPGSA,A,2,32,14,25,,,,,,,,,,3.26,3.10,1.00*04
$GPGSV,3,1,09,32,60,285,44,14,45,088,40,01,14,272,33,20,25,311,36*7A
$GPGSV,3,2,09,22,16,160,34,25,35,052,41,31,77,327,44,29,05,093,35*73
$GPGSV,3,3,09,46,39,203,37,,,,,,,,,,,,*4D
$GPGST,213903.00,,108.11,032.53,081.8,010.32,005.84,015.95*4D
$GPRMC,213903.00,A,3917.26154,N,08203.79189,W,003.3,029.8,120214,07.2,W,A*02
$PTNLRTF,V,A,337159,03,$GPZDA,213904.00,12,02,2014,,*6D
$GPGGA,213904.00,3917.26145,N,08203.79095,W,1,04,3.89,00315,M,-033,M,,*5C
$GPGLL,3917.26145,N,08203.79095,W,213904.00,A,A*75
$GPVTG,135.3,T,142.5,M,003.3,N,006.1,K,A*22
$GPGSA,A,3,32,14,25,31,,,,,,,,,7.68,3.89,6.62*0A
$GPGSV,3,1,09,32,60,285,46,14,45,088,42,01,14,272,31,20,25,311,37*79
$GPGSV,3,2,09,22,16,160,35,25,35,052,44,31,77,327,45,29,05,093,38*7B
$GPGSV,3,3,09,46,39,203,36,,,,,,,,,,,,*4C
$GPGST,213904.00,,093.89,030.17,081.5,009.62,005.62,015.10*4F
$GPRMC,213904.00,A,3917.26145,N,08203.79095,W,003.3,135.3,120214,07.2,W,A*0E
$PTNLRTF,V,A,337160,04,3,3917.26145,N,08203.79095,W,00315,+001.185,-001.197,-000.123,0,1*50
$PTNLRBA,1,1*57
$GPZDA,213906.00,12,02,2014,,*6F
$GPGGA,213906.00,3917.26046,N,08203.79070,W,1,04,3.89,00314,M,-033,M,,*56
$GPGLL,3917.26046,N,08203.79070,W,213906.00,A,A*7E
$GPVTG,189.5,T,196.7,M,000.7,N,001.4,K,A*2D
$GPGSA,A,3,32,14,25,31,,,,,,,,,7.67,3.89,6.61*06
$GPGSV,3,1,09,32,60,285,43,14,45,088,40,01,14,272,29,20,25,311,37*77
$GPGSV,3,2,09,22,16,160,35,25,35,052,39,31,77,327,44,29,05,093,39*71
$GPGSV,3,3,09,46,39,203,40,,,,,,,,,,,,*4D
$GPGST,213906.00,,077.28,026.04,081.7,008.73,005.21,013.85*47
$GPRMC,213906.00,A,3917.26046,N,08203.79070,W,000.7,189.5,120214,07.2,W,A*03
$PTNLRTF,V,A,337162,04,3,3917.26046,N,08203.79070,W,00314,-000.063,-000.377,+000.008,0,1*57
$PTNLRBA,1,1*57
$GPZDA,213907.00,12,02,2014,,*6E
$GPGGA,213907.00,3917.25955,N,08203.79070,W,1,04,3.88,00311,M,-033,M,,*5B
$GPGLL,3917.25955,N,08203.79070,W,213907.00,A,A*77
$GPVTG,151.8,T,159.0,M,001.1,N,002.0,K,A*21
$GPGSA,A,3,32,14,25,31,,,,,,,,,7.67,3.88,6.61*07
$GPGSV,3,1,09,32,60,285,34,14,45,088,30,01,14,272,28,20,25,311,42*73
$GPGSV,3,2,09,22,16,160,37,25,35,052,37,31,77,327,33,29,05,093,31*75
$GPGSV,3,3,09,46,39,203,40,,,,,,,,,,,,*4D
$GPGST,213907.00,,088.26,039.67,081.8,009.34,006.38,014.13*4D
$GPRMC,213907.00,A,3917.25955,N,08203.79070,W,001.1,151.8,120214,07.2,W,A*05
$PTNLRTF,V,A,337163,04,3,3917.25955,N,08203.79070,W,00311,+000.261,-000.486,-000.032,0,1*5B
$PTNLRBA,1,1*57
$GPZDA,213908.00,12,02,2014,,*61
$GPGGA,213908.00,3917.26026,N,08203.79091,W,1,02,1.00,00312,M,-033,M,,*52
$GPGLL,3917.26026,N,08203.79091,W,213908.00,A,A*79
$GPVTG,019.8,T,027.0,M,000.3,N,000.5,K,A*20
$GPGSA,A,2,14,25,,,,,,,,,,,0.00,0.00,0.00*01
$GPGSV,3,1,09,32,60,285,28,14,45,088,32,01,14,272,30,20,25,311,37*77
$GPGSV,3,2,09,22,16,160,36,25,35,052,37,31,77,327,33,29,05,093,36*73
$GPGSV,3,3,09,46,39,203,38,,,,,,,,,,,,*42
$GPGST,213908.00,,128.37,081.66,081.9,011.29,009.09,015.49*4C
$GPRMC,213908.00,A,3917.26026,N,08203.79091,W,000.3,019.8,120214,07.2,W,A*05
$PTNLRTF,V,A,337164,02,2,3917.26026,N,08203.79091,W,00312,+000.048,+000.134,-000.003,0,1*58
$PTNLRBA,1,1*57
$GPZDA,213910.00,12,02,2014,,*68
$GPGGA,213910.00,3917.26218,N,08203.79223,W,1,04,3.88,00308,M,-033,M,,*50
$GPGLL,3917.26218,N,08203.79223,W,213910.00,A,A*74
$GPVTG,051.3,T,058.5,M,000.3,N,000.5,K,A*2A
$GPGSA,A,3,32,14,25,31,,,,,,,,,7.66,3.88,6.60*07
$GPGSV,3,1,09,32,60,285,37,14,45,088,32,01,14,272,29,20,25,311,37*71
$GPGSV,3,2,09,22,16,160,30,25,35,052,38,31,77,327,27,29,05,093,35*7C
$GPGSV,3,3,09,46,39,203,34,,,,,,,,,,,,*4E
$GPGST,213910.00,,182.29,136.54,082.7,013.47,011.72,017.00*4B
$GPRMC,213910.00,A,3917.26218,N,08203.79223,W,000.3,051.3,120214,07.2,W,A*0F
$PTNLRTF,V,A,337166,04,3,3917.26218,N,08203.79223,W,00308,+000.115,+000.092,-000.013,0,1*57
$PTNLRBA,1,1*57
$GPZDA,213911.00,12,02,2014,,*69
$GPGGA,213911.00,3917.26250,N,08203.79251,W,1,02,1.00,00308,M,-033,M,,*5C
$GPGLL,3917.26250,N,08203.79251,W,213911.00,A,A*7C
$GPVTG,290.8,T,298.0,M,000.7,N,001.4,K,A*21
$GPGSA,A,2,14,25,,,,,,,,,,,0.00,0.00,0.00*01
$GPGSV,3,1,09,32,60,285,40,14,45,088,34,01,14,272,27,20,25,311,40*79
$GPGSV,3,2,09,22,16,160,35,25,35,052,37,31,77,327,39,29,05,093,37*7B
$GPGSV,3,3,09,46,39,203,42,,,,,,,,,,,,*4F
$GPGST,213911.00,,168.76,124.52,082.7,012.96,011.19,016.60*46
$GPRMC,213911.00,A,3917.26250,N,08203.79251,W,000.7,290.8,120214,07.2,W,A*07
$PTNLRTF,V,A,337167,02,2,3917.26250,N,08203.79251,W,00308,-000.352,+000.134,-000.004,0,1*54
$PTNLRBA,1,1*57
$GPZDA,213913.00,12,02,2014,,*6B
$GPGGA,213913.00,3917.26249,N,08203.79173,W,1,04,3.87,00310,M,-033,M,,*57
$GPGLL,3917.26249,N,08203.79173,W,213913.00,A,A*75
$GPVTG,152.1,T,159.3,M,001.0,N,001.8,K,A*22
$GPGSA,A,3,32,14,25,31,,,,,,,,,7.65,3.87,6.60*0B
$GPGSV,3,1,09,32,60,285,41,14,45,088,30,01,14,272,28,20,25,311,43*70
$GPGSV,3,2,09,22,16,160,33,25,35,052,33,31,77,327,43,29,05,093,27*75
$GPGSV,3,3,09,46,39,203,36,,,,,,,,,,,,*4C
$GPGST,213913.00,,158.87,115.83,084.0,012.59,010.78,015.76*47
$GPRMC,213913.00,A,3917.26249,N,08203.79173,W,001.0,152.1,120214,07.2,W,A*0C
$PTNLRTF,V,A,337169,04,3,3917.26249,N,08203.79173,W,00310,+000.238,-000.449,-000.001,0,1*58
$PTNLRBA,1,1*57
$GPZDA,213914.00,12,02,2014,,*6C
$GPGGA,213914.00,3917.26321,N,08203.79163,W,1,03,23.0,00311,M,-033,M,,*55
$GPGLL,3917.26321,N,08203.79163,W,213914.00,A,A*7C
$GPVTG,160.6,T,167.8,M,000.9,N,001.7,K,A*25
$GPGSA,A,2,32,25,31,,,,,,,,,,23.0,23.0,1.00*06
$GPGSV,3,1,09,32,60,285,44,14,45,088,36,01,14,272,33,20,25,311,44*7E
$GPGSV,3,2,09,22,16,160,28,25,35,052,37,31,77,327,37,29,05,093,31*7F
$GPGSV,3,3,09,46,39,203,40,,,,,,,,,,,,*4D
$GPGST,213914.00,,156.10,112.97,085.7,012.48,010.64,015.43*4F
$GPRMC,213914.00,A,3917.26321,N,08203.79163,W,000.9,160.6,120214,07.2,W,A*0B
$PTNLRTF,V,A,337170,03,2,3917.26321,N,08203.79163,W,00311,+000.159,-000.451,+000.012,0,1*50
$PTNLRBA,1,1*57
