$GPZDA,014508.00,24,12,2013,,*6B
$GPGGA,014508.00,4003.48381,N,08254.66603,W,2,09,0.87,00248,M,-033,M,,*5F
$GPGLL,4003.48381,N,08254.66603,W,014508.00,A,D*79
$GPVTG,000.0,T,006.7,M,000.00,N,000.00,K,D*27
$GPGSA,A,3,25,01,29,31,32,14,20,16,23,,,,1.51,0.87,1.23*07
$GPGSV,3,1,10,25,22,043,31,01,06,257,43,29,12,076,35,31,67,026,37*74
$GPGSV,3,2,10,32,61,255,34,14,33,105,40,20,35,299,29,16,23,193,45*7E
$GPGSV,3,3,10,46,43,203,43,23,12,302,43,,,,,,,,*7F
$GPGST,014508.00,,268.20,268.12,085.3,016.38,016.37,016.39*4C
$GPRMC,014508.00,A,4003.48381,N,08254.66603,W,000.00,000.0,241213,06.7,W,D*31$GPZDA,014510.00,24,12,2013,,*62
$GPGGA,014510.00,4003.48380,N,08254.66604,W,2,09,0.87,00248,M,-033,M,,*50
$GPGLL,4003.48380,N,08254.66604,W,014510.00,A,D*76
$GPVTG,000.0,T,006.7,M,000.00,N,000.00,K,D*27
$GPGSA,A,3,25,01,29,31,32,14,20,16,23,,,,1.51,0.87,1.23*07
$GPGSV,3,1,10,25,22,043,31,01,06,257,44,29,12,076,36,31,66,027,37*70
$GPGSV,3,2,10,32,61,255,34,14,33,105,40,20,35,299,26,16,23,193,45*71
$GPGSV,3,3,10,46,43,203,44,23,12,302,43,,,,,,,,*78
$GPGST,014510.00,,248.38,248.30,085.3,015.76,015.76,015.77*4A
$GPRMC,014510.00,A,4003.48380,N,08254.66604,W,000.00,000.0,241213,06.7,W,D*3E
$PTNLRTF,V,A,179127,08,3,4003.48380,N,08254.66604,W,00248,+000.000,+000.000,+000.000,0,1*57
$PTNLRBA,1,1*57
$GPZDA,014512.00,24,12,2013,,*60
$GPGGA,014512.00,4003.48381,N,08254.66608,W,2,09,0.87,00248,M,-033,M,,*5F
$GPGLL,4003.48381,N,08254.66608,W,014512.00,A,D*79
$GPVTG,000.0,T,006.7,M,000.00,N,000.00,K,D*27
$GPGSA,A,3,25,01,29,31,32,14,20,16,23,,,,1.51,0.87,1.23*07
$GPGSV,3,1,10,25,22,043,31,01,06,257,43,29,12,076,36,31,66,027,36*76
$GPGSV,3,2,10,32,61,255,34,14,33,105,41,20,35,299,35,16,23,193,45*72
$GPGSV,3,3,10,46,43,203,44,23,12,302,43,,,,,,,,*78
$GPGST,014512.00,,225.96,225.89,085.3,015.03,015.03,015.04*4A
$GPRMC,014512.00,A,4003.48381,N,08254.66608,W,000.00,000.0,241213,06.7,W,D*31
$PTNLRTF,V,A,179128,09,3,4003.48381,N,08254.66608,W,00248,+000.000,+000.000,+000.000,0,1*54
$PTNLRBA,1,1*57
$GPZDA,014514.00,24,12,2013,,*66
$GPGGA,014514.00,4003.48382,N,08254.66611,W,2,09,0.87,00247,M,-033,M,,*5D
$GPGLL,4003.48382,N,08254.66611,W,014514.00,A,D*74
$GPVTG,000.0,T,006.7,M,000.00,N,000.00,K,D*27
$GPGSA,A,3,25,01,29,31,32,14,20,16,23,,,,1.51,0.87,1.23*07
$GPGSV,3,1,10,25,22,043,32,01,06,257,43,29,12,076,35,31,66,027,36*76
$GPGSV,3,2,10,32,61,255,34,14,33,105,40,20,35,299,28,16,23,193,44*7E
$GPGSV,3,3,10,46,43,203,43,23,12,302,43,,,,,,,,*7F
$GPGST,014514.00,,215.53,215.46,085.3,014.68,014.68,014.69*4C
$GPRMC,014514.00,A,4003.48382,N,08254.66611,W,000.00,000.0,241213,06.7,W,D*3C
$PTNLRTF,V,A,179130,09,3,4003.48382,N,08254.66611,W,00247,+000.000,+000.000,+000.000,0,1*59
$PTNLRBA,1,1*57
$GPZDA,014515.00,24,12,2013,,*67
$GPGGA,014515.00,4003.48383,N,08254.66612,W,2,09,0.87,00247,M,-033,M,,*5E
$GPGLL,4003.48383,N,08254.66612,W,014515.00,A,D*77
$GPVTG,000.0,T,006.7,M,000.00,N,000.00,K,D*27
$GPGSA,A,3,25,01,29,31,32,14,20,16,23,,,,1.51,0.87,1.23*07
$GPGSV,3,1,10,25,22,043,32,01,06,257,43,29,12,076,33,31,66,027,36*70
$GPGSV,3,2,10,32,61,255,36,14,33,105,43,20,35,299,25,16,23,193,44*72
$GPGSV,3,3,10,46,43,203,43,23,12,302,44,,,,,,,,*78
$GPGST,014515.00,,217.68,217.61,085.4,014.75,014.75,014.77*48
$GPRMC,014515.00,A,4003.48383,N,08254.66612,W,000.00,000.0,241213,06.7,W,D*3F
$PTNLRTF,V,A,179131,09,3,4003.48383,N,08254.66612,W,00247,+000.000,+000.000,+000.000,0,1*5A
$PTNLRBA,1,1*57
$GPZDA,014517.00,24,12,2013,,*65
$GPGGA,014517.00,4003.48385,N,08254.66613,W,2,09,0.87,00247,M,-033,M,,*5B
$GPGLL,4003.48385,N,08254.66613,W,014517.00,A,D*72
$GPVTG,000.0,T,006.7,M,000.00,N,000.00,K,D*27
$GPGSA,A,3,25,01,29,31,32,14,20,16,23,,,,1.51,0.87,1.23*07
$GPGSV,3,1,10,25,22,043,34,01,06,257,45,29,12,076,30,31,66,027,36*73
$GPGSV,3,2,10,32,61,255,36,14,33,105,41,20,35,299,26,16,23,193,45*72
$GPGSV,3,3,10,46,43,203,45,23,12,302,45,,,,,,,,*7F
$GPGST,014517.00,,235.71,235.64,085.5,015.35,015.35,015.36*42
$GPRMC,014517.00,A,4003.48385,N,08254.66613,W,000.00,000.0,241213,06.7,W,D*3A
$PTNLRTF,V,A,179133,09,3,4003.48385,N,08254.66613,W,00247,+000.000,+000.000,+000.000,0,1*5F
$PTNLRBA,1,1*57
$GPZDA,014518.00,24,12,2013,,*6A
$GPGGA,014518.00,4003.48386,N,08254.66612,W,2,08,0.93,00247,M,-033,M,,*52
$GPGLL,4003.48386,N,08254.66612,W,014518.00,A,D*7F
$GPVTG,000.0,T,006.7,M,000.00,N,000.00,K,D*27
$GPGSA,A,3,25,01,29,31,32,14,16,23,,,,,1.56,0.93,1.25*01
$GPGSV,3,1,10,25,22,043,34,01,06,257,44,29,12,076,32,31,66,027,38*7E
$GPGSV,3,2,10,32,61,255,34,14,33,105,41,20,35,299,27,16,23,193,47*73
$GPGSV,3,3,10,46,43,203,45,23,12,302,47,,,,,,,,*7D
$GPGST,014518.00,,227.72,227.64,085.5,015.09,015.09,015.10*4A
$GPRMC,014518.00,A,4003.48386,N,08254.66612,W,000.00,000.0,241213,06.7,W,D*37
$PTNLRTF,V,A,179134,08,3,4003.48386,N,08254.66612,W,00247,+000.000,+000.000,+000.000,0,1*5B
$PTNLRBA,1,1*57
$GPZDA,014520.00,24,12,2013,,*61
$GPGGA,014520.00,4003.48388,N,08254.66611,W,2,09,0.87,00247,M,-033,M,,*50
$GPGLL,4003.48388,N,08254.66611,W,014520.00,A,D*79
$GPVTG,000.0,T,006.7,M,000.00,N,000.00,K,D*27
$GPGSA,A,3,25,01,29,31,32,14,20,16,23,,,,1.51,0.87,1.23*07
$GPGSV,3,1,10,25,22,043,34,01,06,257,44,29,12,076,31,31,66,027,37*72
$GPGSV,3,2,10,32,61,255,33,14,33,105,42,20,35,299,27,16,23,193,47*77
$GPGSV,3,3,10,46,43,203,44,23,12,302,46,,,,,,,,*7D
$GPGST,014520.00,,210.32,210.25,085.6,014.50,014.50,014.51*47
$GPRMC,014520.00,A,4003.48388,N,08254.66611,W,000.00,000.0,241213,06.7,W,D*31
$PTNLRTF,V,A,179136,09,3,4003.48388,N,08254.66611,W,00247,+000.000,+000.000,+000.000,0,1*55
$PTNLRBA,1,1*57
$GPZDA,014521.00,24,12,2013,,*60
$GPGGA,014521.00,4003.48386,N,08254.66611,W,2,09,0.87,00247,M,-033,M,,*5F
$GPGLL,4003.48386,N,08254.66611,W,014521.00,A,D*76
$GPVTG,000.0,T,006.7,M,000.00,N,000.00,K,D*27
$GPGSA,A,3,25,01,29,31,32,14,20,16,23,,,,1.51,0.87,1.23*07
$GPGSV,3,1,10,25,22,043,33,01,06,257,44,29,12,076,32,31,66,027,38*79
$GPGSV,3,2,10,32,61,255,33,14,33,105,42,20,35,299,28,16,23,193,47*78
$GPGSV,3,3,10,46,43,203,44,23,12,302,48,,,,,,,,*73
$GPGST,014521.00,,199.23,199.16,085.7,014.12,014.11,014.13*42
$GPRMC,014521.00,A,4003.48386,N,08254.66611,W,000.00,000.0,241213,06.7,W,D*3E
$PTNLRTF,V,A,179137,09,3,4003.48386,N,08254.66611,W,00247,+000.000,+000.000,+000.000,0,1*5A
$PTNLRBA,1,1*57
$GPZDA,014523.00,24,12,2013,,*62
$GPGGA,014523.00,4003.48385,N,08254.66610,W,2,09,0.87,00247,M,-033,M,,*5F
$GPGLL,4003.48385,N,08254.66610,W,014523.00,A,D*76
$GPVTG,000.0,T,006.7,M,000.00,N,000.00,K,D*27
$GPGSA,A,3,25,01,29,31,32,14,20,16,23,,,,1.51,0.87,1.23*07
$GPGSV,3,1,10,25,22,043,33,01,06,257,46,29,12,076,35,31,66,027,38*7C
$GPGSV,3,2,10,32,61,255,33,14,33,105,42,20,35,299,30,16,23,193,47*71
$GPGSV,3,3,10,46,43,203,45,23,12,302,49,,,,,,,,*73
$GPGST,014523.00,,187.25,187.18,085.8,013.68,013.68,013.70*46
$GPRMC,014523.00,A,4003.48385,N,08254.66610,W,000.00,000.0,241213,06.7,W,D*3E
$PTNLRTF,V,A,179139,09,3,4003.48385,N,08254.66610,W,00247,+000.000,+000.000,+000.000,0,1*56
$PTNLRBA,1,1*57
$GPZDA,014524.00,24,12,2013,,*65
$GPGGA,014524.00,4003.48384,N,08254.66611,W,2,09,0.87,00247,M,-033,M,,*58
$GPGLL,4003.48384,N,08254.66611,W,014524.00,A,D*71
$GPVTG,000.0,T,006.7,M,000.00,N,000.00,K,D*27
$GPGSA,A,3,25,01,29,31,32,14,20,16,23,,,,1.51,0.87,1.23*07
$GPGSV,3,1,10,25,22,043,34,01,06,257,46,29,12,076,36,31,66,027,40*77
$GPGSV,3,2,10,32,61,255,31,14,33,105,43,20,35,299,27,16,23,193,48*7B
$GPGSV,3,3,10,46,43,203,44,23,12,302,47,,,,,,,,*7C
$GPGST,014524.00,,185.78,185.70,085.8,013.63,013.63,013.64*42
$GPRMC,014524.00,A,4003.48384,N,08254.66611,W,000.00,000.0,241213,06.7,W,D*39
$PTNLRTF,V,A,179140,09,3,4003.48384,N,08254.66611,W,00247,+000.000,+000.000,+000.000,0,1*58
$PTNLRBA,1,1*57
$GPZDA,014526.00,24,12,2013,,*67
$GPGGA,014526.00,4003.48382,N,08254.66612,W,2,07,1.00,00247,M,-033,M,,*5F
$GPGLL,4003.48382,N,08254.66612,W,014526.00,A,D*76
$GPVTG,000.0,T,006.7,M,000.00,N,000.00,K,D*27
$GPGSA,A,3,25,01,31,32,14,16,23,,,,,,1.73,1.00,1.42*07
$GPGSV,3,1,10,25,22,043,32,01,06,257,45,29,12,076,36,31,66,027,40*72
$GPGSV,3,2,10,32,61,255,31,14,33,105,42,20,35,299,32,16,23,193,47*71
$GPGSV,3,3,10,46,43,203,45,23,12,302,48,,,,,,,,*72
$GPGST,014526.00,,192.31,192.24,085.9,013.87,013.87,013.88*4F
$GPRMC,014526.00,A,4003.48382,N,08254.66612,W,000.00,000.0,241213,06.7,W,D*3E
$PTNLRTF,V,A,179142,07,3,4003.48382,N,08254.66612,W,00247,+000.000,+000.000,+000.000,0,1*51
$PTNLRBA,1,1*57
$GPZDA,014527.00,24,12,2013,,*66
$GPGGA,014527.00,4003.48381,N,08254.66612,W,2,08,0.94,00247,M,-033,M,,*5E
$GPGLL,4003.48381,N,08254.66612,W,014527.00,A,D*74
$GPVTG,000.0,T,006.7,M,000.00,N,000.00,K,D*27
$GPGSA,A,3,25,01,31,32,14,20,16,23,,,,,1.67,0.94,1.38*01
$GPGSV,3,1,10,25,22,043,29,01,06,257,45,29,12,076,37,31,66,027,38*76
$GPGSV,3,2,10,32,61,255,32,14,33,105,42,20,35,299,27,16,23,193,46*77
$GPGSV,3,3,10,46,43,203,45,23,12,302,47,,,,,,,,*7D
$GPGST,014527.00,,195.74,195.67,086.0,013.99,013.99,014.00*45
$GPRMC,014527.00,A,4003.48381,N,08254.66612,W,000.00,000.0,241213,06.7,W,D*3C
$PTNLRTF,V,A,179143,08,3,4003.48381,N,08254.66612,W,00247,+000.000,+000.000,+000.000,0,1*5C
$PTNLRBA,1,1*57
$GPZDA,014529.00,24,12,2013,,*68
$GPGGA,014529.00,4003.48379,N,08254.66611,W,2,09,0.87,00247,M,-033,M,,*57
$GPGLL,4003.48379,N,08254.66611,W,014529.00,A,D*7E
$GPVTG,000.0,T,006.7,M,000.00,N,000.00,K,D*27
$GPGSA,A,3,25,01,29,31,32,14,20,16,23,,,,1.51,0.87,1.23*07
$GPGSV,3,1,10,25,22,043,33,01,06,257,47,29,12,076,35,31,66,027,38*7D
$GPGSV,3,2,10,32,61,255,30,14,33,105,42,20,35,299,33,16,23,193,46*70
$GPGSV,3,3,10,46,43,203,44,23,12,302,47,,,,,,,,*7C
$GPGST,014529.00,,207.64,207.57,086.0,014.41,014.41,014.42*4F
$GPRMC,014529.00,A,4003.48379,N,08254.66611,W,000.00,000.0,241213,06.7,W,D*36
$PTNLRTF,V,A,179145,09,3,4003.48379,N,08254.66611,W,00247,+000.000,+000.000,+000.000,0,1*5F
$PTNLRBA,1,1*57
$GPZDA,014530.00,24,12,2013,,*60
$GPGGA,014530.00,4003.48379,N,08254.66609,W,2,09,0.87,00247,M,-033,M,,*56
$GPGLL,4003.48379,N,08254.66609,W,014530.00,A,D*7F
$GPVTG,000.0,T,006.7,M,000.00,N,000.00,K,D*27
$GPGSA,A,3,25,01,29,31,32,14,20,16,23,,,,1.51,0.87,1.23*07
$GPGSV,3,1,10,25,22,043,33,01,06,257,46,29,12,076,36,31,66,027,38*7F
$GPGSV,3,2,10,32,61,255,29,14,33,105,42,20,35,299,31,16,23,193,46*7A
$GPGSV,3,3,10,46,43,203,45,23,12,302,47,,,,,,,,*7D
$GPGST,014530.00,,211.39,211.32,086.1,014.54,014.54,014.55*4B
$GPRMC,014530.00,A,4003.48379,N,08254.66609,W,000.00,000.0,241213,06.7,W,D*37
$PTNLRTF,V,A,179146,09,3,4003.48379,N,08254.66609,W,00247,+000.000,+000.000,+000.000,0,1*55
$PTNLRBA,1,1*57
$GPZDA,014532.00,24,12,2013,,*62
$GPGGA,014532.00,4003.48379,N,08254.66609,W,2,09,0.87,00247,M,-033,M,,*54
$GPGLL,4003.48379,N,08254.66609,W,014532.00,A,D*7D
$GPVTG,000.0,T,006.7,M,000.00,N,000.00,K,D*27
$GPGSA,A,3,25,01,29,31,32,14,20,16,23,,,,1.51,0.87,1.23*07
$GPGSV,3,1,10,25,22,043,35,01,06,257,46,29,12,076,33,31,66,027,38*7C
$GPGSV,3,2,10,32,61,255,30,14,33,105,42,20,35,299,31,16,23,193,47*73
$GPGSV,3,3,10,46,43,203,45,23,12,302,47,,,,,,,,*7D
$GPGST,014532.00,,201.53,201.46,086.1,014.20,014.19,014.21*4F
$GPRMC,014532.00,A,4003.48379,N,08254.66609,W,000.00,000.0,241213,06.7,W,D*35
$PTNLRTF,V,A,179148,09,3,4003.48379,N,08254.66609,W,00247,+000.000,+000.000,+000.000,0,1*5B
$PTNLRBA,1,1*57
