$GPZDA,025951.00,07,02,2014,,*6E
$GPGGA,025951.00,3917.26428,N,08203.79804,W,2,11,0.88,00295,M,-033,M,,*59
$GPGLL,3917.26428,N,08203.79804,W,025951.00,A,D*79
$GPVTG,000.0,T,007.2,M,000.00,N,000.00,K,D*23
$GPGSA,A,3,09,08,07,23,13,19,16,11,03,06,27,,1.59,0.88,1.32*05
$GPGSV,3,1,11,09,10,307,38,08,16,305,43,07,47,314,32,23,37,192,25*79
$GPGSV,3,2,11,13,59,234,38,19,64,151,37,16,36,055,36,11,16,165,33*71
$GPGSV,3,3,11,03,71,081,34,06,45,055,43,27,55,064,30,,,,*46
$GPGST,025951.00,,104.09,104.04,087.6,010.20,010.20,010.22*46
$GPRMC,025951.00,A,3917.26428,N,08203.79804,W,000.00,000.0,070214,07.2,W,D*32
$PTNLRTF,V,A,4428$GPZDA,025952.00,07,02,2014,,*6D
$GPGGA,025952.00,3917.26428,N,08203.79805,W,2,10,0.91,00295,M,-033,M,,*52
$GPGLL,3917.26428,N,08203.79805,W,025952.00,A,D*7B
$GPVTG,000.0,T,007.2,M,000.00,N,000.00,K,D*23
$GPGSA,A,3,09,08,07,23,13,19,16,11,03,06,,,1.61,0.91,1.33*02
$GPGSV,3,1,11,09,11,307,38,08,16,305,43,07,47,314,32,23,36,192,25*79
$GPGSV,3,2,11,13,58,233,39,19,64,150,37,16,36,055,36,11,16,165,33*77
$GPGSV,3,3,11,03,71,081,34,06,45,055,43,27,55,063,28,,,,*48
$GPGST,025952.00,,102.05,102.01,087.6,010.10,010.10,010.12*4F
$GPRMC,025952.00,A,3917.26428,N,08203.79805,W,000.00,000.0,070214,07.2,W,D*30
$PTNLRTF,V,A,442808,10,3,3917.26428,N,08203.79805,W,00295,+000.000,+000.000,+000.000,0,1*52
$PTNLRBA,1,1*57
$GPZDA,025954.00,07,02,2014,,*6B
$GPGGA,025954.00,3917.26440,N,08203.79799,W,1,11,0.88,00295,M,-033,M,,*5A
$GPGLL,3917.26440,N,08203.79799,W,025954.00,A,A*7C
$GPVTG,071.9,T,079.1,M,000.0,N,000.1,K,A*22
$GPGSA,A,3,09,08,07,23,13,19,16,11,03,06,27,,1.59,0.88,1.32*05
$GPGSV,3,1,11,09,11,307,38,08,16,305,43,07,47,314,32,23,36,192,24*78
$GPGSV,3,2,11,13,58,233,39,19,64,150,35,16,36,055,37,11,16,165,34*73
$GPGSV,3,3,11,03,71,081,34,06,45,055,43,27,55,063,28,,,,*48
$GPGST,025954.00,,096.57,096.50,085.9,009.83,009.82,009.85*40
$GPRMC,025954.00,A,3917.26440,N,08203.79799,W,000.0,071.9,070214,07.2,W,A*08
$PTNLRTF,V,A,442810,11,3,3917.26440,N,08203.79799,W,00295,+000.023,+000.007,-000.034,0,1*59
$PTNLRBA,1,1*57
$GPZDA,025955.00,07,02,2014,,*6A
$GPGGA,025955.00,3917.26439,N,08203.79801,W,1,11,0.88,00295,M,-033,M,,*5B
$GPGLL,3917.26439,N,08203.79801,W,025955.00,A,A*7D
$GPVTG,000.0,T,007.2,M,000.0,N,000.0,K,A*26
$GPGSA,A,3,09,08,07,23,13,19,16,11,03,06,27,,1.59,0.88,1.32*05
$GPGSV,3,1,11,09,11,307,38,08,16,305,44,07,47,314,33,23,36,192,25*7F
$GPGSV,3,2,11,13,58,233,39,19,64,150,35,16,36,055,36,11,16,165,34*72
$GPGSV,3,3,11,03,71,081,34,06,45,055,44,27,55,063,28,,,,*4F
$GPGST,025955.00,,091.24,091.18,088.8,009.55,009.55,009.57*4B
$GPRMC,025955.00,A,3917.26439,N,08203.79801,W,000.0,000.0,070214,07.2,W,A*06
$PTNLRTF,V,A,442811,11,3,3917.26439,N,08203.79801,W,00295,+000.000,+000.000,+000.000,0,1*5F
$PTNLRBA,1,1*57
$GPZDA,025957.00,07,02,2014,,*68
$GPGGA,025957.00,3917.26438,N,08203.79800,W,1,11,0.88,00295,M,-033,M,,*59
$GPGLL,3917.26438,N,08203.79800,W,025957.00,A,A*7F
$GPVTG,000.0,T,007.2,M,000.0,N,000.0,K,A*26
$GPGSA,A,3,09,08,07,23,13,19,16,11,03,06,27,,1.59,0.88,1.32*05
$GPGSV,3,1,11,09,11,307,38,08,16,305,44,07,47,314,33,23,36,192,21*7B
$GPGSV,3,2,11,13,58,233,39,19,64,150,35,16,36,055,36,11,16,165,34*72
$GPGSV,3,3,11,03,71,081,33,06,45,055,43,27,55,063,29,,,,*4E
$GPGST,025957.00,,083.57,083.52,089.5,009.14,009.14,009.16*4A
$GPRMC,025957.00,A,3917.26438,N,08203.79800,W,000.0,000.0,070214,07.2,W,A*04
$PTNLRTF,V,A,442813,11,3,3917.26438,N,08203.79800,W,00295,+000.000,+000.000,+000.000,0,1*5D
$PTNLRBA,1,1*57
$GPZDA,025958.00,07,02,2014,,*67
$GPGGA,025958.00,3917.26437,N,08203.79800,W,1,11,0.88,00295,M,-033,M,,*59
$GPGLL,3917.26437,N,08203.79800,W,025958.00,A,A*7F
$GPVTG,000.0,T,007.2,M,000.0,N,000.0,K,A*26
$GPGSA,A,3,09,08,07,23,13,19,16,11,03,06,27,,1.59,0.88,1.32*05
$GPGSV,3,1,11,09,11,307,38,08,16,305,43,07,47,314,34,23,36,192,21*7B
$GPGSV,3,2,11,13,58,233,39,19,64,150,35,16,36,055,36,11,16,165,34*72
$GPGSV,3,3,11,03,71,081,32,06,45,055,43,27,55,063,28,,,,*4E
$GPGST,025958.00,,089.36,089.31,089.7,009.45,009.45,009.47*41
$GPRMC,025958.00,A,3917.26437,N,08203.79800,W,000.0,000.0,070214,07.2,W,A*04
$PTNLRTF,V,A,442814,11,3,3917.26437,N,08203.79800,W,00295,+000.000,+000.000,+000.000,0,1*55
$PTNLRBA,1,1*57
$GPZDA,030000.00,07,02,2014,,*67
$GPGGA,030000.00,3917.26435,N,08203.79800,W,1,10,0.96,00295,M,-033,M,,*55
$GPGLL,3917.26435,N,08203.79800,W,030000.00,A,A*7D
$GPVTG,000.0,T,007.2,M,000.0,N,000.0,K,A*26
$GPGSA,A,3,09,08,07,13,19,16,11,03,06,27,,,1.63,0.96,1.32*02
$GPGSV,3,1,11,09,11,307,38,08,16,305,43,07,47,314,34,23,36,192,23*79
$GPGSV,3,2,11,13,58,233,39,19,64,150,35,16,36,055,36,11,16,165,34*72
$GPGSV,3,3,11,03,71,081,31,06,45,055,43,27,55,063,27,,,,*42
$GPGST,030000.00,,091.50,091.45,089.8,009.57,009.56,009.58*42
$GPRMC,030000.00,A,3917.26435,N,08203.79800,W,000.0,000.0,070214,07.2,W,A*06
$PTNLRTF,V,A,442816,10,3,3917.26435,N,08203.79800,W,00295,+000.000,+000.000,+000.000,0,1*54
$PTNLRBA,1,1*57
$GPZDA,030001.00,07,02,2014,,*66
$GPGGA,030001.00,3917.26433,N,08203.79799,W,1,10,0.96,00295,M,-033,M,,*5D
$GPGLL,3917.26433,N,08203.79799,W,030001.00,A,A*75
$GPVTG,000.0,T,007.2,M,000.0,N,000.0,K,A*26
$GPGSA,A,3,09,08,07,13,19,16,11,03,06,27,,,1.63,0.96,1.32*02
$GPGSV,3,1,11,09,11,307,38,08,16,305,43,07,47,314,35,23,36,192,22*79
$GPGSV,3,2,11,13,58,233,39,19,64,150,35,16,36,055,35,11,16,165,33*76
$GPGSV,3,3,11,03,71,081,32,06,45,055,43,27,55,063,26,,,,*40
$GPGST,030001.00,,095.85,095.80,089.6,009.79,009.79,009.81*49
$GPRMC,030001.00,A,3917.26433,N,08203.79799,W,000.0,000.0,070214,07.2,W,A*0E
$PTNLRTF,V,A,442817,10,3,3917.26433,N,08203.79799,W,00295,+000.000,+000.000,+000.000,0,1*5C
$PTNLRBA,1,1*57
$GPZDA,030003.00,07,02,2014,,*64
$GPGGA,030003.00,3917.26430,N,08203.79798,W,1,11,0.88,00295,M,-033,M,,*53
$GPGLL,3917.26430,N,08203.79798,W,030003.00,A,A*75
$GPVTG,000.0,T,007.2,M,000.0,N,000.0,K,A*26
$GPGSA,A,3,09,08,07,23,13,19,16,11,03,06,27,,1.59,0.88,1.32*05
$GPGSV,3,1,11,09,11,307,38,08,16,305,43,07,47,314,35,23,36,192,20*7B
$GPGSV,3,2,11,13,58,233,39,19,64,150,34,16,36,055,35,11,16,165,34*70
$GPGSV,3,3,11,03,71,081,31,06,45,055,43,27,55,063,29,,,,*4C
$GPGST,030003.00,,102.89,102.84,089.4,010.14,010.14,010.16*47
$GPRMC,030003.00,A,3917.26430,N,08203.79798,W,000.0,000.0,070214,07.2,W,A*0E
$PTNLRTF,V,A,442819,11,3,3917.26430,N,08203.79798,W,00295,+000.000,+000.000,+000.000,0,1*51
$PTNLRBA,1,1*57
$GPZDA,030004.00,07,02,2014,,*63
$GPGGA,030004.00,3917.26429,N,08203.79798,W,1,11,0.88,00295,M,-033,M,,*5C
$GPGLL,3917.26429,N,08203.79798,W,030004.00,A,A*7A
$GPVTG,000.0,T,007.2,M,000.0,N,000.0,K,A*26
$GPGSA,A,3,09,08,07,23,13,19,16,11,03,06,27,,1.59,0.88,1.32*05
$GPGSV,3,1,11,09,11,307,38,08,16,305,43,07,47,314,35,23,36,192,23*78
$GPGSV,3,2,11,13,58,233,39,19,64,150,34,16,36,055,36,11,16,165,34*73
$GPGSV,3,3,11,03,71,081,31,06,45,055,43,27,55,063,29,,,,*4C
$GPGST,030004.00,,107.89,107.84,089.3,010.39,010.38,010.40*45
$GPRMC,030004.00,A,3917.26429,N,08203.79798,W,000.0,000.0,070214,07.2,W,A*01
$PTNLRTF,V,A,442820,11,3,3917.26429,N,08203.79798,W,00295,+000.000,+000.000,+000.000,0,1*53
$PTNLRBA,1,1*57
$GPZDA,030006.00,07,02,2014,,*61
$GPGGA,030006.00,3917.26427,N,08203.79797,W,1,11,0.88,00295,M,-033,M,,*5F
$GPGLL,3917.26427,N,08203.79797,W,030006.00,A,A*79
$GPVTG,000.0,T,007.2,M,000.0,N,000.0,K,A*26
$GPGSA,A,3,09,08,07,23,13,19,16,11,03,06,27,,1.59,0.88,1.32*05
$GPGSV,3,1,11,09,11,307,38,08,16,305,43,07,47,314,35,23,36,192,21*7A
$GPGSV,3,2,11,13,58,233,40,19,64,150,35,16,36,055,36,11,16,165,34*7C
$GPGSV,3,3,11,03,71,081,32,06,45,055,43,27,55,063,30,,,,*47
$GPGST,030006.00,,127.88,127.83,089.2,011.31,011.31,011.32*45
$GPRMC,030006.00,A,3917.26427,N,08203.79797,W,000.0,000.0,070214,07.2,W,A*02
$PTNLRTF,V,A,442822,11,3,3917.26427,N,08203.79797,W,00295,+000.000,+000.000,+000.000,0,1*50
$PTNLRBA,1,1*57
$GPZDA,030007.00,07,02,2014,,*60
$GPGGA,030007.00,3917.26427,N,08203.79797,W,1,11,0.88,00295,M,-033,M,,*5E
$GPGLL,3917.26427,N,08203.79797,W,030007.00,A,A*78
$GPVTG,000.0,T,007.2,M,000.0,N,000.0,K,A*26
$GPGSA,A,3,09,08,07,23,13,19,16,11,03,06,27,,1.59,0.88,1.32*05
$GPGSV,3,1,11,09,11,307,38,08,16,305,43,07,47,314,34,23,36,192,22*78
$GPGSV,3,2,11,13,58,233,40,19,64,150,34,16,36,055,36,11,16,165,33*7A
$GPGSV,3,3,11,03,71,080,33,06,45,055,44,27,55,063,31,,,,*41
$GPGST,030007.00,,123.46,123.41,089.0,011.11,011.11,011.13*49
$GPRMC,030007.00,A,3917.26427,N,08203.79797,W,000.0,000.0,070214,07.2,W,A*03
$PTNLRTF,V,A,442823,11,3,3917.26427,N,08203.79797,W,00295,+000.000,+000.000,+000.000,0,1*51
$PTNLRBA,1,1*57
$GPZDA,030009.00,07,02,2014,,*6E
$GPGGA,030009.00,3917.26428,N,08203.79798,W,1,11,0.88,00295,M,-033,M,,*50
$GPGLL,3917.26428,N,08203.79798,W,030009.00,A,A*76
$GPVTG,000.0,T,007.2,M,000.0,N,000.0,K,A*26
$GPGSA,A,3,09,08,07,23,13,19,16,11,03,06,27,,1.59,0.88,1.32*05
$GPGSV,3,1,11,09,11,307,38,08,16,305,43,07,47,314,34,23,36,192,25*7F
$GPGSV,3,2,11,13,58,233,40,19,64,150,34,16,36,055,37,11,16,165,34*7C
$GPGSV,3,3,11,03,71,080,33,06,45,055,44,27,55,063,31,,,,*41
$GPGST,030009.00,,109.99,109.93,088.7,010.49,010.48,010.50*4B
$GPRMC,030009.00,A,3917.26428,N,08203.79798,W,000.0,000.0,070214,07.2,W,A*0D
$PTNLRTF,V,A,442825,11,3,3917.26428,N,08203.79798,W,00295,+000.000,+000.000,+000.000,0,1*57
$PTNLRBA,1,1*57
$GPZDA,030010.00,07,02,2014,,*66
$GPGGA,030010.00,3917.26428,N,08203.79799,W,1,11,0.88,00295,M,-033,M,,*59
$GPGLL,3917.26428,N,08203.79799,W,030010.00,A,A*7F
$GPVTG,000.0,T,007.2,M,000.0,N,000.0,K,A*26
$GPGSA,A,3,09,08,07,23,13,19,16,11,03,06,27,,1.59,0.88,1.32*05
$GPGSV,3,1,11,09,11,307,39,08,16,305,43,07,47,314,33,23,36,192,23*7F
$GPGSV,3,2,11,13,58,233,40,19,64,150,35,16,36,055,37,11,16,165,34*7D
$GPGSV,3,3,11,03,71,080,34,06,45,055,43,27,55,063,30,,,,*40
$GPGST,030010.00,,103.09,103.04,088.6,010.15,010.15,010.17*47
$GPRMC,030010.00,A,3917.26428,N,08203.79799,W,000.0,000.0,070214,07.2,W,A*04
$PTNLRTF,V,A,442826,11,3,3917.26428,N,08203.79799,W,00295,+000.000,+000.000,+000.000,0,1*55
$PTNLRBA,1,1*57
$GPZDA,030012.00,07,02,2014,,*64
$GPGGA,030012.00,3917.26429,N,08203.79800,W,1,11,0.88,00295,M,-033,M,,*55
$GPGLL,3917.26429,N,08203.79800,W,030012.00,A,A*73
$GPVTG,000.0,T,007.2,M,000.0,N,000.0,K,A*26
$GPGSA,A,3,09,08,07,23,13,19,16,11,03,06,27,,1.59,0.88,1.32*05
$GPGSV,3,1,11,09,11,307,39,08,16,305,43,07,47,314,33,23,36,192,24*78
$GPGSV,3,2,11,13,58,233,40,19,64,150,35,16,36,055,36,11,16,165,34*7C
$GPGSV,3,3,11,03,71,080,34,06,45,055,43,27,55,063,29,,,,*48
$GPGST,030012.00,,089.06,089.01,088.4,009.44,009.43,009.46*46
$GPRMC,030012.00,A,3917.26429,N,08203.79800,W,000.0,000.0,070214,07.2,W,A*08
$PTNLRTF,V,A,442828,11,3,3917.26429,N,08203.79800,W,00295,+000.000,+000.000,+000.000,0,1*55
$PTNLRBA,1,1*57
$GPZDA,030013.00,07,02,2014,,*65
$GPGGA,030013.00,3917.26430,N,08203.79800,W,1,11,0.88,00295,M,-033,M,,*5C
$GPGLL,3917.26430,N,08203.79800,W,030013.00,A,A*7A
$GPVTG,000.0,T,007.2,M,000.0,N,000.0,K,A*26
$GPGSA,A,3,09,08,07,23,13,19,16,11,03,06,27,,1.59,0.88,1.32*05
$GPGSV,3,1,11,09,11,307,39,08,16,305,44,07,47,314,33,23,36,192,23*78
$GPGSV,3,2,11,13,58,233,39,19,64,150,35,16,36,055,36,11,16,165,33*75
$GPGSV,3,3,11,03,71,080,34,06,45,055,43,27,55,063,29,,,,*48
$GPGST,030013.00,,083.60,083.55,088.3,009.14,009.14,009.16*43
$GPRMC,030013.00,A,3917.26430,N,08203.79800,W,000.0,000.0,070214,07.2,W,A*01
$PTNLRTF,V,A,442829,11,3,3917.26430,N,08203.79800,W,00295,+000.000,+000.000,+000.000,0,1*5C
$PTNLRBA,1,1*57
$GPZDA,030015.00,07,02,2014,,*63
$GPGGA,030015.00,3917.26430,N,08203.79800,W,1,11,0.88,00295,M,-033,M,,*5A
$GPGLL,3917.26430,N,08203.79800,W,030015.00,A,A*7C
$GPVTG,000.0,T,007.2,M,000.0,N,000.0,K,A*26
$GPGSA,A,3,09,08,07,23,13,19,16,11,03,06,27,,1.59,0.88,1.32*05
$GPGSV,3,1,11,09,11,307,39,08,16,305,44,07,47,314,32,23,36,192,24*7E
$GPGSV,3,2,11,13,58,233,39,19,64,150,35,16,36,055,35,11,16,165,33*76
$GPGSV,3,3,11,03,71,080,34,06,45,055,43,27,55,063,28,,,,*49
$GPGST,030015.00,,073.81,073.76,088.2,008.59,008.59,008.61*4B
$GPRMC,030015.00,A,3917.26430,N,08203.79800,W,000.0,000.0,070214,07.2,W,A*07
$PTNLRTF,V,A,442831,11,3,3917.26430,N,08203.79800,W,00295,+000.000,+000.000,+000.000,0,1*55
$PTNLRBA,1,1*57
$GPZDA,030016.00,07,02,2014,,*60
$GPGGA,030016.00,3917.26430,N,08203.79800,W,1,11,0.88,00295,M,-033,M,,*59
$GPGLL,3917.26430,N,08203.79800,W,030016.00,A,A*7F
$GPVTG,000.0,T,007.2,M,000.0,N,000.0,K,A*26
$GPGSA,A,3,09,08,07,23,13,19,16,11,03,06,27,,1.59,0.88,1.32*05
$GPGSV,3,1,11,09,11,307,39,08,16,305,44,07,47,314,32,23,36,192,23*79
$GPGSV,3,2,11,13,58,233,40,19,64,150,35,16,36,055,35,11,16,165,33*78
$GPGSV,3,3,11,03,71,080,34,06,45,055,44,27,55,063,28,,,,*4E
$GPGST,030016.00,,069.90,069.85,088.1,008.36,008.36,008.38*4B
$GPRMC,030016.00,A,3917.26430,N,08203.79800,W,000.0,000.0,070214,07.2,W,A*04
$PTNLRTF,V,A,442832,11,3,3917.26430,N,08203.79800,W,00295,+000.000,+000.000,+000.000,0,1*56
$PTNLRBA,1,1*57
$GPZDA,030018.00,07,02,2014,,*6E
$GPGGA,030018.00,3917.26429,N,08203.79800,W,1,11,0.88,00295,M,-033,M,,*5F
$GPGLL,3917.26429,N,08203.79800,W,030018.00,A,A*79
$GPVTG,000.0,T,007.2,M,000.0,N,000.0,K,A*26
$GPGSA,A,3,09,08,07,23,13,19,16,11,03,06,27,,1.59,0.88,1.32*05
$GPGSV,3,1,11,09,11,307,39,08,16,305,43,07,47,314,32,23,36,192,22*7F
$GPGSV,3,2,11,13,58,233,39,19,64,150,34,16,36,055,34,11,16,165,33*76
$GPGSV,3,3,11,03,71,080,34,06,45,055,43,27,55,063,28,,,,*49
$GPGST,030018.00,,072.48,072.43,088.0,008.51,008.51,008.53*46
$GPRMC,030018.00,A,3917.26429,N,08203.79800,W,000.0,000.0,070214,07.2,W,A*02
$PTNLRTF,V,A,442834,11,3,3917.26429,N,08203.79800,W,00295,+000.000,+000.000,+000.000,0,1*58
$PTNLRBA,1,1*57
$GPZDA,030019.00,07,02,2014,,*6F
$GPGGA,030019.00,3917.26429,N,08203.79800,W,1,11,0.88,00295,M,-033,M,,*5E
$GPGLL,3917.26429,N,08203.79800,W,030019.00,A,A*78
$GPVTG,000.0,T,007.2,M,000.0,N,000.0,K,A*26
$GPGSA,A,3,09,08,07,23,13,19,16,11,03,06,27,,1.59,0.88,1.32*05
$GPGSV,3,1,11,09,11,307,39,08,16,305,43,07,47,314,31,23,36,192,22*7C
$GPGSV,3,2,11,13,58,233,39,19,64,150,34,16,36,055,34,11,16,165,32*77
$GPGSV,3,3,11,03,71,080,34,06,45,055,44,27,55,063,28,,,,*4E
$GPGST,030019.00,,074.08,074.03,088.0,008.61,008.60,008.63*45
$GPRMC,030019.00,A,3917.26429,N,08203.79800,W,000.0,000.0,070214,07.2,W,A*03
$PTNLRTF,V,A,442835,11,3,3917.26429,N,08203.79800,W,00295,+000.000,+000.000,+000.000,0,1*59
$PTNLRBA,1,1*57
$GPZDA,030021.00,07,02,2014,,*64
$GPGGA,030021.00,3917.26428,N,08203.79799,W,1,11,0.88,00295,M,-033,M,,*5B
$GPGLL,3917.26428,N,08203.79799,W,030021.00,A,A*7D
$GPVTG,000.0,T,007.2,M,000.0,N,000.0,K,A*26
$GPGSA,A,3,09,08,07,23,13,19,16,11,03,06,27,,1.59,0.88,1.32*05
$GPGSV,3,1,11,09,11,307,39,08,16,305,42,07,47,314,31,23,36,192,19*75
$GPGSV,3,2,11,13,58,233,39,19,64,150,33,16,36,055,34,11,16,165,33*71
$GPGSV,3,3,11,03,71,080,35,06,45,055,44,27,55,063,28,,,,*4F
$GPGST,030021.00,,067.96,067.91,087.9,008.24,008.24,008.27*45
$GPRMC,030021.00,A,3917.26428,N,08203.79799,W,000.0,000.0,070214,07.2,W,A*06
$PTNLRTF,V,A,442837,11,3,3917.26428,N,08203.79799,W,00295,+000.000,+000.000,+000.000,0,1*55
$PTNLRBA,1,1*57
$GPZDA,030022.00,07,02,2014,,*67
$GPGGA,030022.00,3917.26428,N,08203.79800,W,1,11,0.88,00295,M,-033,M,,*57
$GPGLL,3917.26428,N,08203.79800,W,030022.00,A,A*71
$GPVTG,000.0,T,007.2,M,000.0,N,000.0,K,A*26
$GPGSA,A,3,09,08,07,23,13,19,16,11,03,06,27,,1.59,0.88,1.32*05
$GPGSV,3,1,11,09,11,307,39,08,16,305,42,07,47,314,29,23,36,192,20*76
$GPGSV,3,2,11,13,58,233,39,19,64,150,34,16,36,055,34,11,16,165,32*77
$GPGSV,3,3,11,03,71,080,34,06,45,055,44,27,55,063,28,,,,*4E
$GPGST,030022.00,,068.94,068.89,087.8,008.30,008.30,008.32*48
$GPRMC,030022.00,A,3917.26428,N,08203.79800,W,000.0,000.0,070214,07.2,W,A*0A
$PTNLRTF,V,A,442838,11,3,3917.26428,N,08203.79800,W,00295,+000.000,+000.000,+000.000,0,1*55
$PTNLRBA,1,1*57
$GPZDA,030024.00,07,02,2014,,*61
$GPGGA,030024.00,3917.26428,N,08203.79800,W,1,10,0.96,00295,M,-033,M,,*5F
$GPGLL,3917.26428,N,08203.79800,W,030024.00,A,A*77
$GPVTG,000.0,T,007.2,M,000.0,N,000.0,K,A*26
$GPGSA,A,3,09,08,07,13,19,16,11,03,06,27,,,1.63,0.96,1.32*02
$GPGSV,3,1,11,09,11,307,40,08,16,305,42,07,47,314,30,23,36,192,17*74
$GPGSV,3,2,11,13,58,233,39,19,64,150,33,16,36,055,34,11,16,165,33*71
$GPGSV,3,3,11,03,71,080,34,06,45,055,43,27,55,063,26,,,,*47
$GPGST,030024.00,,075.17,075.12,087.7,008.67,008.67,008.69*46
$GPRMC,030024.00,A,3917.26428,N,08203.79800,W,000.0,000.0,070214,07.2,W,A*0C
$PTNLRTF,V,A,442840,10,3,3917.26428,N,08203.79800,W,00295,+000.000,+000.000,+000.000,0,1*5B
$PTNLRBA,1,1*57
$GPZDA,030025.00,07,02,2014,,*60
$GPGGA,030025.00,3917.26428,N,08203.79800,W,1,10,0.96,00295,M,-033,M,,*5E
$GPGLL,3917.26428,N,08203.79800,W,030025.00,A,A*76
$GPVTG,000.0,T,007.2,M,000.0,N,000.0,K,A*26
$GPGSA,A,3,09,08,07,13,19,16,11,03,06,27,,,1.63,0.96,1.32*02
$GPGSV,3,1,11,09,11,307,40,08,16,305,42,07,47,314,30,23,36,192,19*7A
$GPGSV,3,2,11,13,58,233,39,19,64,150,33,16,36,055,34,11,16,165,33*71
$GPGSV,3,3,11,03,71,080,33,06,45,055,43,27,55,063,26,,,,*40
$GPGST,030025.00,,073.11,073.06,087.7,008.55,008.55,008.57*49
$GPRMC,030025.00,A,3917.26428,N,08203.79800,W,000.0,000.0,070214,07.2,W,A*0D
$PTNLRTF,V,A,442841,10,3,3917.26428,N,08203.79800,W,00295,+000.000,+000.000,+000.000,0,1*5A
$PTNLRBA,1,1*57
$GPZDA,030027.00,07,02,2014,,*62
$GPGGA,030027.00,3917.26427,N,08203.79801,W,1,10,0.96,00295,M,-033,M,,*52
$GPGLL,3917.26427,N,08203.79801,W,030027.00,A,A*7A
$GPVTG,000.0,T,007.2,M,000.0,N,000.0,K,A*26
$GPGSA,A,3,09,08,07,13,19,16,11,03,06,27,,,1.63,0.96,1.32*02
$GPGSV,3,1,11,09,11,307,40,08,16,305,42,07,47,314,30,23,36,192,17*74
$GPGSV,3,2,11,13,58,233,39,19,64,150,33,16,36,055,34,11,16,165,33*71
$GPGSV,3,3,11,03,71,080,33,06,45,055,44,27,55,063,26,,,,*47
$GPGST,030027.00,,076.77,076.72,087.6,008.76,008.76,008.78*44
$GPRMC,030027.00,A,3917.26427,N,08203.79801,W,000.0,000.0,070214,07.2,W,A*01
$PTNLRTF,V,A,442843,10,3,3917.26427,N,08203.79801,W,00295,+000.000,+000.000,+000.000,0,1*56
$PTNLRBA,1,1*57
$GPZDA,030028.00,07,02,2014,,*6D
$GPGGA,030028.00,3917.26427,N,08203.79801,W,1,10,0.96,00295,M,-033,M,,*5D
$GPGLL,3917.26427,N,08203.79801,W,030028.00,A,A*75
$GPVTG,000.0,T,007.2,M,000.0,N,000.0,K,A*26
$GPGSA,A,3,09,08,07,13,19,16,11,03,06,27,,,1.63,0.96,1.32*02
$GPGSV,3,1,11,09,11,307,40,08,16,305,42,07,47,314,31,23,36,192,14*76
$GPGSV,3,2,11,13,58,233,39,19,64,150,33,16,36,055,34,11,16,165,33*71
$GPGSV,3,3,11,03,71,080,33,06,45,055,43,27,55,063,26,,,,*40
$GPGST,030028.00,,084.83,084.78,087.6,009.21,009.21,009.23*45
$GPRMC,030028.00,A,3917.26427,N,08203.79801,W,000.0,000.0,070214,07.2,W,A*0E
$PTNLRTF,V,A,442844,10,3,3917.26427,N,08203.79801,W,00295,+000.000,+000.000,+000.000,0,1*51
$PTNLRBA,1,1*57
$GPZDA,030030.00,07,02,2014,,*64
$GPGGA,030030.00,3917.26427,N,08203.79802,W,1,10,0.96,00295,M,-033,M,,*57
$GPGLL,3917.26427,N,08203.79802,W,030030.00,A,A*7F
$GPVTG,000.0,T,007.2,M,000.0,N,000.0,K,A*26
$GPGSA,A,3,09,08,07,13,19,16,11,03,06,27,,,1.63,0.96,1.32*02
$GPGSV,3,1,11,09,11,307,40,08,16,305,42,07,47,314,31,23,36,192,18*7A
$GPGSV,3,2,11,13,58,233,39,19,64,150,34,16,36,055,34,11,16,165,33*76
$GPGSV,3,3,11,03,71,080,34,06,45,055,44,27,55,063,25,,,,*43
$GPGST,030030.00,,083.80,083.76,087.6,009.15,009.15,009.17*46
$GPRMC,030030.00,A,3917.26427,N,08203.79802,W,000.0,000.0,070214,07.2,W,A*04
$PTNLRTF,V,A,442846,10,3,3917.26427,N,08203.79802,W,00295,+000.000,+000.000,+000.000,0,1*50
$PTNLRBA,1,1*57
$GPZDA,030031.00,07,02,2014,,*65
$GPGGA,030031.00,3917.26427,N,08203.79803,W,1,10,0.96,00295,M,-033,M,,*57
$GPGLL,3917.26427,N,08203.79803,W,030031.00,A,A*7F
$GPVTG,000.0,T,007.2,M,000.0,N,000.0,K,A*26
$GPGSA,A,3,09,08,07,13,19,16,11,03,06,27,,,1.63,0.96,1.32*02
$GPGSV,3,1,11,09,11,307,40,08,16,305,42,07,47,314,31,23,36,192,22*73
$GPGSV,3,2,11,13,58,233,39,19,64,150,34,16,36,055,35,11,16,165,33*77
$GPGSV,3,3,11,03,71,080,33,06,45,055,44,27,55,063,25,,,,*44
$GPGST,030031.00,,089.30,089.26,087.6,009.45,009.45,009.47*4C
$GPRMC,030031.00,A,3917.26427,N,08203.79803,W,000.0,000.0,070214,07.2,W,A*04
$PTNLRTF,V,A,442847,10,3,3917.26427,N,08203.79803,W,00295,+000.000,+000.000,+000.000,0,1*50
$PTNLRBA,1,1*57
$GPZDA,030033.00,07,02,2014,,*67
$GPGGA,030033.00,3917.26427,N,08203.79803,W,1,10,0.96,00295,M,-033,M,,*55
$GPGLL,3917.26427,N,08203.79803,W,030033.00,A,A*7D
$GPVTG,000.0,T,007.2,M,000.0,N,000.0,K,A*26
$GPGSA,A,3,09,08,07,13,19,16,11,03,06,27,,,1.63,0.96,1.33*03
$GPGSV,3,1,11,09,11,307,39,08,16,305,42,07,47,314,31,23,36,192,20*7F
$GPGSV,3,2,11,13,58,233,39,19,64,150,34,16,36,055,34,11,16,165,33*76
$GPGSV,3,3,11,03,71,080,33,06,45,055,44,27,55,063,22,,,,*43
$GPGST,030033.00,,136.63,136.59,087.6,011.69,011.69,011.70*4D
$GPRMC,030033.00,A,3917.26427,N,08203.79803,W,000.0,000.0,070214,07.2,W,A*06
$PTNLRTF,V,A,442849,10,3,3917.26427,N,08203.79803,W,00295,+000.000,+000.000,+000.000,0,1*5E
$PTNLRBA,1,1*57
$GPZDA,030034.00,07,02,2014,,*60
$GPGGA,030034.00,3917.26427,N,08203.79804,W,1,09,0.98,00295,M,-033,M,,*53
$GPGLL,3917.26427,N,08203.79804,W,030034.00,A,A*7D
$GPVTG,000.0,T,007.2,M,000.0,N,000.0,K,A*26
$GPGSA,A,3,09,08,07,13,19,16,11,03,06,,,,1.66,0.98,1.34*0A
$GPGSV,3,1,11,09,11,307,39,08,16,305,42,07,47,314,33,23,36,192,19*77
$GPGSV,3,2,11,13,58,233,39,19,64,150,33,16,36,055,34,11,16,165,33*71
$GPGSV,3,3,11,03,71,080,33,06,45,055,44,27,55,063,23,,,,*42
$GPGST,030034.00,,127.02,126.98,087.6,011.27,011.27,011.29*4D
$GPRMC,030034.00,A,3917.26427,N,08203.79804,W,000.0,000.0,070214,07.2,W,A*06
$PTNLRTF,V,A,442850,09,3,3917.26427,N,08203.79804,W,00295,+000.000,+000.000,+000.000,0,1*59
$PTNLRBA,1,1*57
$GPZDA,030036.00,07,02,2014,,*62
$GPGGA,030036.00,3917.26427,N,08203.79805,W,1,10,0.96,00295,M,-033,M,,*56
$GPGLL,3917.26427,N,08203.79805,W,030036.00,A,A*7E
$GPVTG,000.0,T,007.2,M,000.0,N,000.0,K,A*26
$GPGSA,A,3,09,08,07,13,19,16,11,03,06,27,,,1.63,0.96,1.33*03
$GPGSV,3,1,11,09,11,307,39,08,16,305,42,07,47,314,33,23,36,192,16*78
$GPGSV,3,2,11,13,58,233,39,19,64,150,34,16,36,055,34,11,16,165,33*76
$GPGSV,3,3,11,03,71,080,33,06,45,055,44,27,55,063,27,,,,*46
$GPGST,030036.00,,117.66,117.61,087.5,010.85,010.84,010.86*4C
$GPRMC,030036.00,A,3917.26427,N,08203.79805,W,000.0,000.0,070214,07.2,W,A*05
$PTNLRTF,V,A,442852,10,3,3917.26427,N,08203.79805,W,00295,+000.000,+000.000,+000.000,0,1*52
$PTNLRBA,1,1*57
$GPZDA,030037.00,07,02,2014,,*63
$GPGGA,030037.00,3917.26427,N,08203.79805,W,1,10,0.96,00295,M,-033,M,,*57
$GPGLL,3917.26427,N,08203.79805,W,030037.00,A,A*7F
$GPVTG,000.0,T,007.2,M,000.0,N,000.0,K,A*26
$GPGSA,A,3,09,08,07,13,19,16,11,03,06,27,,,1.63,0.96,1.33*03
$GPGSV,3,1,11,09,11,307,39,08,16,305,42,07,47,314,33,23,36,192,17*79
$GPGSV,3,2,11,13,58,233,40,19,64,150,34,16,36,055,34,11,16,165,33*78
$GPGSV,3,3,11,03,71,080,34,06,45,055,44,27,55,063,28,,,,*4E
$GPGST,030037.00,,110.86,110.82,087.5,010.53,010.53,010.55*41
$GPRMC,030037.00,A,3917.26427,N,08203.79805,W,000.0,000.0,070214,07.2,W,A*04
$PTNLRTF,V,A,442853,10,3,3917.26427,N,08203.79805,W,00295,+000.000,+000.000,+000.000,0,1*53
$PTNLRBA,1,1*57
$GPZDA,030039.00,07,02,2014,,*6D
$GPGGA,030039.00,3917.26427,N,08203.79805,W,1,11,0.88,00295,M,-033,M,,*57
$GPGLL,3917.26427,N,08203.79805,W,030039.00,A,A*71
$GPVTG,000.0,T,007.2,M,000.0,N,000.0,K,A*26
$GPGSA,A,3,09,08,07,23,13,19,16,11,03,06,27,,1.59,0.88,1.33*04
$GPGSV,3,1,11,09,11,307,39,08,16,305,41,07,47,314,33,23,36,192,16*7B
$GPGSV,3,2,11,13,58,233,40,19,64,150,34,16,36,055,34,11,16,165,33*78
$GPGSV,3,3,11,03,71,080,34,06,45,055,44,27,55,063,28,,,,*4E
$GPGST,030039.00,,610.96,610.91,087.5,024.72,024.72,024.72*4E
$GPRMC,030039.00,A,3917.26427,N,08203.79805,W,000.0,000.0,070214,07.2,W,A*0A
$PTNLRTF,V,A,442855,11,3,3917.26427,N,08203.79805,W,00295,+000.000,+000.000,+000.000,0,1*54
$PTNLRBA,1,1*57
$GPZDA,030040.00,07,02,2014,,*63
$GPGGA,030040.00,3917.26428,N,08203.79806,W,1,11,0.88,00295,M,-033,M,,*55
$GPGLL,3917.26428,N,08203.79806,W,030040.00,A,A*73
$GPVTG,000.0,T,007.2,M,000.0,N,000.0,K,A*26
$GPGSA,A,3,09,08,07,23,13,19,16,11,03,06,27,,1.59,0.88,1.33*04
$GPGSV,3,1,11,09,11,307,39,08,16,305,42,07,47,314,33,23,36,192,19*77
$GPGSV,3,2,11,13,58,233,40,19,64,150,34,16,36,055,34,11,16,165,33*78
$GPGSV,3,3,11,03,71,080,34,06,45,055,43,27,55,063,28,,,,*49
$GPGST,030040.00,,051.44,051.39,087.5,032.43,032.43,032.43*48
$GPRMC,030040.00,A,3917.26428,N,08203.79806,W,000.0,000.0,070214,07.2,W,A*08
$PTNLRTF,V,A,442856,11,3,3917.26428,N,08203.79806,W,00295,+000.000,+000.000,+000.000,0,1*5B
$PTNLRBA,1,1*57
$GPZDA,030042.00,07,02,2014,,*61
$GPGGA,030042.00,3917.26430,N,08203.79806,W,1,11,0.88,00295,M,-033,M,,*5E
$GPGLL,3917.26430,N,08203.79806,W,030042.00,A,A*78
$GPVTG,000.0,T,007.2,M,000.0,N,000.0,K,A*26
$GPGSA,A,3,09,08,07,23,13,19,16,11,03,06,27,,1.59,0.88,1.33*04
$GPGSV,3,1,11,09,11,307,39,08,16,305,41,07,47,314,33,23,36,192,18*75
$GPGSV,3,2,11,13,58,233,40,19,64,150,34,16,36,055,34,11,16,165,33*78
$GPGSV,3,3,11,03,71,080,32,06,45,055,43,27,55,063,28,,,,*4F
$GPGST,030042.00,,175.94,175.89,087.5,034.29,034.29,034.30*4E
$GPRMC,030042.00,A,3917.26430,N,08203.79806,W,000.0,000.0,070214,07.2,W,A*03
$PTNLRTF,V,A,442858,11,3,3917.26430,N,08203.79806,W,00295,+000.000,+000.000,+000.000,0,1*5C
$PTNLRBA,1,1*57
$GPZDA,030043.00,07,02,2014,,*60
$GPGGA,030043.00,3917.26430,N,08203.79807,W,1,10,0.96,00295,M,-033,M,,*50
$GPGLL,3917.26430,N,08203.79807,W,030043.00,A,A*78
$GPVTG,000.0,T,007.2,M,000.0,N,000.0,K,A*26
$GPGSA,A,3,09,08,07,13,19,16,11,03,06,27,,,1.63,0.96,1.33*03
$GPGSV,3,1,11,09,11,307,39,08,16,305,42,07,47,314,33,23,36,192,21*7C
$GPGSV,3,2,11,13,58,233,40,19,64,150,33,16,36,055,33,11,16,165,34*7F
$GPGSV,3,3,11,03,71,080,32,06,45,055,43,27,55,063,28,,,,*4F
$GPGST,030043.00,,063.91,063.86,087.5,032.62,032.62,032.62*44
$GPRMC,030043.00,A,3917.26430,N,08203.79807,W,000.0,000.0,070214,07.2,W,A*03
$PTNLRTF,V,A,442859,10,3,3917.26430,N,08203.79807,W,00295,+000.000,+000.000,+000.000,0,1*5D
$PTNLRBA,1,1*57
$GPZDA,030045.00,07,02,2014,,*66
$GPGGA,030045.00,3917.26430,N,08203.79807,W,1,10,0.96,00295,M,-033,M,,*56
$GPGLL,3917.26430,N,08203.79807,W,030045.00,A,A*7E
$GPVTG,000.0,T,007.2,M,000.0,N,000.0,K,A*26
$GPGSA,A,3,09,08,07,13,19,16,11,03,06,27,,,1.63,0.96,1.33*03
$GPGSV,3,1,11,09,11,307,40,08,17,305,41,07,48,315,33,23,36,192,21*7E
$GPGSV,3,2,11,13,58,233,40,19,64,150,32,16,36,055,32,11,16,165,34*7F
$GPGSV,3,3,11,03,71,079,32,06,45,054,43,27,55,063,29,,,,*49
$GPGST,030045.00,,881.18,881.13,087.4,029.68,029.68,029.69*4F
$GPRMC,030045.00,A,3917.26430,N,08203.79807,W,000.0,000.0,070214,07.2,W,A*05
$PTNLRTF,V,A,442861,10,3,3917.26430,N,08203.79807,W,00295,+000.000,+000.000,+000.000,0,1*56
$PTNLRBA,1,1*57
$GPZDA,030046.00,07,02,2014,,*65
$GPGGA,030046.00,3917.26430,N,08203.79807,W,1,10,0.96,00295,M,-033,M,,*55
$GPGLL,3917.26430,N,08203.79807,W,030046.00,A,A*7D
$GPVTG,000.0,T,007.2,M,000.0,N,000.0,K,A*26
$GPGSA,A,3,09,08,07,13,19,16,11,03,06,27,,,1.64,0.96,1.33*04
$GPGSV,3,1,11,09,11,307,39,08,17,305,42,07,48,315,33,23,36,192,21*73
$GPGSV,3,2,11,13,58,233,40,19,64,150,32,16,35,055,32,11,16,165,34*7C
$GPGSV,3,3,11,03,71,079,32,06,45,054,43,27,55,063,29,,,,*49
$GPGST,030046.00,,806.59,806.54,087.5,028.40,028.40,028.41*40
$GPRMC,030046.00,A,3917.26430,N,08203.79807,W,000.0,000.0,070214,07.2,W,A*06
$PTNLRTF,V,A,442862,10,3,3917.26430,N,08203.79807,W,00295,+000.000,+000.000,+000.000,0,1*55
$PTNLRBA,1,1*57
$GPZDA,030048.00,07,02,2014,,*6B
$GPGGA,030048.00,3917.26431,N,08203.79807,W,1,11,0.88,00295,M,-033,M,,*54
$GPGLL,3917.26431,N,08203.79807,W,030048.00,A,A*72
$GPVTG,000.0,T,007.2,M,000.0,N,000.0,K,A*26
$GPGSA,A,3,09,08,07,23,13,19,16,11,03,06,27,,1.59,0.88,1.33*04
$GPGSV,3,1,11,09,11,307,39,08,17,305,42,07,48,315,33,23,36,192,21*73
$GPGSV,3,2,11,13,58,233,40,19,64,150,31,16,35,055,32,11,16,165,34*7F
$GPGSV,3,3,11,03,71,079,32,06,45,054,43,27,55,063,29,,,,*49
$GPGST,030048.00,,675.54,675.50,087.6,025.99,025.99,026.00*4F
$GPRMC,030048.00,A,3917.26431,N,08203.79807,W,000.0,000.0,070214,07.2,W,A*09
$PTNLRTF,V,A,442864,11,3,3917.26431,N,08203.79807,W,00295,+000.000,+000.000,+000.000,0,1*53
$PTNLRBA,1,1*57
$GPZDA,030049.00,07,02,2014,,*6A
$GPGGA,030049.00,3917.26430,N,08203.79807,W,1,11,0.88,00295,M,-033,M,,*54
$GPGLL,3917.26430,N,08203.79807,W,030049.00,A,A*72
$GPVTG,000.0,T,007.2,M,000.0,N,000.0,K,A*26
$GPGSA,A,3,09,08,07,23,13,19,16,11,03,06,27,,1.59,0.88,1.33*04
$GPGSV,3,1,11,09,11,307,39,08,17,305,42,07,48,315,33,23,36,192,22*70
$GPGSV,3,2,11,13,58,233,40,19,64,150,31,16,35,055,32,11,16,165,34*7F
$GPGSV,3,3,11,03,71,079,31,06,45,054,43,27,55,063,29,,,,*4A
$GPGST,030049.00,,616.75,616.71,087.6,024.83,024.83,024.84*40
$GPRMC,030049.00,A,3917.26430,N,08203.79807,W,000.0,000.0,070214,07.2,W,A*09
$PTNLRTF,V,A,442865,11,3,3917.26430,N,08203.79807,W,00295,+000.000,+000.000,+000.000,0,1*53
$PTNLRBA,1,1*57
$GPZDA,030051.00,07,02,2014,,*63
$GPGGA,030051.00,3917.26430,N,08203.79808,W,1,11,0.88,00295,M,-033,M,,*52
$GPGLL,3917.26430,N,08203.79808,W,030051.00,A,A*74
$GPVTG,000.0,T,007.2,M,000.0,N,000.0,K,A*26
$GPGSA,A,3,09,08,07,23,13,19,16,11,03,06,27,,1.59,0.88,1.33*04
$GPGSV,3,1,11,09,11,307,39,08,17,305,42,07,48,315,32,23,36,192,20*73
$GPGSV,3,2,11,13,58,233,40,19,64,150,31,16,35,055,32,11,16,165,34*7F
$GPGSV,3,3,11,03,71,079,31,06,45,054,44,27,55,063,30,,,,*45
$GPGST,030051.00,,520.58,520.54,087.6,022.82,022.82,022.82*41
$GPRMC,030051.00,A,3917.26430,N,08203.79808,W,000.0,000.0,070214,07.2,W,A*0F
$PTNLRTF,V,A,442867,11,3,3917.26430,N,08203.79808,W,00295,+000.000,+000.000,+000.000,0,1*5E
$PTNLRBA,1,1*57
$GPZDA,030052.00,07,02,2014,,*60
$GPGGA,030052.00,3917.26431,N,08203.79808,W,1,11,0.88,00295,M,-033,M,,*50
$GPGLL,3917.26431,N,08203.79808,W,030052.00,A,A*76
$GPVTG,000.0,T,007.2,M,000.0,N,000.0,K,A*26
$GPGSA,A,3,09,08,07,23,13,19,16,11,03,06,27,,1.59,0.88,1.33*04
$GPGSV,3,1,11,09,11,307,40,08,17,305,42,07,48,315,31,23,36,192,17*7A
$GPGSV,3,2,11,13,58,233,40,19,64,150,31,16,35,055,32,11,16,165,34*7F
$GPGSV,3,3,11,03,71,079,31,06,45,054,43,27,55,063,29,,,,*4A
$GPGST,030052.00,,478.14,478.10,087.7,021.87,021.87,021.87*4D
$GPRMC,030052.00,A,3917.26431,N,08203.79808,W,000.0,000.0,070214,07.2,W,A*0D
$PTNLRTF,V,A,442868,11,3,3917.26431,N,08203.79808,W,00295,+000.000,+000.000,+000.000,0,1*50
$PTNLRBA,1,1*57
$GPZDA,030054.00,07,02,2014,,*66
$GPGGA,030054.00,3917.26432,N,08203.79808,W,1,10,0.96,00295,M,-033,M,,*5B
$GPGLL,3917.26432,N,08203.79808,W,030054.00,A,A*73
$GPVTG,000.0,T,007.2,M,000.0,N,000.0,K,A*26
$GPGSA,A,3,09,08,07,13,19,16,11,03,06,27,,,1.64,0.96,1.33*04
$GPGSV,3,1,11,09,11,307,39,08,17,305,43,07,48,315,30,23,36,192,18*7B
$GPGSV,3,2,11,13,58,233,40,19,64,150,31,16,35,055,31,11,16,165,34*7C
$GPGSV,3,3,11,03,71,079,31,06,45,054,44,27,55,063,29,,,,*4D
$GPGST,030054.00,,408.22,408.18,087.7,020.20,020.20,020.21*4B
$GPRMC,030054.00,A,3917.26432,N,08203.79808,W,000.0,000.0,070214,07.2,W,A*08
$PTNLRTF,V,A,442870,10,3,3917.26432,N,08203.79808,W,00295,+000.000,+000.000,+000.000,0,1*5B
$PTNLRBA,1,1*57
$GPZDA,030055.00,07,02,2014,,*67
$GPGGA,030055.00,3917.26433,N,08203.79809,W,1,10,0.96,00295,M,-033,M,,*5A
$GPGLL,3917.26433,N,08203.79809,W,030055.00,A,A*72
$GPVTG,000.0,T,007.2,M,000.0,N,000.0,K,A*26
$GPGSA,A,3,09,08,07,13,19,16,11,03,06,27,,,1.64,0.96,1.33*04
$GPGSV,3,1,11,09,11,307,39,08,17,305,43,07,48,315,29,23,36,192,18*73
$GPGSV,3,2,11,13,58,233,40,19,64,150,31,16,35,055,31,11,16,165,35*7D
$GPGSV,3,3,11,03,71,079,32,06,45,054,43,27,55,063,28,,,,*48
$GPGST,030055.00,,382.26,382.22,087.9,019.55,019.55,019.56*43
$GPRMC,030055.00,A,3917.26433,N,08203.79809,W,000.0,000.0,070214,07.2,W,A*09
$PTNLRTF,V,A,442871,10,3,3917.26433,N,08203.79809,W,00295,+000.000,+000.000,+000.000,0,1*5A
$PTNLRBA,1,1*57
$GPZDA,030057.00,07,02,2014,,*65
$GPGGA,030057.00,3917.26434,N,08203.79810,W,1,10,0.95,00295,M,-033,M,,*54
$GPGLL,3917.26434,N,08203.79810,W,030057.00,A,A*7F
$GPVTG,000.0,T,007.2,M,000.0,N,000.0,K,A*26
$GPGSA,A,3,09,08,07,13,19,16,11,03,06,27,,,1.64,0.95,1.33*07
$GPGSV,3,1,11,09,11,307,39,08,17,305,43,07,48,315,29,23,36,192,19*72
$GPGSV,3,2,11,13,58,233,39,19,64,150,32,16,35,055,31,11,16,165,35*70
$GPGSV,3,3,11,03,71,079,32,06,45,054,44,27,55,063,28,,,,*4F
$GPGST,030057.00,,340.32,340.28,088.1,018.45,018.45,018.46*49
$GPRMC,030057.00,A,3917.26434,N,08203.79810,W,000.0,000.0,070214,07.2,W,A*04
$PTNLRTF,V,A,442873,10,3,3917.26434,N,08203.79810,W,00295,+000.000,+000.000,+000.000,0,1*57
$PTNLRBA,1,1*57
$GPZDA,030058.00,07,02,2014,,*6A
$GPGGA,030058.00,3917.26435,N,08203.79811,W,1,11,0.88,00295,M,-033,M,,*56
$GPGLL,3917.26435,N,08203.79811,W,030058.00,A,A*70
$GPVTG,000.0,T,007.2,M,000.0,N,000.0,K,A*26
$GPGSA,A,3,09,08,07,23,13,19,16,11,03,06,27,,1.59,0.88,1.33*04
$GPGSV,3,1,11,09,11,307,39,08,17,305,43,07,48,315,29,23,36,192,17*7C
$GPGSV,3,2,11,13,58,233,39,19,64,150,32,16,35,055,31,11,16,165,34*71
$GPGSV,3,3,11,03,71,079,31,06,45,054,44,27,55,063,28,,,,*4C
$GPGST,030058.00,,342.90,342.86,088.2,018.52,018.52,018.53*4D
$GPRMC,030058.00,A,3917.26435,N,08203.79811,W,000.0,000.0,070214,07.2,W,A*0B
$PTNLRTF,V,A,442874,11,3,3917.26435,N,08203.79811,W,00295,+000.000,+000.000,+000.000,0,1*51
$PTNLRBA,1,1*57
$GPZDA,030100.00,07,02,2014,,*66
$GPGGA,030100.00,3917.26437,N,08203.79811,W,1,10,0.95,00295,M,-033,M,,*55
$GPGLL,3917.26437,N,08203.79811,W,030100.00,A,A*7E
$GPVTG,000.0,T,007.2,M,000.0,N,000.0,K,A*26
$GPGSA,A,3,09,08,07,13,19,16,11,03,06,27,,,1.64,0.95,1.33*07
$GPGSV,3,1,11,09,11,307,39,08,17,305,43,07,48,315,29,23,36,192,18*73
$GPGSV,3,2,11,13,58,233,39,19,64,150,31,16,35,055,32,11,16,165,34*71
$GPGSV,3,3,11,03,71,079,31,06,45,054,44,27,55,063,31,,,,*44
$GPGST,030100.00,,310.47,310.43,088.3,017.62,017.62,017.63*4F
$GPRMC,030100.00,A,3917.26437,N,08203.79811,W,000.0,000.0,070214,07.2,W,A*05
$PTNLRTF,V,A,442876,10,3,3917.26437,N,08203.79811,W,00295,+000.000,+000.000,+000.000,0,1*50
$PTNLRBA,1,1*57
$GPZDA,030101.00,07,02,2014,,*67
$GPGGA,030101.00,3917.26437,N,08203.79812,W,1,10,0.95,00295,M,-033,M,,*57
$GPGLL,3917.26437,N,08203.79812,W,030101.00,A,A*7C
$GPVTG,000.0,T,007.2,M,000.0,N,000.0,K,A*26
$GPGSA,A,3,09,08,07,13,19,16,11,03,06,27,,,1.64,0.95,1.33*07
$GPGSV,3,1,11,09,11,307,39,08,17,305,43,07,48,315,30,23,36,192,12*71
$GPGSV,3,2,11,13,58,233,40,19,64,150,31,16,35,055,31,11,16,165,34*7C
$GPGSV,3,3,11,03,71,079,31,06,45,054,44,27,55,063,31,,,,*44
$GPGST,030101.00,,285.06,285.02,088.3,016.88,016.88,016.89*4B
$GPRMC,030101.00,A,3917.26437,N,08203.79812,W,000.0,000.0,070214,07.2,W,A*07
$PTNLRTF,V,A,442877,10,3,3917.26437,N,08203.79812,W,00295,+000.000,+000.000,+000.000,0,1*52
$PTNLRBA,1,1*57
$GPZDA,030103.00,07,02,2014,,*65
$GPGGA,030103.00,3917.26437,N,08203.79812,W,1,10,0.95,00295,M,-033,M,,*55
$GPGLL,3917.26437,N,08203.79812,W,030103.00,A,A*7E
$GPVTG,000.0,T,007.2,M,000.0,N,000.0,K,A*26
$GPGSA,A,3,09,08,07,13,19,16,11,03,06,27,,,1.64,0.95,1.33*07
$GPGSV,3,1,11,09,11,307,39,08,17,305,43,07,48,315,30,23,36,192,21*71
$GPGSV,3,2,11,13,58,233,39,19,64,150,32,16,35,055,31,11,16,165,34*71
$GPGSV,3,3,11,03,71,079,33,06,45,054,43,27,55,063,30,,,,*40
$GPGST,030103.00,,244.05,244.01,088.3,015.62,015.62,015.63*4E
$GPRMC,030103.00,A,3917.26437,N,08203.79812,W,000.0,000.0,070214,07.2,W,A*05
$PTNLRTF,V,A,442879,10,3,3917.26437,N,08203.79812,W,00295,+000.000,+000.000,+000.000,0,1*5C
$PTNLRBA,1,1*57
$GPZDA,030104.00,07,02,2014,,*62
$GPGGA,030104.00,3917.26436,N,08203.79811,W,1,10,0.95,00295,M,-033,M,,*50
$GPGLL,3917.26436,N,08203.79811,W,030104.00,A,A*7B
$GPVTG,000.0,T,007.2,M,000.0,N,000.0,K,A*26
$GPGSA,A,3,09,08,07,13,19,16,11,03,06,27,,,1.64,0.95,1.33*07
$GPGSV,3,1,11,09,11,307,39,08,17,305,43,07,48,315,30,23,36,192,21*71
$GPGSV,3,2,11,13,58,233,39,19,64,150,31,16,35,055,31,11,16,165,33*75
$GPGSV,3,3,11,03,71,079,33,06,45,054,43,27,55,063,30,,,,*40
$GPGST,030104.00,,236.04,235.99,088.3,015.36,015.36,015.37*4B
$GPRMC,030104.00,A,3917.26436,N,08203.79811,W,000.0,000.0,070214,07.2,W,A*00
$PTNLRTF,V,A,442880,10,3,3917.26436,N,08203.79811,W,00295,+000.000,+000.000,+000.000,0,1*58
$PTNLRBA,1,1*57
$GPZDA,030106.00,07,02,2014,,*60
$GPGGA,030106.00,3917.26436,N,08203.79812,W,1,11,0.88,00295,M,-033,M,,*5C
$GPGLL,3917.26436,N,08203.79812,W,030106.00,A,A*7A
$GPVTG,000.0,T,007.2,M,000.0,N,000.0,K,A*26
$GPGSA,A,3,09,08,07,23,13,19,16,11,03,06,27,,1.59,0.88,1.33*04
$GPGSV,3,1,11,09,11,307,39,08,17,305,42,07,48,315,31,23,36,192,24*74
$GPGSV,3,2,11,13,58,233,39,19,64,150,31,16,35,055,31,11,16,165,33*75
$GPGSV,3,3,11,03,71,079,32,06,45,054,43,27,55,063,31,,,,*40
$GPGST,030106.00,,232.57,232.53,088.3,015.25,015.25,015.26*4A
$GPRMC,030106.00,A,3917.26436,N,08203.79812,W,000.0,000.0,070214,07.2,W,A*01
$PTNLRTF,V,A,442882,11,3,3917.26436,N,08203.79812,W,00295,+000.000,+000.000,+000.000,0,1*58
$PTNLRBA,1,1*57
$GPZDA,030107.00,07,02,2014,,*61
$GPGGA,030107.00,3917.26436,N,08203.79812,W,1,11,0.88,00295,M,-033,M,,*5D
$GPGLL,3917.26436,N,08203.79812,W,030107.00,A,A*7B
$GPVTG,000.0,T,007.2,M,000.0,N,000.0,K,A*26
$GPGSA,A,3,09,08,07,23,13,19,16,11,03,06,27,,1.59,0.88,1.33*04
$GPGSV,3,1,11,09,11,307,39,08,17,305,43,07,48,315,32,23,36,192,24*76
$GPGSV,3,2,11,13,58,233,39,19,64,150,31,16,35,055,31,11,16,165,33*75
$GPGSV,3,3,11,03,71,079,32,06,45,054,44,27,55,063,31,,,,*47
$GPGST,030107.00,,237.94,237.89,088.3,015.43,015.42,015.44*46
$GPRMC,030107.00,A,3917.26436,N,08203.79812,W,000.0,000.0,070214,07.2,W,A*00
$PTNLRTF,V,A,442883,11,3,3917.26436,N,08203.79812,W,00295,+000.000,+000.000,+000.000,0,1*59
$PTNLRBA,1,1*57
$GPZDA,030109.00,07,02,2014,,*6F
$GPGGA,030109.00,3917.26436,N,08203.79812,W,1,11,0.88,00295,M,-033,M,,*53
$GPGLL,3917.26436,N,08203.79812,W,030109.00,A,A*75
$GPVTG,000.0,T,007.2,M,000.0,N,000.0,K,A*26
$GPGSA,A,3,09,08,07,23,13,19,16,11,03,06,27,,1.59,0.88,1.33*04
$GPGSV,3,1,11,09,11,307,39,08,17,305,43,07,48,315,32,23,36,192,26*74
$GPGSV,3,2,11,13,58,233,39,19,64,150,31,16,35,055,31,11,16,165,34*72
$GPGSV,3,3,11,03,71,079,32,06,45,054,43,27,55,063,31,,,,*40
$GPGST,030109.00,,226.24,226.20,088.3,015.04,015.04,015.05*44
$GPRMC,030109.00,A,3917.26436,N,08203.79812,W,000.0,000.0,070214,07.2,W,A*0E
$PTNLRTF,V,A,442885,11,3,3917.26436,N,08203.79812,W,00295,+000.000,+000.000,+000.000,0,1*5F
$PTNLRBA,1,1*57
$GPZDA,030110.00,07,02,2014,,*67
$GPGGA,030110.00,3917.26436,N,08203.79812,W,1,11,0.88,00295,M,-033,M,,*5B
$GPGLL,3917.26436,N,08203.79812,W,030110.00,A,A*7D
$GPVTG,000.0,T,007.2,M,000.0,N,000.0,K,A*26
$GPGSA,A,3,09,08,07,23,13,19,16,11,03,06,27,,1.59,0.88,1.33*04
$GPGSV,3,1,11,09,11,307,39,08,17,305,43,07,48,315,33,23,36,192,24*77
$GPGSV,3,2,11,13,58,233,40,19,64,150,31,16,35,055,32,11,16,165,33*78
$GPGSV,3,3,11,03,71,079,32,06,45,054,43,27,55,063,30,,,,*41
$GPGST,030110.00,,214.36,214.32,088.3,014.64,014.64,014.65*4B
$GPRMC,030110.00,A,3917.26436,N,08203.79812,W,000.0,000.0,070214,07.2,W,A*06
$PTNLRTF,V,A,442886,11,3,3917.26436,N,08203.79812,W,00295,+000.000,+000.000,+000.000,0,1*5C
$PTNLRBA,1,1*57
$GPZDA,030112.00,07,02,2014,,*65
$GPGGA,030112.00,3917.26437,N,08203.79812,W,1,11,0.88,00295,M,-033,M,,*58
$GPGLL,3917.26437,N,08203.79812,W,030112.00,A,A*7E
$GPVTG,000.0,T,007.2,M,000.0,N,000.0,K,A*26
$GPGSA,A,3,09,08,07,23,13,19,16,11,03,06,27,,1.59,0.88,1.33*04
$GPGSV,3,1,11,09,11,307,39,08,17,305,43,07,48,315,34,23,36,192,23*77
$GPGSV,3,2,11,13,58,233,40,19,64,150,31,16,35,055,33,11,16,165,34*7E
$GPGSV,3,3,11,03,71,079,32,06,45,054,43,27,55,063,30,,,,*41
$GPGST,030112.00,,194.04,194.00,088.3,013.93,013.93,013.94*40
$GPRMC,030112.00,A,3917.26437,N,08203.79812,W,000.0,000.0,070214,07.2,W,A*05
$PTNLRTF,V,A,442888,11,3,3917.26437,N,08203.79812,W,00295,+000.000,+000.000,+000.000,0,1*53
$PTNLRBA,1,1*57
$GPZDA,030113.00,07,02,2014,,*64
$GPGGA,030113.00,3917.26438,N,08203.79812,W,1,11,0.88,00295,M,-033,M,,*56
$GPGLL,3917.26438,N,08203.79812,W,030113.00,A,A*70
$GPVTG,000.0,T,007.2,M,000.0,N,000.0,K,A*26
$GPGSA,A,3,09,08,07,23,13,19,16,11,03,06,27,,1.59,0.88,1.33*04
$GPGSV,3,1,11,09,11,307,39,08,17,305,44,07,48,315,34,23,36,192,24*77
$GPGSV,3,2,11,13,58,233,40,19,64,150,29,16,35,055,33,11,16,165,34*77
$GPGSV,3,3,11,03,71,079,31,06,45,054,43,27,55,063,30,,,,*42
$GPGST,030113.00,,190.58,190.54,088.3,013.81,013.80,013.82*4F
$GPRMC,030113.00,A,3917.26438,N,08203.79812,W,000.0,000.0,070214,07.2,W,A*0B
$PTNLRTF,V,A,442889,11,3,3917.26438,N,08203.79812,W,00295,+000.000,+000.000,+000.000,0,1*5D
$PTNLRBA,1,1*57
$GPZDA,030115.00,07,02,2014,,*62
$GPGGA,030115.00,3917.26439,N,08203.79811,W,1,11,0.88,00295,M,-033,M,,*52
$GPGLL,3917.26439,N,08203.79811,W,030115.00,A,A*74
$GPVTG,000.0,T,007.2,M,000.0,N,000.0,K,A*26
$GPGSA,A,3,09,08,07,23,13,19,16,11,03,06,27,,1.59,0.88,1.33*04
$GPGSV,3,1,11,09,11,307,39,08,17,305,43,07,48,315,33,23,36,192,26*75
$GPGSV,3,2,11,13,58,233,40,19,64,150,28,16,35,055,34,11,16,165,34*71
$GPGSV,3,3,11,03,71,079,32,06,45,054,43,27,55,063,29,,,,*49
$GPGST,030115.00,,202.84,202.79,088.3,014.24,014.24,014.25*4C
$GPRMC,030115.00,A,3917.26439,N,08203.79811,W,000.0,000.0,070214,07.2,W,A*0F
$PTNLRTF,V,A,442891,11,3,3917.26439,N,08203.79811,W,00295,+000.000,+000.000,+000.000,0,1*56
$PTNLRBA,1,1*57
$GPZDA,030116.00,07,02,2014,,*61
$GPGGA,030116.00,3917.26440,N,08203.79810,W,1,11,0.88,00295,M,-033,M,,*5E
$GPGLL,3917.26440,N,08203.79810,W,030116.00,A,A*78
$GPVTG,000.0,T,007.2,M,000.0,N,000.0,K,A*26
$GPGSA,A,3,09,08,07,23,13,19,16,11,03,06,27,,1.59,0.88,1.33*04
$GPGSV,3,1,11,09,11,307,39,08,17,305,44,07,48,315,33,23,36,192,23*77
$GPGSV,3,2,11,13,58,233,40,19,64,150,29,16,35,055,34,11,16,165,34*70
$GPGSV,3,3,11,03,71,079,30,06,45,054,43,27,55,063,31,,,,*42
$GPGST,030116.00,,205.13,205.09,088.4,014.32,014.32,014.33*46
$GPRMC,030116.00,A,3917.26440,N,08203.79810,W,000.0,000.0,070214,07.2,W,A*03
$PTNLRTF,V,A,442892,11,3,3917.26440,N,08203.79810,W,00295,+000.000,+000.000,+000.000,0,1*5A
$PTNLRBA,1,1*57
$GPZDA,030118.00,07,02,2014,,*6F
$GPGGA,030118.00,3917.26442,N,08203.79808,W,1,10,0.95,00295,M,-033,M,,*56
$GPGLL,3917.26442,N,08203.79808,W,030118.00,A,A*7D
$GPVTG,000.0,T,007.2,M,000.0,N,000.0,K,A*26
$GPGSA,A,3,09,08,07,13,19,16,11,03,06,27,,,1.64,0.95,1.33*07
$GPGSV,3,1,11,09,11,307,39,08,17,305,43,07,48,315,32,23,36,192,20*72
$GPGSV,3,2,11,13,58,233,41,19,64,150,30,16,35,055,30,11,16,165,33*7A
$GPGSV,3,3,11,03,71,079,32,06,45,054,42,27,55,063,32,,,,*42
$GPGST,030118.00,,203.47,203.43,088.4,014.26,014.26,014.28*4D
$GPRMC,030118.00,A,3917.26442,N,08203.79808,W,000.0,000.0,070214,07.2,W,A*06
$PTNLRTF,V,A,442894,10,3,3917.26442,N,08203.79808,W,00295,+000.000,+000.000,+000.000,0,1*56
$PTNLRBA,1,1*57
$GPZDA,030119.00,07,02,2014,,*6E
$GPGGA,030119.00,3917.26441,N,08203.79807,W,1,10,0.95,00295,M,-033,M,,*5B
$GPGLL,3917.26441,N,08203.79807,W,030119.00,A,A*70
$GPVTG,000.0,T,007.2,M,000.0,N,000.0,K,A*26
$GPGSA,A,3,09,08,07,13,19,16,11,03,06,27,,,1.64,0.95,1.33*07
$GPGSV,3,1,11,09,11,307,39,08,17,305,43,07,48,315,32,23,36,192,21*73
$GPGSV,3,2,11,13,58,233,40,19,64,150,30,16,35,055,32,11,16,165,33*79
$GPGSV,3,3,11,03,71,079,31,06,45,054,43,27,55,063,31,,,,*43
$GPGST,030119.00,,202.63,202.59,088.3,014.23,014.23,014.25*4B
$GPRMC,030119.00,A,3917.26441,N,08203.79807,W,000.0,000.0,070214,07.2,W,A*0B
$PTNLRTF,V,A,442895,10,3,3917.26441,N,08203.79807,W,00295,+000.000,+000.000,+000.000,0,1*5B
$PTNLRBA,1,1*57
$GPZDA,030121.00,07,02,2014,,*65
$GPGGA,030121.00,3917.26441,N,08203.79806,W,1,11,0.88,00295,M,-033,M,,*5C
$GPGLL,3917.26441,N,08203.79806,W,030121.00,A,A*7A
$GPVTG,000.0,T,007.2,M,000.0,N,000.0,K,A*26
$GPGSA,A,3,09,08,07,23,13,19,16,11,03,06,27,,1.59,0.88,1.33*04
$GPGSV,3,1,11,09,11,307,40,08,17,305,43,07,48,315,33,23,36,192,23*7E
$GPGSV,3,2,11,13,58,233,39,19,64,150,31,16,35,055,33,11,16,165,33*77
$GPGSV,3,3,11,03,71,079,32,06,45,054,43,27,55,063,32,,,,*43
$GPGST,030121.00,,200.00,199.96,088.3,014.14,014.14,014.15*46
$GPRMC,030121.00,A,3917.26441,N,08203.79806,W,000.0,000.0,070214,07.2,W,A*01
$PTNLRTF,V,A,442897,11,3,3917.26441,N,08203.79806,W,00295,+000.000,+000.000,+000.000,0,1*59
$PTNLRBA,1,1*57
$GPZDA,030122.00,07,02,2014,,*66
$GPGGA,030122.00,3917.26442,N,08203.79805,W,1,10,0.96,00295,M,-033,M,,*51
$GPGLL,3917.26442,N,08203.79805,W,030122.00,A,A*79
$GPVTG,000.0,T,007.2,M,000.0,N,000.0,K,A*26
$GPGSA,A,3,09,08,07,23,19,16,11,03,06,27,,,1.79,0.96,1.50*0E
$GPGSV,3,1,11,09,11,307,39,08,17,305,43,07,48,315,33,23,36,192,23*70
$GPGSV,3,2,11,13,58,233,39,19,64,150,31,16,35,055,33,11,16,165,33*77
$GPGSV,3,3,11,03,71,079,31,06,45,054,44,27,55,063,32,,,,*47
$GPGST,030122.00,,193.04,193.00,088.4,013.89,013.89,013.91*41
$GPRMC,030122.00,A,3917.26442,N,08203.79805,W,000.0,000.0,070214,07.2,W,A*02
$PTNLRTF,V,A,442898,10,3,3917.26442,N,08203.79805,W,00295,+000.000,+000.000,+000.000,0,1*57
$PTNLRBA,1,1*57
$GPZDA,030124.00,07,02,2014,,*60
$GPGGA,030124.00,3917.26441,N,08203.79805,W,1,11,0.88,00295,M,-033,M,,*5A
$GPGLL,3917.26441,N,08203.79805,W,030124.00,A,A*7C
$GPVTG,000.0,T,007.2,M,000.0,N,000.0,K,A*26
$GPGSA,A,3,09,08,07,23,13,19,16,11,03,06,27,,1.59,0.88,1.33*04
$GPGSV,3,1,11,09,11,307,40,08,17,305,43,07,48,315,32,23,36,192,26*7A
$GPGSV,3,2,11,13,58,232,39,19,65,149,32,16,35,055,34,11,16,164,33*7A
$GPGSV,3,3,11,03,70,079,32,06,44,054,43,27,55,062,30,,,,*40
$GPGST,030124.00,,180.36,180.32,088.3,013.43,013.43,013.44*48
$GPRMC,030124.00,A,3917.26441,N,08203.79805,W,000.0,000.0,070214,07.2,W,A*07
$PTNLRTF,V,A,442900,11,3,3917.26441,N,08203.79805,W,00295,+000.000,+000.000,+000.000,0,1*55
$PTNLRBA,1,1*57
$GPZDA,030125.00,07,02,2014,,*61
$GPGGA,030125.00,3917.26430,N,08203.79804,W,1,11,0.88,00295,M,-033,M,,*5C
$GPGLL,3917.26430,N,08203.79804,W,030125.00,A,A*7A
$GPVTG,174.5,T,181.7,M,000.4,N,000.7,K,A*28
$GPGSA,A,3,09,08,07,23,13,19,16,11,03,06,27,,1.59,0.88,1.33*04
$GPGSV,3,1,11,09,11,307,40,08,17,305,43,07,48,315,31,23,36,192,25*7A
$GPGSV,3,2,11,13,58,232,39,19,65,149,32,16,35,055,33,11,16,164,33*7D
$GPGSV,3,3,11,03,70,079,32,06,44,054,44,27,55,062,29,,,,*4F
$GPGST,030125.00,,175.96,175.91,089.5,013.26,013.26,013.28*47
$GPRMC,030125.00,A,3917.26430,N,08203.79804,W,000.4,174.5,070214,07.2,W,A*02
$PTNLRTF,V,A,442901,11,3,3917.26430,N,08203.79804,W,00295,+000.020,-000.204,-000.018,0,1*5E
$PTNLRBA,1,1*57
$GPZDA,030127.00,07,02,2014,,*63
$GPGGA,030127.00,3917.26433,N,08203.79804,W,1,11,0.88,00295,M,-033,M,,*5D
$GPGLL,3917.26433,N,08203.79804,W,030127.00,A,A*7B
$GPVTG,000.0,T,007.2,M,000.0,N,000.0,K,A*26
$GPGSA,A,3,09,08,07,23,13,19,16,11,03,06,27,,1.59,0.88,1.33*04
$GPGSV,3,1,11,09,11,307,40,08,17,305,42,07,48,315,31,23,36,192,25*7B
$GPGSV,3,2,11,13,58,232,40,19,65,149,32,16,35,055,33,11,16,164,32*72
$GPGSV,3,3,11,03,70,079,32,06,44,054,43,27,55,062,30,,,,*40
$GPGST,030127.00,,170.23,170.17,089.5,013.05,013.05,013.06*49
$GPRMC,030127.00,A,3917.26433,N,08203.79804,W,000.0,000.0,070214,07.2,W,A*00
$PTNLRTF,V,A,442903,11,3,3917.26433,N,08203.79804,W,00295,+000.000,+000.000,+000.000,0,1*52
$PTNLRBA,1,1*57
$GPZDA,030128.00,07,02,2014,,*6C
$GPGGA,030128.00,3917.26433,N,08203.79804,W,1,10,0.95,00295,M,-033,M,,*5F
$GPGLL,3917.26433,N,08203.79804,W,030128.00,A,A*74
$GPVTG,000.0,T,007.2,M,000.0,N,000.0,K,A*26
$GPGSA,A,3,09,08,07,13,19,16,11,03,06,27,,,1.64,0.95,1.33*07
$GPGSV,3,1,11,09,11,307,40,08,17,305,42,07,48,315,31,23,36,192,26*78
$GPGSV,3,2,11,13,58,232,39,19,65,149,32,16,35,055,34,11,16,164,32*7B
$GPGSV,3,3,11,03,70,079,31,06,44,054,43,27,55,062,31,,,,*42
$GPGST,030128.00,,157.92,157.87,089.5,012.57,012.56,012.58*4E
$GPRMC,030128.00,A,3917.26433,N,08203.79804,W,000.0,000.0,070214,07.2,W,A*0F
$PTNLRTF,V,A,442904,10,3,3917.26433,N,08203.79804,W,00295,+000.000,+000.000,+000.000,0,1*54
$PTNLRBA,1,1*57
$GPZDA,030130.00,07,02,2014,,*65
$GPGGA,030130.00,3917.26435,N,08203.79804,W,1,11,0.88,00294,M,-033,M,,*5C
$GPGLL,3917.26435,N,08203.79804,W,030130.00,A,A*7B
$GPVTG,000.0,T,007.2,M,000.0,N,000.0,K,A*26
$GPGSA,A,3,09,08,07,23,13,19,16,11,03,06,27,,1.59,0.88,1.33*04
$GPGSV,3,1,11,09,11,307,40,08,17,305,42,07,48,315,32,23,36,192,26*7B
$GPGSV,3,2,11,13,58,232,39,19,65,149,30,16,35,055,34,11,16,164,32*79
$GPGSV,3,3,11,03,70,079,33,06,44,054,43,27,55,062,31,,,,*40
$GPGST,030130.00,,140.73,140.67,089.6,011.86,011.86,011.88*4A
$GPRMC,030130.00,A,3917.26435,N,08203.79804,W,000.0,000.0,070214,07.2,W,A*00
$PTNLRTF,V,A,442906,11,3,3917.26435,N,08203.79804,W,00294,+000.000,+000.000,+000.000,0,1*50
$PTNLRBA,1,1*57
$GPZDA,030131.00,07,02,2014,,*64
$GPGGA,030131.00,3917.26435,N,08203.79804,W,1,11,0.88,00294,M,-033,M,,*5D
$GPGLL,3917.26435,N,08203.79804,W,030131.00,A,A*7A
$GPVTG,000.0,T,007.2,M,000.0,N,000.0,K,A*26
$GPGSA,A,3,09,08,07,23,13,19,16,11,03,06,27,,1.59,0.88,1.33*04
$GPGSV,3,1,11,09,11,307,40,08,17,305,42,07,48,315,33,23,36,192,27*7B
$GPGSV,3,2,11,13,58,232,39,19,65,149,30,16,35,055,34,11,16,164,32*79
$GPGSV,3,3,11,03,70,079,32,06,44,054,43,27,55,062,32,,,,*42
$GPGST,030131.00,,133.37,133.32,089.6,011.55,011.55,011.56*48
$GPRMC,030131.00,A,3917.26435,N,08203.79804,W,000.0,000.0,070214,07.2,W,A*01
$PTNLRTF,V,A,442907,11,3,3917.26435,N,08203.79804,W,00294,+000.000,+000.000,+000.000,0,1*51
$PTNLRBA,1,1*57
$GPZDA,030133.00,07,02,2014,,*66
$GPGGA,030133.00,3917.26435,N,08203.79803,W,1,11,0.88,00294,M,-033,M,,*58
$GPGLL,3917.26435,N,08203.79803,W,030133.00,A,A*7F
$GPVTG,000.0,T,007.2,M,000.0,N,000.0,K,A*26
$GPGSA,A,3,09,08,07,23,13,19,16,11,03,06,27,,1.59,0.88,1.33*04
$GPGSV,3,1,11,09,11,307,40,08,17,305,42,07,48,315,34,23,36,192,26*7D
$GPGSV,3,2,11,13,58,232,38,19,65,149,29,16,35,055,34,11,16,164,33*71
$GPGSV,3,3,11,03,70,079,32,06,44,054,43,27,55,062,29,,,,*48
$GPGST,030133.00,,122.74,122.69,089.6,011.08,011.08,011.09*49
$GPRMC,030133.00,A,3917.26435,N,08203.79803,W,000.0,000.0,070214,07.2,W,A*04
$PTNLRTF,V,A,442909,11,3,3917.26435,N,08203.79803,W,00294,+000.000,+000.000,+000.000,0,1*58
$PTNLRBA,1,1*57
$GPZDA,030134.00,07,02,2014,,*61
$GPGGA,030134.00,3917.26435,N,08203.79803,W,1,10,0.95,00294,M,-033,M,,*52
$GPGLL,3917.26435,N,08203.79803,W,030134.00,A,A*78
$GPVTG,000.0,T,007.2,M,000.0,N,000.0,K,A*26
$GPGSA,A,3,09,08,07,13,19,16,11,03,06,27,,,1.64,0.95,1.33*07
$GPGSV,3,1,11,09,11,307,40,08,17,305,42,07,48,315,33,23,36,192,27*7B
$GPGSV,3,2,11,13,58,232,38,19,65,149,31,16,35,055,34,11,16,164,32*79
$GPGSV,3,3,11,03,70,079,32,06,44,054,43,27,55,062,30,,,,*40
$GPGST,030134.00,,118.54,118.49,089.6,010.89,010.89,010.90*4F
$GPRMC,030134.00,A,3917.26435,N,08203.79803,W,000.0,000.0,070214,07.2,W,A*03
$PTNLRTF,V,A,442910,10,3,3917.26435,N,08203.79803,W,00294,+000.000,+000.000,+000.000,0,1*51
$PTNLRBA,1,1*57
$GPZDA,030136.00,07,02,2014,,*63
$GPGGA,030136.00,3917.26435,N,08203.79805,W,1,11,0.88,00294,M,-033,M,,*5B
$GPGLL,3917.26435,N,08203.79805,W,030136.00,A,A*7C
$GPVTG,000.0,T,007.2,M,000.0,N,000.0,K,A*26
$GPGSA,A,3,09,08,07,23,13,19,16,11,03,06,27,,1.60,0.88,1.33*0E
$GPGSV,3,1,11,09,11,307,40,08,17,305,42,07,48,315,31,23,36,192,26*78
$GPGSV,3,2,11,13,58,232,38,19,65,149,29,16,35,055,34,11,16,164,32*70
$GPGSV,3,3,11,03,70,079,32,06,44,054,44,27,55,062,29,,,,*4F
$GPGST,030136.00,,128.95,128.91,089.6,011.36,011.35,011.37*4A
$GPRMC,030136.00,A,3917.26435,N,08203.79805,W,000.0,000.0,070214,07.2,W,A*07
$PTNLRTF,V,A,442912,11,3,3917.26435,N,08203.79805,W,00294,+000.000,+000.000,+000.000,0,1*54
$PTNLRBA,1,1*57
$GPZDA,030137.00,07,02,2014,,*62
$GPGGA,030137.00,3917.26435,N,08203.79805,W,1,11,0.88,00294,M,-033,M,,*5A
$GPGLL,3917.26435,N,08203.79805,W,030137.00,A,A*7D
$GPVTG,000.0,T,007.2,M,000.0,N,000.0,K,A*26
$GPGSA,A,3,09,08,07,23,13,19,16,11,03,06,27,,1.60,0.88,1.33*0E
$GPGSV,3,1,11,09,11,307,40,08,17,305,42,07,48,315,31,23,36,192,28*76
$GPGSV,3,2,11,13,58,232,38,19,65,149,26,16,35,055,34,11,16,164,32*7F
$GPGSV,3,3,11,03,70,079,32,06,44,054,44,27,55,062,29,,,,*4F
$GPGST,030137.00,,136.36,136.32,089.6,011.68,011.68,011.69*43
$GPRMC,030137.00,A,3917.26435,N,08203.79805,W,000.0,000.0,070214,07.2,W,A*06
$PTNLRTF,V,A,442913,11,3,3917.26435,N,08203.79805,W,00294,+000.000,+000.000,+000.000,0,1*55
$PTNLRBA,1,1*57
$GPZDA,030139.00,07,02,2014,,*6C
$GPGGA,030139.00,3917.26435,N,08203.79806,W,1,11,0.88,00294,M,-033,M,,*57
$GPGLL,3917.26435,N,08203.79806,W,030139.00,A,A*70
$GPVTG,000.0,T,007.2,M,000.0,N,000.0,K,A*26
$GPGSA,A,3,09,08,07,23,13,19,16,11,03,06,27,,1.60,0.88,1.33*0E
$GPGSV,3,1,11,09,11,307,40,08,17,305,42,07,48,315,33,23,36,192,27*7B
$GPGSV,3,2,11,13,58,232,39,19,65,149,28,16,35,055,35,11,16,164,33*70
$GPGSV,3,3,11,03,70,079,32,06,44,054,44,27,55,062,30,,,,*47
$GPGST,030139.00,,137.80,137.76,089.5,011.74,011.74,011.75*4E
$GPRMC,030139.00,A,3917.26435,N,08203.79806,W,000.0,000.0,070214,07.2,W,A*0B
$PTNLRTF,V,A,442915,11,3,3917.26435,N,08203.79806,W,00294,+000.000,+000.000,+000.000,0,1*50
$PTNLRBA,1,1*57
$GPZDA,030140.00,07,02,2014,,*62
$GPGGA,030140.00,3917.26425,N,08203.79801,W,1,11,0.88,00294,M,-033,M,,*5F
$GPGLL,3917.26425,N,08203.79801,W,030140.00,A,A*78
$GPVTG,160.2,T,167.4,M,000.4,N,000.7,K,A*21
$GPGSA,A,3,09,08,07,23,13,19,16,11,03,06,27,,1.60,0.88,1.33*0E
$GPGSV,3,1,11,09,11,307,40,08,17,305,42,07,48,315,32,23,36,192,27*7A
$GPGSV,3,2,11,13,58,232,39,19,65,149,27,16,35,055,35,11,16,164,32*7E
$GPGSV,3,3,11,03,70,079,32,06,44,054,43,27,55,062,30,,,,*40
$GPGST,030140.00,,134.49,134.43,088.4,011.60,011.59,011.61*4C
$GPRMC,030140.00,A,3917.26425,N,08203.79801,W,000.4,160.2,070214,07.2,W,A*02
$PTNLRTF,V,A,442916,11,3,3917.26425,N,08203.79801,W,00294,+000.067,-000.186,-000.001,0,1*5A
$PTNLRBA,1,1*57
$GPZDA,030142.00,07,02,2014,,*60
$GPGGA,030142.00,3917.26420,N,08203.79792,W,1,11,0.88,00294,M,-033,M,,*5D
$GPGLL,3917.26420,N,08203.79792,W,030142.00,A,A*7A
$GPVTG,036.0,T,043.3,M,000.3,N,000.5,K,A*24
$GPGSA,A,3,09,08,07,23,13,19,16,11,03,06,27,,1.60,0.88,1.33*0E
$GPGSV,3,1,11,09,11,307,40,08,17,305,43,07,48,315,31,23,36,192,28*77
$GPGSV,3,2,11,13,58,232,38,19,65,149,27,16,35,055,35,11,16,164,32*7F
$GPGSV,3,3,11,03,70,079,32,06,44,054,44,27,55,062,31,,,,*46
$GPGST,030142.00,,138.08,138.00,088.7,011.75,011.75,011.76*43
$GPRMC,030142.00,A,3917.26420,N,08203.79792,W,000.3,036.0,070214,07.2,W,A*07
$PTNLRTF,V,A,442918,11,3,3917.26420,N,08203.79792,W,00294,+000.090,+000.123,-000.014,0,1*51
$PTNLRBA,1,1*57
$GPZDA,030143.00,07,02,2014,,*61
$GPGGA,030143.00,3917.26414,N,08203.79798,W,1,11,0.88,00294,M,-033,M,,*51
$GPGLL,3917.26414,N,08203.79798,W,030143.00,A,A*76
$GPVTG,000.0,T,007.2,M,000.0,N,000.0,K,A*26
$GPGSA,A,3,09,08,07,23,13,19,16,11,03,06,27,,1.60,0.88,1.33*0E
$GPGSV,3,1,11,09,11,307,40,08,17,305,41,07,48,315,32,23,36,192,27*79
$GPGSV,3,2,11,13,58,232,38,19,65,149,28,16,35,055,35,11,16,164,32*70
$GPGSV,3,3,11,03,70,079,32,06,44,054,44,27,55,062,31,,,,*46
$GPGST,030143.00,,128.70,128.62,086.7,011.34,011.34,011.36*43
$GPRMC,030143.00,A,3917.26414,N,08203.79798,W,000.0,000.0,070214,07.2,W,A*0D
$PTNLRTF,V,A,442919,11,3,3917.26414,N,08203.79798,W,00294,+000.000,+000.000,+000.000,0,1*57
$PTNLRBA,1,1*57
$GPZDA,030145.00,07,02,2014,,*67
$GPGGA,030145.00,3917.26414,N,08203.79798,W,1,11,0.88,00294,M,-033,M,,*57
$GPGLL,3917.26414,N,08203.79798,W,030145.00,A,A*70
$GPVTG,000.0,T,007.2,M,000.0,N,000.0,K,A*26
$GPGSA,A,3,09,08,07,23,13,19,16,11,03,06,27,,1.60,0.88,1.33*0E
$GPGSV,3,1,11,09,11,307,40,08,17,305,41,07,48,315,32,23,36,192,26*78
$GPGSV,3,2,11,13,58,232,39,19,65,149,29,16,35,055,36,11,16,164,32*73
$GPGSV,3,3,11,03,70,079,31,06,44,054,44,27,55,062,29,,,,*4C
$GPGST,030145.00,,113.06,112.98,087.3,010.63,010.63,010.65*42
$GPRMC,030145.00,A,3917.26414,N,08203.79798,W,000.0,000.0,070214,07.2,W,A*0B
$PTNLRTF,V,A,442921,11,3,3917.26414,N,08203.79798,W,00294,+000.000,+000.000,+000.000,0,1*5C
$PTNLRBA,1,1*57
$GPZDA,030146.00,07,02,2014,,*64
$GPGGA,030146.00,3917.26415,N,08203.79797,W,1,11,0.88,00294,M,-033,M,,*5A
$GPGLL,3917.26415,N,08203.79797,W,030146.00,A,A*7D
$GPVTG,000.0,T,007.2,M,000.0,N,000.0,K,A*26
$GPGSA,A,3,09,08,07,23,13,19,16,11,03,06,27,,1.60,0.88,1.33*0E
$GPGSV,3,1,11,09,11,307,40,08,17,305,41,07,48,315,30,23,36,192,22*7E
$GPGSV,3,2,11,13,58,232,38,19,65,149,29,16,35,055,35,11,16,164,33*70
$GPGSV,3,3,11,03,70,079,32,06,44,054,44,27,55,062,31,,,,*46
$GPGST,030146.00,,107.74,107.67,087.5,010.38,010.38,010.39*4A
$GPRMC,030146.00,A,3917.26415,N,08203.79797,W,000.0,000.0,070214,07.2,W,A*06
$PTNLRTF,V,A,442922,11,3,3917.26415,N,08203.79797,W,00294,+000.000,+000.000,+000.000,0,1*51
$PTNLRBA,1,1*57
$GPZDA,030148.00,07,02,2014,,*6A
$GPGGA,030148.00,3917.26415,N,08203.79797,W,1,11,0.88,00294,M,-033,M,,*54
$GPGLL,3917.26415,N,08203.79797,W,030148.00,A,A*73
$GPVTG,000.0,T,007.2,M,000.0,N,000.0,K,A*26
$GPGSA,A,3,09,08,07,23,13,19,16,11,03,06,27,,1.60,0.88,1.33*0E
$GPGSV,3,1,11,09,11,307,40,08,17,305,42,07,48,315,31,23,36,192,28*76
$GPGSV,3,2,11,13,58,232,38,19,65,149,29,16,35,055,34,11,16,164,33*71
$GPGSV,3,3,11,03,70,079,33,06,44,054,44,27,55,062,30,,,,*46
$GPGST,030148.00,,117.83,117.76,088.0,010.85,010.85,010.87*43
$GPRMC,030148.00,A,3917.26415,N,08203.79797,W,000.0,000.0,070214,07.2,W,A*08
$PTNLRTF,V,A,442924,11,3,3917.26415,N,08203.79797,W,00294,+000.000,+000.000,+000.000,0,1*57
$PTNLRBA,1,1*57
$GPZDA,030149.00,07,02,2014,,*6B
$GPGGA,030149.00,3917.26415,N,08203.79797,W,1,11,0.88,00294,M,-033,M,,*55
$GPGLL,3917.26415,N,08203.79797,W,030149.00,A,A*72
$GPVTG,000.0,T,007.2,M,000.0,N,000.0,K,A*26
$GPGSA,A,3,09,08,07,23,13,19,16,11,03,06,27,,1.60,0.88,1.33*0E
$GPGSV,3,1,11,09,11,307,39,08,17,305,42,07,48,315,30,23,36,192,22*73
$GPGSV,3,2,11,13,58,232,37,19,65,149,28,16,35,055,35,11,16,164,33*7E
$GPGSV,3,3,11,03,70,079,32,06,44,054,44,27,55,062,31,,,,*46
$GPGST,030149.00,,136.83,136.76,088.2,011.70,011.69,011.71*40
$GPRMC,030149.00,A,3917.26415,N,08203.79797,W,000.0,000.0,070214,07.2,W,A*09
$PTNLRTF,V,A,442925,11,3,3917.26415,N,08203.79797,W,00294,+000.000,+000.000,+000.000,0,1*56
$PTNLRBA,1,1*57
$GPZDA,030151.00,07,02,2014,,*62
$GPGGA,030151.00,3917.26415,N,08203.79797,W,1,11,0.88,00294,M,-033,M,,*5C
$GPGLL,3917.26415,N,08203.79797,W,030151.00,A,A*7B
$GPVTG,000.0,T,007.2,M,000.0,N,000.0,K,A*26
$GPGSA,A,3,09,08,07,23,13,19,16,11,03,06,27,,1.60,0.88,1.33*0E
$GPGSV,3,1,11,09,11,307,40,08,17,305,42,07,48,315,30,23,36,192,25*7A
$GPGSV,3,2,11,13,58,232,37,19,65,149,27,16,35,055,35,11,16,164,33*71
$GPGSV,3,3,11,03,70,079,34,06,44,054,44,27,55,062,33,,,,*42
$GPGST,030151.00,,145.11,145.04,088.7,012.05,012.04,012.06*48
$GPRMC,030151.00,A,3917.26415,N,08203.79797,W,000.0,000.0,070214,07.2,W,A*00
$PTNLRTF,V,A,442927,11,3,3917.26415,N,08203.79797,W,00294,+000.000,+000.000,+000.000,0,1*54
$PTNLRBA,1,1*57
$GPZDA,030152.00,07,02,2014,,*61
$GPGGA,030152.00,3917.26415,N,08203.79797,W,1,11,0.88,00294,M,-033,M,,*5F
$GPGLL,3917.26415,N,08203.79797,W,030152.00,A,A*78
$GPVTG,000.0,T,007.2,M,000.0,N,000.0,K,A*26
$GPGSA,A,3,09,08,07,23,13,19,16,11,03,06,27,,1.60,0.88,1.34*09
$GPGSV,3,1,11,09,11,307,39,08,17,305,42,07,48,315,29,23,36,192,25*7C
$GPGSV,3,2,11,13,58,232,36,19,65,149,28,16,35,055,35,11,16,164,33*7F
$GPGSV,3,3,11,03,70,079,33,06,44,054,45,27,55,062,32,,,,*45
$GPGST,030152.00,,141.80,141.73,088.8,011.91,011.91,011.92*43
$GPRMC,030152.00,A,3917.26415,N,08203.79797,W,000.0,000.0,070214,07.2,W,A*03
$PTNLRTF,V,A,442928,11,3,3917.26415,N,08203.79797,W,00294,+000.000,+000.000,+000.000,0,1*5B
$PTNLRBA,1,1*57
$GPZDA,030154.00,07,02,2014,,*67
$GPGGA,030154.00,3917.26414,N,08203.79797,W,1,11,0.88,00294,M,-033,M,,*58
$GPGLL,3917.26414,N,08203.79797,W,030154.00,A,A*7F
$GPVTG,000.0,T,007.2,M,000.0,N,000.0,K,A*26
$GPGSA,A,3,09,08,07,23,13,19,16,11,03,06,27,,1.60,0.88,1.34*09
$GPGSV,3,1,11,09,11,307,39,08,17,305,42,07,48,315,31,23,36,192,25*75
$GPGSV,3,2,11,13,58,232,36,19,65,149,29,16,35,055,35,11,16,164,33*7E
$GPGSV,3,3,11,03,70,079,34,06,44,054,44,27,55,062,34,,,,*45
$GPGST,030154.00,,137.20,137.14,089.2,011.71,011.71,011.73*4A
$GPRMC,030154.00,A,3917.26414,N,08203.79797,W,000.0,000.0,070214,07.2,W,A*04
$PTNLRTF,V,A,442930,11,3,3917.26414,N,08203.79797,W,00294,+000.000,+000.000,+000.000,0,1*53
$PTNLRBA,1,1*57
$GPZDA,030155.00,07,02,2014,,*66
$GPGGA,030155.00,3917.26415,N,08203.79797,W,1,11,0.88,00294,M,-033,M,,*58
$GPGLL,3917.26415,N,08203.79797,W,030155.00,A,A*7F
$GPVTG,000.0,T,007.2,M,000.0,N,000.0,K,A*26
$GPGSA,A,3,09,08,07,23,13,19,16,11,03,06,27,,1.60,0.88,1.34*09
$GPGSV,3,1,11,09,11,307,39,08,17,305,42,07,48,315,31,23,36,192,27*77
$GPGSV,3,2,11,13,58,232,35,19,65,149,29,16,35,055,36,11,16,164,33*7E
$GPGSV,3,3,11,03,70,079,33,06,44,054,44,27,55,062,34,,,,*42
$GPGST,030155.00,,144.55,144.49,089.3,012.02,012.02,012.03*44
$GPRMC,030155.00,A,3917.26415,N,08203.79797,W,000.0,000.0,070214,07.2,W,A*04
$PTNLRTF,V,A,442931,11,3,3917.26415,N,08203.79797,W,00294,+000.000,+000.000,+000.000,0,1*53
$PTNLRBA,1,1*57
$GPZDA,030157.00,07,02,2014,,*64
$GPGGA,030157.00,3917.26416,N,08203.79796,W,1,11,0.87,00294,M,-033,M,,*57
$GPGLL,3917.26416,N,08203.79796,W,030157.00,A,A*7F
$GPVTG,000.0,T,007.2,M,000.0,N,000.0,K,A*26
$GPGSA,A,3,09,08,07,23,13,19,16,11,03,06,27,,1.60,0.87,1.34*06
$GPGSV,3,1,11,09,11,307,40,08,17,305,42,07,48,315,31,23,36,192,29*77
$GPGSV,3,2,11,13,58,232,35,19,65,149,29,16,35,055,36,11,16,164,32*7F
$GPGSV,3,3,11,03,70,079,33,06,44,054,44,27,55,062,34,,,,*42
