$GPZDA,013913.00,24,12,2013,,*6A
$GPGGA,013913.00,4003.44890,N,08254.35217,W,2,09,0.88,00260,M,-033,M,,*5B
$GPGLL,4003.44890,N,08254.35217,W,013913.00,A,D*78
$GPVTG,274.9,T,281.6,M,034.13,N,063.22,K,D*23
$GPGSA,A,3,25,01,29,31,32,14,20,16,23,,,,1.49,0.88,1.21*03
$GPGSV,3,1,10,25,24,044,45,01,07,259,36,29,11,079,40,31,69,022,50*7E
$GPGSV,3,2,10,32,61,261,50,14,35,102,47,20,34,302,48,16,21,192,47*79
$GPGSV,3,3,10,46,43,203,47,23,10,300,46,,,,,,,,*7E
$GPGST,013913.00,,023.63,022.92,085.2,004.86,004.79,004.92*4F
$GPRMC,013913.00,A,4003.44890,N,08254.35217,W,034.13,274.9,241213,06.7,W,D*3D
$PTNL$GPZDA,013916.00,24,12,2013,,*6F
$GPGGA,013916.00,4003.45136,N,08254.38915,W,2,09,0.88,00260,M,-033,M,,*5E
$GPGLL,4003.45136,N,08254.38915,W,013916.00,A,D*7D
$GPVTG,275.0,T,281.7,M,033.94,N,062.85,K,D*2E
$GPGSA,A,3,25,01,29,31,32,14,20,16,23,,,,1.49,0.88,1.21*03
$GPGSV,3,1,10,25,24,044,45,01,07,259,36,29,11,079,40,31,69,022,49*76
$GPGSV,3,2,10,32,61,261,50,14,35,102,47,20,34,302,48,16,21,192,47*79
$GPGSV,3,3,10,46,43,203,47,23,10,300,46,,,,,,,,*7E
$GPGST,013916.00,,020.18,019.56,086.0,004.49,004.42,004.57*46
$GPRMC,013916.00,A,4003.45136,N,08254.38915,W,033.94,275.0,241213,06.7,W,D*38
$PTNLRTF,V,A,178772,09,3,4003.45136,N,08254.38915,W,00260,-017.392,+001.516,-000.038,0,1*5B
$PTNLRBA,1,1*57
$GPZDA,013918.00,24,12,2013,,*61
$GPGGA,013918.00,4003.45284,N,08254.41291,W,2,09,0.88,00260,M,-033,M,,*53
$GPGLL,4003.45284,N,08254.41291,W,013918.00,A,D*70
$GPVTG,274.4,T,281.1,M,032.46,N,060.12,K,D*2F
$GPGSA,A,3,25,01,29,31,32,14,20,16,23,,,,1.49,0.88,1.21*03
$GPGSV,3,1,10,25,24,044,45,01,07,259,36,29,11,079,41,31,69,022,50*7F
$GPGSV,3,2,10,32,61,261,50,14,35,102,47,20,34,302,48,16,21,192,47*79
$GPGSV,3,3,10,46,43,203,46,23,10,300,46,,,,,,,,*7F
$GPGST,013918.00,,018.86,018.31,087.1,004.34,004.28,004.42*46
$GPRMC,013918.00,A,4003.45284,N,08254.41291,W,032.46,274.4,241213,06.7,W,D*3E
$PTNLRTF,V,A,178774,09,3,4003.45284,N,08254.41291,W,00260,-016.652,+001.283,-000.044,0,1*56
$PTNLRBA,1,1*57
$GPZDA,013919.00,24,12,2013,,*60
$GPGGA,013919.00,4003.45361,N,08254.42456,W,2,09,0.88,00260,M,-033,M,,*56
$GPGLL,4003.45361,N,08254.42456,W,013919.00,A,D*75
$GPVTG,274.7,T,281.4,M,032.20,N,059.63,K,D*25
$GPGSA,A,3,25,01,29,31,32,14,20,16,23,,,,1.49,0.88,1.21*03
$GPGSV,3,1,10,25,24,044,46,01,07,259,37,29,11,079,41,31,69,022,50*7D
$GPGSV,3,2,10,32,61,261,50,14,35,102,48,20,34,302,48,16,21,192,47*76
$GPGSV,3,3,10,46,43,203,46,23,10,300,45,,,,,,,,*7C
$GPGST,013919.00,,017.91,017.37,087.3,004.23,004.17,004.31*4B
$GPRMC,013919.00,A,4003.45361,N,08254.42456,W,032.20,274.7,241213,06.7,W,D*38
$PTNLRTF,V,A,178775,09,3,4003.45361,N,08254.42456,W,00260,-016.507,+001.356,-000.099,0,1*59
$PTNLRBA,1,1*57
$GPZDA,013921.00,24,12,2013,,*6B
$GPGGA,013921.00,4003.45538,N,08254.44747,W,2,09,0.88,00260,M,-033,M,,*52
$GPGLL,4003.45538,N,08254.44747,W,013921.00,A,D*71
$GPVTG,275.8,T,282.5,M,031.65,N,058.61,K,D*28
$GPGSA,A,3,25,01,29,31,32,14,20,16,23,,,,1.49,0.88,1.21*03
$GPGSV,3,1,10,25,24,044,44,01,07,259,36,29,11,079,41,31,69,022,50*7E
$GPGSV,3,2,10,32,61,261,51,14,35,102,48,20,34,302,48,16,21,192,48*78
$GPGSV,3,3,10,46,43,203,46,23,10,300,43,,,,,,,,*7A
$GPGST,013921.00,,017.13,016.63,087.4,004.14,004.08,004.22*45
$GPRMC,013921.00,A,4003.45538,N,08254.44747,W,031.65,275.8,241213,06.7,W,D*30
$PTNLRTF,V,A,178777,09,3,4003.45538,N,08254.44747,W,00260,-016.198,+001.644,-000.040,0,1*54
$PTNLRBA,1,1*57
$GPZDA,013923.00,24,12,2013,,*69
$GPGGA,013923.00,4003.45753,N,08254.47127,W,2,09,0.88,00260,M,-033,M,,*5C
$GPGLL,4003.45753,N,08254.47127,W,013923.00,A,D*7F
$GPVTG,276.5,T,283.2,M,033.48,N,062.01,K,D*22
$GPGSA,A,3,25,01,29,31,32,14,20,16,23,,,,1.49,0.88,1.21*03
$GPGSV,3,1,10,25,24,044,45,01,07,259,36,29,11,079,44,31,69,022,49*72
$GPGSV,3,2,10,32,61,261,51,14,35,102,47,20,34,302,48,16,21,192,49*76
$GPGSV,3,3,10,46,43,203,46,23,10,300,43,,,,,,,,*7A
$GPGST,013923.00,,015.50,015.07,089.6,003.94,003.88,004.02*4D
$GPRMC,013923.00,A,4003.45753,N,08254.47127,W,033.48,276.5,241213,06.7,W,D*3D
$PTNLRTF,V,A,178779,09,3,4003.45753,N,08254.47127,W,00260,-017.113,+001.955,+000.061,0,1*5E
$PTNLRBA,1,1*57
$GPZDA,013924.00,24,12,2013,,*6E
$GPGGA,013924.00,4003.45861,N,08254.48353,W,2,09,0.88,00260,M,-033,M,,*5B
$GPGLL,4003.45861,N,08254.48353,W,013924.00,A,D*78
$GPVTG,276.5,T,283.2,M,034.00,N,062.97,K,D*26
$GPGSA,A,3,25,01,29,31,32,14,20,16,23,,,,1.49,0.88,1.21*03
$GPGSV,3,1,10,25,24,044,46,01,07,259,36,29,11,079,42,31,69,022,50*7F
$GPGSV,3,2,10,32,61,261,50,14,35,102,47,20,34,302,49,16,21,192,48*77
$GPGSV,3,3,10,46,43,203,46,23,10,300,43,,,,,,,,*7A
$GPGST,013924.00,,015.03,014.62,089.4,003.88,003.82,003.97*40
$GPRMC,013924.00,A,4003.45861,N,08254.48353,W,034.00,276.5,241213,06.7,W,D*31
$PTNLRTF,V,A,178780,09,3,4003.45861,N,08254.48353,W,00260,-017.380,+001.975,+000.098,0,1*54
$PTNLRBA,1,1*57
$GPZDA,013926.00,24,12,2013,,*6C
$GPGGA,013926.00,4003.46071,N,08254.50848,W,2,09,0.88,00260,M,-033,M,,*5B
$GPGLL,4003.46071,N,08254.50848,W,013926.00,A,D*78
$GPVTG,275.4,T,282.1,M,034.75,N,064.36,K,D*29
$GPGSA,A,3,25,01,29,31,32,14,20,16,23,,,,1.49,0.88,1.21*03
$GPGSV,3,1,10,25,24,044,46,01,07,259,35,29,11,079,41,31,69,022,50*7F
$GPGSV,3,2,10,32,61,261,50,14,35,102,47,20,34,302,48,16,21,192,47*79
$GPGSV,3,3,10,46,43,203,46,23,10,300,42,,,,,,,,*7B
$GPGST,013926.00,,014.05,013.64,089.7,003.75,003.69,003.84*42
$GPRMC,013926.00,A,4003.46071,N,08254.50848,W,034.75,275.4,241213,06.7,W,D*31
$PTNLRTF,V,A,178782,09,3,4003.46071,N,08254.50848,W,00260,-017.799,+001.672,-000.054,0,1*56
$PTNLRBA,1,1*57
$GPZDA,013927.00,24,12,2013,,*6D
$GPGGA,013927.00,4003.46137,N,08254.52111,W,2,09,0.88,00260,M,-033,M,,*5E
$GPGLL,4003.46137,N,08254.52111,W,013927.00,A,D*7D
$GPVTG,273.8,T,280.5,M,034.93,N,064.70,K,D*2F
$GPGSA,A,3,25,01,29,31,32,14,20,16,23,,,,1.49,0.88,1.21*03
$GPGSV,3,1,10,25,24,044,45,01,07,259,34,29,11,079,40,31,69,022,49*74
$GPGSV,3,2,10,32,61,261,49,14,35,102,46,20,34,302,48,16,21,192,47*70
$GPGSV,3,3,10,46,43,203,46,23,10,300,47,,,,,,,,*7E
$GPGST,013927.00,,013.42,013.00,089.4,003.66,003.61,003.76*41
$GPRMC,013927.00,A,4003.46137,N,08254.52111,W,034.93,273.8,241213,06.7,W,D*36
$PTNLRTF,V,A,178783,09,3,4003.46137,N,08254.52111,W,00260,-017.931,+001.203,-000.117,0,1*5B
$PTNLRBA,1,1*57
$GPZDA,013928.00,24,12,2013,,*62
$GPGGA,013928.00,4003.46195,N,08254.53349,W,2,09,0.88,00260,M,-033,M,,*57
$GPGLL,4003.46195,N,08254.53349,W,013928.00,A,D*74
$GPVTG,273.5,T,280.2,M,034.23,N,063.40,K,D*2A
$GPGSA,A,3,25,01,29,31,32,14,20,16,23,,,,1.49,0.88,1.21*03
$GPGSV,3,1,10,25,24,044,45,01,07,259,36,29,11,079,40,31,69,022,49*76
$GPGSV,3,2,10,32,61,261,50,14,35,102,47,20,34,302,48,16,21,192,47*79
$GPGSV,3,3,10,46,43,203,46,23,10,300,45,,,,,,,,*7C
$GPGST,013928.00,,012.61,012.21,089.9,003.55,003.49,003.65*49
$GPRMC,013928.00,A,4003.46195,N,08254.53349,W,034.23,273.5,241213,06.7,W,D*39
$PTNLRTF,V,A,178785,09,3,4003.46195,N,08254.53349,W,00260,-017.579,+001.066,-000.125,0,1*5B
$PTNLRBA,1,1*57
$GPZDA,013930.00,24,12,2013,,*6B
$GPGGA,013930.00,4003.46304,N,08254.55739,W,2,09,0.88,00259,M,-033,M,,*5B
$GPGLL,4003.46304,N,08254.55739,W,013930.00,A,D*72
$GPVTG,273.3,T,280.0,M,032.50,N,060.20,K,D*29
$GPGSA,A,3,25,01,29,31,32,14,20,16,23,,,,1.49,0.88,1.21*03
$GPGSV,3,1,10,25,24,044,45,01,07,259,35,29,11,079,40,31,69,022,50*7D
$GPGSV,3,2,10,32,61,261,50,14,35,102,47,20,34,302,48,16,21,192,47*79
$GPGSV,3,3,10,46,43,203,47,23,10,300,45,,,,,,,,*7D
$GPGST,013930.00,,012.04,011.69,088.8,003.47,003.42,003.57*45
$GPRMC,013930.00,A,4003.46304,N,08254.55739,W,032.50,273.3,241213,06.7,W,D*3B
$PTNLRTF,V,A,178786,09,3,4003.46304,N,08254.55739,W,00259,-016.694,+000.960,-000.165,0,1*56
$PTNLRBA,1,1*57
$GPZDA,013932.00,24,12,2013,,*69
$GPGGA,013932.00,4003.46427,N,08254.57976,W,2,09,0.88,00259,M,-033,M,,*58
$GPGLL,4003.46427,N,08254.57976,W,013932.00,A,D*71
$GPVTG,274.1,T,280.8,M,030.19,N,055.91,K,D*27
$GPGSA,A,3,25,01,29,31,32,14,20,16,23,,,,1.49,0.88,1.21*03
$GPGSV,3,1,10,25,24,044,46,01,07,259,37,29,11,078,42,31,68,022,49*76
$GPGSV,3,2,10,32,61,260,49,14,35,103,47,20,34,302,47,16,21,192,47*7E
$GPGSV,3,3,10,46,43,203,47,23,10,301,46,,,,,,,,*7F
$GPGST,013932.00,,011.04,010.76,089.2,003.32,003.28,003.43*4B
$GPRMC,013932.00,A,4003.46427,N,08254.57976,W,030.19,274.1,241213,06.7,W,D*32
$PTNLRTF,V,A,178788,09,3,4003.46427,N,08254.57976,W,00259,-015.491,+001.118,-000.025,0,1*5E
$PTNLRBA,1,1*57
$GPZDA,013933.00,24,12,2013,,*68
$GPGGA,013933.00,4003.46480,N,08254.58981,W,2,09,0.88,00260,M,-033,M,,*59
$GPGLL,4003.46480,N,08254.58981,W,013933.00,A,D*7A
$GPVTG,273.7,T,280.4,M,027.69,N,051.28,K,D*2D
$GPGSA,A,3,25,01,29,31,32,14,20,16,23,,,,1.49,0.88,1.21*03
$GPGSV,3,1,10,25,24,044,45,01,07,259,36,29,11,078,40,31,68,022,50*7E
$GPGSV,3,2,10,32,61,260,50,14,35,103,47,20,34,302,48,16,21,192,48*76
$GPGSV,3,3,10,46,43,203,47,23,10,301,46,,,,,,,,*7F
$GPGST,013933.00,,011.09,010.95,084.0,003.33,003.31,003.44*4B
$GPRMC,013933.00,A,4003.46480,N,08254.58981,W,027.69,273.7,241213,06.7,W,D*39
$PTNLRTF,V,A,178789,09,3,4003.46480,N,08254.58981,W,00260,-014.215,+000.918,+000.099,0,1*5C
$PTNLRBA,1,1*57
$GPZDA,013935.00,24,12,2013,,*6E
$GPGGA,013935.00,4003.46592,N,08254.60408,W,2,09,0.88,00259,M,-033,M,,*50
$GPGLL,4003.46592,N,08254.60408,W,013935.00,A,D*79
$GPVTG,278.7,T,285.4,M,016.70,N,030.93,K,D*2E
$GPGSA,A,3,25,01,29,31,32,14,20,16,23,,,,1.49,0.88,1.21*03
$GPGSV,3,1,10,25,24,044,45,01,07,259,36,29,11,078,42,31,68,022,50*7C
$GPGSV,3,2,10,32,61,260,51,14,35,103,47,20,34,302,48,16,21,192,48*77
$GPGSV,3,3,10,46,43,203,47,23,10,301,45,,,,,,,,*7C
$GPGST,013935.00,,015.50,014.25,005.3,003.78,003.94,003.87*4F
$GPRMC,013935.00,A,4003.46592,N,08254.60408,W,016.70,278.7,241213,06.7,W,D*3B
$PTNLRTF,V,A,178791,09,3,4003.46592,N,08254.60408,W,00259,-008.494,+001.295,-000.060,0,1*57
$PTNLRBA,1,1*57
$GPZDA,013936.00,24,12,2013,,*6D
$GPGGA,013936.00,4003.46725,N,08254.60893,W,2,09,0.88,00260,M,-033,M,,*59
$GPGLL,4003.46725,N,08254.60893,W,013936.00,A,D*7A
$GPVTG,289.8,T,296.5,M,013.97,N,025.87,K,D*21
$GPGSA,A,3,25,01,29,31,32,14,20,16,23,,,,1.49,0.88,1.21*03
$GPGSV,3,1,10,25,24,044,46,01,07,259,34,29,11,078,42,31,68,022,50*7D
$GPGSV,3,2,10,32,61,260,50,14,35,103,47,20,34,302,48,16,21,192,49*77
$GPGSV,3,3,10,46,43,203,46,23,10,301,44,,,,,,,,*7C
$GPGST,013936.00,,016.85,015.52,012.9,003.95,004.10,004.02*48
$GPRMC,013936.00,A,4003.46725,N,08254.60893,W,013.97,289.8,241213,06.7,W,D*35
$PTNLRTF,V,A,178792,09,3,4003.46725,N,08254.60893,W,00260,-006.762,+002.432,+000.095,0,1*5E
$PTNLRBA,1,1*57
$GPZDA,013938.00,24,12,2013,,*63
$GPGGA,013938.00,4003.47346,N,08254.61535,W,2,09,0.88,00259,M,-033,M,,*5D
$GPGLL,4003.47346,N,08254.61535,W,013938.00,A,D*74
$GPVTG,334.9,T,341.6,M,014.73,N,027.28,K,D*25
$GPGSA,A,3,25,01,29,31,32,14,20,16,23,,,,1.49,0.88,1.21*03
$GPGSV,3,1,10,25,24,044,47,01,07,259,39,29,11,078,46,31,68,022,50*75
$GPGSV,3,2,10,32,61,260,50,14,35,103,47,20,34,302,48,16,21,192,47*79
$GPGSV,3,3,10,46,43,203,46,23,10,301,41,,,,,,,,*79
$GPGST,013938.00,,021.55,019.65,036.1,004.51,004.57,004.48*4B
$GPRMC,013938.00,A,4003.47346,N,08254.61535,W,014.73,334.9,241213,06.7,W,D*30
$PTNLRTF,V,A,178794,09,3,4003.47346,N,08254.61535,W,00259,-003.209,+006.866,-000.263,0,1*5B
$PTNLRBA,1,1*57
$GPZDA,013939.00,24,12,2013,,*62
$GPGGA,013939.00,4003.47754,N,08254.61598,W,2,09,0.88,00259,M,-033,M,,*5C
$GPGLL,4003.47754,N,08254.61598,W,013939.00,A,D*75
$GPVTG,354.7,T,001.4,M,014.89,N,027.58,K,D*2A
$GPGSA,A,3,25,01,29,31,32,14,20,16,23,,,,1.49,0.88,1.21*03
$GPGSV,3,1,10,25,24,044,48,01,07,259,39,29,11,078,45,31,68,022,50*79
$GPGSV,3,2,10,32,61,260,49,14,35,103,48,20,34,302,46,16,21,192,46*71
$GPGSV,3,3,10,46,43,203,46,23,10,301,43,,,,,,,,*7B
$GPGST,013939.00,,024.64,022.47,031.6,004.80,004.90,004.78*41
$GPRMC,013939.00,A,4003.47754,N,08254.61598,W,014.89,354.7,241213,06.7,W,D*3C
$PTNLRTF,V,A,178795,09,3,4003.47754,N,08254.61598,W,00259,-000.702,+007.629,-000.181,0,1*5C
$PTNLRBA,1,1*57
$GPZDA,013941.00,24,12,2013,,*6D
$GPGGA,013941.00,4003.48742,N,08254.61542,W,2,09,0.88,00259,M,-033,M,,*5C
$GPGLL,4003.48742,N,08254.61542,W,013941.00,A,D*75
$GPVTG,004.2,T,010.9,M,019.15,N,035.46,K,D*20
$GPGSA,A,3,25,01,29,31,32,14,20,16,23,,,,1.49,0.88,1.21*03
$GPGSV,3,1,10,25,24,044,47,01,07,259,42,29,11,078,43,31,68,022,50*7C
$GPGSV,3,2,10,32,61,260,50,14,35,103,48,20,34,302,47,16,21,192,46*78
$GPGSV,3,3,10,46,43,203,46,23,10,301,44,,,,,,,,*7C
$GPGST,013941.00,,030.71,028.90,034.6,005.43,005.49,005.41*4A
$GPRMC,013941.00,A,4003.48742,N,08254.61542,W,019.15,004.2,241213,06.7,W,D*37
$PTNLRTF,V,A,178797,09,3,4003.48742,N,08254.61542,W,00259,+000.722,+009.823,+000.099,0,1*51
$PTNLRBA,1,1*57
$GPZDA,013942.00,24,12,2013,,*6E
$GPGGA,013942.00,4003.49332,N,08254.61527,W,2,09,0.88,00259,M,-033,M,,*5E
$GPGLL,4003.49332,N,08254.61527,W,013942.00,A,D*77
$GPVTG,002.3,T,009.0,M,021.39,N,039.61,K,D*2A
$GPGSA,A,3,25,01,29,31,32,14,20,16,23,,,,1.49,0.88,1.21*03
$GPGSV,3,1,10,25,24,044,46,01,07,259,39,29,11,078,46,31,68,022,49*7C
$GPGSV,3,2,10,32,61,260,49,14,35,103,47,20,34,302,48,16,21,192,46*70
$GPGSV,3,3,10,46,43,203,46,23,10,301,45,,,,,,,,*7D
$GPGST,013942.00,,031.86,030.38,036.0,005.56,005.60,005.54*44
$GPRMC,013942.00,A,4003.49332,N,08254.61527,W,021.39,002.3,241213,06.7,W,D*37
$PTNLRTF,V,A,178798,09,3,4003.49332,N,08254.61527,W,00259,+000.441,+010.995,+000.066,0,1*5D
$PTNLRBA,1,1*57
$GPZDA,013944.00,24,12,2013,,*68
$GPGGA,013944.00,4003.50666,N,08254.61494,W,2,09,0.88,00258,M,-033,M,,*5C
$GPGLL,4003.50666,N,08254.61494,W,013944.00,A,D*74
$GPVTG,002.0,T,008.7,M,024.50,N,045.37,K,D*2D
$GPGSA,A,3,25,01,29,31,32,14,20,16,23,,,,1.50,0.88,1.21*0B
$GPGSV,3,1,10,25,24,044,47,01,07,259,40,29,11,078,45,31,68,022,49*70
$GPGSV,3,2,10,32,61,260,50,14,35,103,49,20,34,302,48,16,21,192,46*76
$GPGSV,3,3,10,46,43,203,47,23,10,301,44,,,,,,,,*7D
$GPGST,013944.00,,035.42,034.32,039.7,005.90,005.91,005.88*4D
$GPRMC,013944.00,A,4003.50666,N,08254.61494,W,024.50,002.0,241213,06.7,W,D*3D
$PTNLRTF,V,A,178800,09,3,4003.50666,N,08254.61494,W,00258,+000.447,+012.595,-000.099,0,1*59
$PTNLRBA,1,1*57
$GPZDA,013945.00,24,12,2013,,*69
$GPGGA,013945.00,4003.51324,N,08254.61468,W,2,09,0.88,00259,M,-033,M,,*5D
$GPGLL,4003.51324,N,08254.61468,W,013945.00,A,D*74
$GPVTG,002.8,T,009.5,M,023.85,N,044.16,K,D*2B
$GPGSA,A,3,25,01,29,31,32,14,20,16,23,,,,1.50,0.88,1.21*0B
$GPGSV,3,1,10,25,24,044,47,01,07,259,40,29,11,078,43,31,68,022,50*7E
$GPGSV,3,2,10,32,61,260,50,14,35,103,48,20,34,302,47,16,21,192,45*7B
$GPGSV,3,3,10,46,43,203,47,23,10,301,45,,,,,,,,*7C
$GPGST,013945.00,,035.82,034.84,040.9,005.94,005.95,005.93*47
$GPRMC,013945.00,A,4003.51324,N,08254.61468,W,023.85,002.8,241213,06.7,W,D*3A
$PTNLRTF,V,A,178802,09,3,4003.51324,N,08254.61468,W,00259,+000.593,+012.253,+000.085,0,1*55
$PTNLRBA,1,1*57
$GPZDA,013947.00,24,12,2013,,*6B
$GPGGA,013947.00,4003.52589,N,08254.61385,W,2,09,0.88,00258,M,-033,M,,*58
$GPGLL,4003.52589,N,08254.61385,W,013947.00,A,D*70
$GPVTG,004.1,T,010.8,M,022.78,N,042.20,K,D*21
$GPGSA,A,3,25,01,29,31,32,14,20,16,23,,,,1.50,0.88,1.21*0B
$GPGSV,3,1,10,25,24,044,47,01,07,259,37,29,11,078,43,31,68,022,49*76
$GPGSV,3,2,10,32,61,260,50,14,35,103,47,20,34,302,47,16,21,192,46*77
$GPGSV,3,3,10,46,43,203,48,23,10,301,44,,,,,,,,*72
$GPGST,013947.00,,036.48,035.69,043.6,006.01,006.01,006.01*47
$GPRMC,013947.00,A,4003.52589,N,08254.61385,W,022.78,004.1,241213,06.7,W,D*32
$PTNLRTF,V,A,178803,09,3,4003.52589,N,08254.61385,W,00258,+000.832,+011.692,+000.025,0,1*55
$PTNLRBA,1,1*57
$GPZDA,013949.00,24,12,2013,,*65
$GPGGA,013949.00,4003.53816,N,08254.61429,W,2,09,0.88,00259,M,-033,M,,*5C
$GPGLL,4003.53816,N,08254.61429,W,013949.00,A,D*75
$GPVTG,358.1,T,004.8,M,022.07,N,040.88,K,D*26
$GPGSA,A,3,25,01,29,31,32,14,20,16,23,,,,1.50,0.88,1.21*0B
$GPGSV,3,1,10,25,24,044,47,01,07,259,41,29,11,078,29,31,68,022,49*7B
$GPGSV,3,2,10,32,61,260,51,14,35,103,46,20,34,302,47,16,21,192,47*76
$GPGSV,3,3,10,46,43,203,47,23,10,301,43,,,,,,,,*7A
$GPGST,013949.00,,037.11,036.41,041.6,006.06,006.07,006.08*47
$GPRMC,013949.00,A,4003.53816,N,08254.61429,W,022.07,358.1,241213,06.7,W,D*35
$PTNLRTF,V,A,178805,09,3,4003.53816,N,08254.61429,W,00259,-000.370,+011.348,+000.036,0,1*52
$PTNLRBA,1,1*57
$GPZDA,013950.00,24,12,2013,,*6D
$GPGGA,013950.00,4003.54414,N,08254.61471,W,2,08,0.95,00259,M,-033,M,,*5D
$GPGLL,4003.54414,N,08254.61471,W,013950.00,A,D*79
$GPVTG,357.5,T,004.2,M,021.60,N,040.00,K,D*25
$GPGSA,A,3,25,01,31,32,14,20,16,23,,,,,1.68,0.95,1.38*0F
$GPGSV,3,1,10,25,24,044,47,01,07,259,41,29,11,078,42,31,68,022,50*7E
$GPGSV,3,2,10,32,61,260,51,14,35,103,46,20,34,302,46,16,21,192,47*77
$GPGSV,3,3,10,46,43,203,48,23,10,301,44,,,,,,,,*72
$GPGST,013950.00,,036.36,035.72,042.7,006.00,006.01,006.02*40
$GPRMC,013950.00,A,4003.54414,N,08254.61471,W,021.60,357.5,241213,06.7,W,D*30
$PTNLRTF,V,A,178806,08,3,4003.54414,N,08254.61471,W,00259,-000.478,+011.100,+000.050,0,1*55
$PTNLRBA,1,1*57
$GPZDA,013952.00,24,12,2013,,*6F
$GPGGA,013952.00,4003.55563,N,08254.61443,W,2,08,0.92,00259,M,-033,M,,*59
$GPGLL,4003.55563,N,08254.61443,W,013952.00,A,D*7A
$GPVTG,003.2,T,009.9,M,020.52,N,038.01,K,D*28
$GPGSA,A,3,25,29,31,32,14,20,16,23,,,,,1.63,0.92,1.35*04
$GPGSV,3,1,10,25,24,044,47,01,07,259,39,29,11,078,44,31,68,022,49*7F
$GPGSV,3,2,10,32,61,260,50,14,35,103,47,20,34,302,48,16,21,192,46*78
$GPGSV,3,3,10,46,43,203,48,23,10,301,44,,,,,,,,*72
$GPGST,013952.00,,035.14,034.69,044.7,005.91,005.91,005.94*41
$GPRMC,013952.00,A,4003.55563,N,08254.61443,W,020.52,003.2,241213,06.7,W,D*36
$PTNLRTF,V,A,178808,08,3,4003.55563,N,08254.61443,W,00259,+000.597,+010.541,+000.025,0,1*5E
$PTNLRBA,1,1*57
$GPZDA,013953.00,24,12,2013,,*6E
$GPGGA,013953.00,4003.56123,N,08254.61401,W,2,09,0.88,00259,M,-033,M,,*57
$GPGLL,4003.56123,N,08254.61401,W,013953.00,A,D*7E
$GPVTG,004.4,T,011.1,M,020.29,N,037.57,K,D*28
$GPGSA,A,3,25,01,29,31,32,14,20,16,23,,,,1.50,0.88,1.21*0B
$GPGSV,3,1,10,25,24,044,47,01,07,259,39,29,11,078,45,31,68,022,49*7E
$GPGSV,3,2,10,32,61,260,50,14,35,103,47,20,34,302,48,16,21,192,45*7B
$GPGSV,3,3,10,46,43,203,47,23,10,301,45,,,,,,,,*7C
$GPGST,013953.00,,034.98,034.58,046.6,005.90,005.90,005.93*43
$GPRMC,013953.00,A,4003.56123,N,08254.61401,W,020.29,004.4,241213,06.7,W,D*3F
$PTNLRTF,V,A,178809,09,3,4003.56123,N,08254.61401,W,00259,+000.793,+010.406,+000.051,0,1*5C
$PTNLRBA,1,1*57
$GPZDA,013955.00,24,12,2013,,*68
$GPGGA,013955.00,4003.57210,N,08254.61339,W,2,08,0.92,00259,M,-033,M,,*55
$GPGLL,4003.57210,N,08254.61339,W,013955.00,A,D*76
$GPVTG,003.4,T,010.1,M,019.39,N,035.90,K,D*2C
$GPGSA,A,3,25,29,31,32,14,20,16,23,,,,,1.63,0.92,1.35*04
$GPGSV,3,1,10,25,24,044,46,01,07,259,42,29,11,078,45,31,68,022,50*7B
$GPGSV,3,2,10,32,61,260,49,14,35,103,47,20,34,302,48,16,21,192,45*73
$GPGSV,3,3,10,46,43,203,47,23,10,301,43,,,,,,,,*7A
$GPGST,013955.00,,034.60,034.25,050.1,005.87,005.86,005.91*4B
$GPRMC,013955.00,A,4003.57210,N,08254.61339,W,019.39,003.4,241213,06.7,W,D*3B
$PTNLRTF,V,A,178811,08,3,4003.57210,N,08254.61339,W,00259,+000.591,+009.955,-000.005,0,1*5E
$PTNLRBA,1,1*57
$GPZDA,013956.00,24,12,2013,,*6B
$GPGGA,013956.00,4003.57706,N,08254.61307,W,2,09,0.88,00259,M,-033,M,,*53
$GPGLL,4003.57706,N,08254.61307,W,013956.00,A,D*7A
$GPVTG,003.4,T,010.1,M,018.01,N,033.35,K,D*2F
$GPGSA,A,3,25,01,29,31,32,14,20,16,23,,,,1.50,0.88,1.21*0B
$GPGSV,3,1,10,25,24,044,46,01,07,259,44,29,11,078,44,31,68,022,50*7C
$GPGSV,3,2,10,32,61,260,50,14,35,103,48,20,34,302,48,16,21,192,44*75
$GPGSV,3,3,10,46,43,203,47,23,10,301,39,,,,,,,,*77
$GPGST,013956.00,,032.77,032.42,056.3,005.71,005.70,005.75*41
$GPRMC,013956.00,A,4003.57706,N,08254.61307,W,018.01,003.4,241213,06.7,W,D*3D
$PTNLRTF,V,A,178812,09,3,4003.57706,N,08254.61307,W,00259,+000.552,+009.248,-000.083,0,1*55
$PTNLRBA,1,1*57
$GPZDA,013958.00,24,12,2013,,*65
$GPGGA,013958.00,4003.58431,N,08254.61430,W,2,09,0.88,00259,M,-033,M,,*56
$GPGLL,4003.58431,N,08254.61430,W,013958.00,A,D*7F
$GPVTG,345.7,T,352.4,M,011.62,N,021.53,K,D*22
$GPGSA,A,3,25,01,29,31,32,14,20,16,23,,,,1.50,0.88,1.21*0B
$GPGSV,3,1,10,25,24,044,47,01,07,259,39,29,11,078,44,31,68,022,50*77
$GPGSV,3,2,10,32,61,260,50,14,35,103,47,20,34,302,46,16,21,192,46*76
$GPGSV,3,3,10,46,43,203,47,23,10,301,41,,,,,,,,*78
$GPGST,013958.00,,033.43,032.29,055.6,005.75,005.71,005.74*46
$GPRMC,013958.00,A,4003.58431,N,08254.61430,W,011.62,345.7,241213,06.7,W,D*36
$PTNLRTF,V,A,178814,09,3,4003.58431,N,08254.61430,W,00259,-001.476,+005.794,-000.025,0,1*5C
$PTNLRBA,1,1*57
$GPZDA,013959.00,24,12,2013,,*64
$GPGGA,013959.00,4003.58652,N,08254.61623,W,2,09,0.88,00259,M,-033,M,,*50
$GPGLL,4003.58652,N,08254.61623,W,013959.00,A,D*79
$GPVTG,327.1,T,333.8,M,009.42,N,017.45,K,D*22
$GPGSA,A,3,25,01,29,31,32,14,20,16,23,,,,1.50,0.88,1.21*0B
$GPGSV,3,1,10,25,24,044,47,01,07,259,42,29,11,078,42,31,68,022,48*74
$GPGSV,3,2,10,32,61,260,50,14,35,103,45,20,34,302,47,16,21,192,46*75
$GPGSV,3,3,10,46,43,203,48,23,10,301,43,,,,,,,,*75
$GPGST,013959.00,,032.37,030.90,055.5,005.65,005.60,005.62*40
$GPRMC,013959.00,A,4003.58652,N,08254.61623,W,009.42,327.1,241213,06.7,W,D*39
$PTNLRTF,V,A,178815,09,3,4003.58652,N,08254.61623,W,00259,-002.630,+004.071,-000.135,0,1*54
$PTNLRBA,1,1*57
$GPZDA,014000.00,24,12,2013,,*66
$GPGGA,014000.00,4003.58789,N,08254.61832,W,2,09,0.88,00259,M,-033,M,,*5B
$GPGLL,4003.58789,N,08254.61832,W,014000.00,A,D*72
$GPVTG,311.1,T,317.8,M,007.38,N,013.67,K,D*26
$GPGSA,A,3,25,01,29,31,32,14,20,16,23,,,,1.50,0.88,1.21*0B
$GPGSV,3,1,10,25,24,044,46,01,07,259,41,29,11,078,42,31,68,022,49*77
$GPGSV,3,2,10,32,61,260,51,14,35,103,46,20,34,302,48,16,21,192,48*76
$GPGSV,3,3,10,46,43,203,47,23,10,301,42,,,,,,,,*7B
$GPGST,014000.00,,031.25,029.73,059.1,005.55,005.49,005.51*47
$GPRMC,014000.00,A,4003.58789,N,08254.61832,W,007.38,311.1,241213,06.7,W,D*34
$PTNLRTF,V,A,178816,09,3,4003.58789,N,08254.61832,W,00259,-002.862,+002.496,+000.043,0,1*5A
$PTNLRBA,1,1*57
$GPZDA,014002.00,24,12,2013,,*64
$GPGGA,014002.00,4003.58867,N,08254.62055,W,2,09,0.88,00259,M,-033,M,,*5C
$GPGLL,4003.58867,N,08254.62055,W,014002.00,A,D*75
$GPVTG,281.8,T,288.5,M,001.20,N,002.23,K,D*22
$GPGSA,A,3,25,01,29,31,32,14,20,16,23,,,,1.50,0.88,1.21*0B
$GPGSV,3,1,10,25,24,044,47,01,07,259,42,29,11,078,44,31,68,022,51*7A
$GPGSV,3,2,10,32,61,260,51,14,35,103,46,20,34,302,48,16,21,192,49*77
$GPGSV,3,3,10,46,43,203,47,23,10,301,41,,,,,,,,*78
$GPGST,014002.00,,028.30,027.47,066.3,005.31,005.25,005.26*46
$GPRMC,014002.00,A,4003.58867,N,08254.62055,W,001.20,281.8,241213,06.7,W,D*3D
$PTNLRTF,V,A,178818,09,3,4003.58867,N,08254.62055,W,00259,-000.606,+000.126,-000.114,0,1*56
$PTNLRBA,1,1*57
$GPZDA,014003.00,24,12,2013,,*65
$GPGGA,014003.00,4003.58865,N,08254.62069,W,2,09,0.88,00259,M,-033,M,,*50
$GPGLL,4003.58865,N,08254.62069,W,014003.00,A,D*79
$GPVTG,257.9,T,264.6,M,000.26,N,000.47,K,D*2E
$GPGSA,A,3,25,01,29,31,32,14,20,16,23,,,,1.50,0.88,1.21*0B
$GPGSV,3,1,10,25,24,044,46,01,07,259,41,29,11,078,44,31,68,022,50*79
$GPGSV,3,2,10,32,61,260,50,14,35,103,47,20,34,302,49,16,21,192,48*77
$GPGSV,3,3,10,46,43,203,46,23,10,301,39,,,,,,,,*76
$GPGST,014003.00,,026.80,026.06,067.1,005.17,005.12,005.13*43
$GPRMC,014003.00,A,4003.58865,N,08254.62069,W,000.26,257.9,241213,06.7,W,D*3C
$PTNLRTF,V,A,178820,09,3,4003.58865,N,08254.62069,W,00259,-000.128,-000.028,+000.011,0,1*50
$PTNLRBA,1,1*57
$GPZDA,014005.00,24,12,2013,,*63
$GPGGA,014005.00,4003.58876,N,08254.62075,W,2,08,0.92,00259,M,-033,M,,*53
$GPGLL,4003.58876,N,08254.62075,W,014005.00,A,D*70
$GPVTG,000.0,T,006.7,M,000.00,N,000.00,K,D*27
$GPGSA,A,3,25,29,31,32,14,20,16,23,,,,,1.64,0.92,1.35*03
$GPGSV,3,1,10,25,24,044,47,01,07,259,41,29,11,078,43,31,68,022,50*7F
$GPGSV,3,2,10,32,61,260,51,14,35,103,47,20,34,302,48,16,21,192,48*77
$GPGSV,3,3,10,46,43,203,47,23,10,301,39,,,,,,,,*77
$GPGST,014005.00,,026.57,025.95,068.4,005.15,005.10,005.13*4C
$GPRMC,014005.00,A,4003.58876,N,08254.62075,W,000.00,000.0,241213,06.7,W,D*38
$PTNLRTF,V,A,178821,08,3,4003.58876,N,08254.62075,W,00259,+000.000,+000.000,+000.000,0,1*5E
$PTNLRBA,1,1*57
$GPZDA,014006.00,24,12,2013,,*60
$GPGGA,014006.00,4003.58898,N,08254.62158,W,2,08,0.92,00258,M,-033,M,,*5F
$GPGLL,4003.58898,N,08254.62158,W,014006.00,A,D*7D
$GPVTG,287.3,T,294.0,M,002.24,N,004.16,K,D*20
$GPGSA,A,3,25,29,31,32,14,20,16,23,,,,,1.64,0.92,1.35*03
$GPGSV,3,1,10,25,24,044,47,01,07,259,39,29,11,078,44,31,68,022,50*77
$GPGSV,3,2,10,32,61,260,51,14,35,103,47,20,34,302,48,16,21,192,48*77
$GPGSV,3,3,10,46,43,203,46,23,10,301,40,,,,,,,,*78
$GPGST,014006.00,,025.59,025.18,068.5,005.05,005.02,005.04*42
$GPRMC,014006.00,A,4003.58898,N,08254.62158,W,002.24,287.3,241213,06.7,W,D*3F
$PTNLRTF,V,A,178822,08,3,4003.58898,N,08254.62158,W,00258,-001.102,+000.343,-000.065,0,1*57
$PTNLRBA,1,1*57
$GPZDA,014008.00,24,12,2013,,*6E
$GPGGA,014008.00,4003.58917,N,08254.62317,W,2,09,0.88,00258,M,-033,M,,*54
$GPGLL,4003.58917,N,08254.62317,W,014008.00,A,D*7C
$GPVTG,272.4,T,279.0,M,001.33,N,002.46,K,D*28
$GPGSA,A,3,25,01,29,31,32,14,20,16,23,,,,1.50,0.88,1.21*0B
$GPGSV,3,1,10,25,24,044,47,01,07,259,34,29,11,078,45,31,68,022,49*73
$GPGSV,3,2,10,32,61,260,50,14,35,103,48,20,34,302,48,16,21,192,46*77
$GPGSV,3,3,10,46,43,203,47,23,10,301,38,,,,,,,,*76
$GPGST,014008.00,,025.34,025.04,071.4,005.03,005.01,005.04*46
$GPRMC,014008.00,A,4003.58917,N,08254.62317,W,001.33,272.4,241213,06.7,W,D*36
$PTNLRTF,V,A,178824,09,3,4003.58917,N,08254.62317,W,00258,-000.682,+000.028,-000.000,0,1*5C
$PTNLRBA,1,1*57
$GPZDA,014009.00,24,12,2013,,*6F
$GPGGA,014009.00,4003.58917,N,08254.62321,W,2,08,0.98,00259,M,-033,M,,*51
$GPGLL,4003.58917,N,08254.62321,W,014009.00,A,D*78
$GPVTG,142.5,T,149.2,M,000.03,N,000.06,K,D*2F
$GPGSA,A,3,25,01,29,31,32,14,20,16,,,,,1.65,0.98,1.32*0F
$GPGSV,3,1,10,25,24,044,45,01,07,258,33,29,11,078,44,31,68,023,50*7F
$GPGSV,3,2,10,32,61,260,50,14,35,103,47,20,34,301,48,16,21,192,46*7B
$GPGSV,3,3,10,46,43,203,46,23,11,301,39,,,,,,,,*77
$GPGST,014009.00,,023.92,023.66,071.1,004.89,004.87,004.90*4A
$GPRMC,014009.00,A,4003.58917,N,08254.62321,W,000.03,142.5,241213,06.7,W,D*31
$PTNLRTF,V,A,178825,08,3,4003.58917,N,08254.62321,W,00259,+000.010,-000.012,+000.114,0,1*5E
$PTNLRBA,1,1*57
$GPZDA,014011.00,24,12,2013,,*66
$GPGGA,014011.00,4003.58917,N,08254.62498,W,2,09,0.88,00259,M,-033,M,,*5D
$GPGLL,4003.58917,N,08254.62498,W,014011.00,A,D*74
$GPVTG,269.5,T,276.2,M,002.43,N,004.51,K,D*2A
$GPGSA,A,3,25,01,29,31,32,14,20,16,23,,,,1.50,0.88,1.21*0B
$GPGSV,3,1,10,25,24,044,47,01,07,258,35,29,11,078,42,31,68,023,50*7D
$GPGSV,3,2,10,32,61,259,51,14,35,103,48,20,34,301,48,16,21,192,48*71
$GPGSV,3,3,10,46,43,203,45,23,11,301,40,,,,,,,,*7A
$GPGST,014011.00,,021.84,021.71,060.6,004.67,004.66,004.70*44
$GPRMC,014011.00,A,4003.58917,N,08254.62498,W,002.43,269.5,241213,06.7,W,D*31
$PTNLRTF,V,A,178827,09,3,4003.58917,N,08254.62498,W,00259,-001.253,-000.011,+000.011,0,1*5D
$PTNLRBA,1,1*57
$GPZDA,014012.00,24,12,2013,,*65
$GPGGA,014012.00,4003.58914,N,08254.62553,W,2,09,0.88,00259,M,-033,M,,*5B
$GPGLL,4003.58914,N,08254.62553,W,014012.00,A,D*72
$GPVTG,262.4,T,269.1,M,001.36,N,002.53,K,D*28
$GPGSA,A,3,25,01,29,31,32,14,20,16,23,,,,1.50,0.88,1.21*0B
$GPGSV,3,1,10,25,24,044,44,01,07,258,33,29,11,078,43,31,68,023,51*78
$GPGSV,3,2,10,32,61,259,51,14,35,103,48,20,34,301,48,16,21,192,47*7E
$GPGSV,3,3,10,46,43,203,44,23,11,301,39,,,,,,,,*75
$GPGST,014012.00,,022.24,022.13,061.1,004.71,004.71,004.75*4B
$GPRMC,014012.00,A,4003.58914,N,08254.62553,W,001.36,262.4,241213,06.7,W,D*3C
$PTNLRTF,V,A,178828,09,3,4003.58914,N,08254.62553,W,00259,-000.695,-000.093,+000.034,0,1*55
$PTNLRBA,1,1*57
$GPZDA,014014.00,24,12,2013,,*63
$GPGGA,014014.00,4003.58908,N,08254.62626,W,2,08,0.98,00259,M,-033,M,,*51
$GPGLL,4003.58908,N,08254.62626,W,014014.00,A,D*78
$GPVTG,260.4,T,267.1,M,001.30,N,002.41,K,D*21
$GPGSA,A,3,25,01,29,31,32,14,20,16,,,,,1.65,0.98,1.32*0F
$GPGSV,3,1,10,25,24,044,46,01,07,258,32,29,11,078,42,31,68,023,50*7B
$GPGSV,3,2,10,32,61,259,51,14,35,103,47,20,34,301,48,16,21,192,48*7E
$GPGSV,3,3,10,46,43,203,44,23,11,301,39,,,,,,,,*75
$GPGST,014014.00,,021.13,021.05,064.8,004.60,004.59,004.64*48
$GPRMC,014014.00,A,4003.58908,N,08254.62626,W,001.30,260.4,241213,06.7,W,D*32
$PTNLRTF,V,A,178830,08,3,4003.58908,N,08254.62626,W,00259,-000.659,-000.112,-000.016,0,1*5F
$PTNLRBA,1,1*57
$GPZDA,014015.00,24,12,2013,,*62
$GPGGA,014015.00,4003.58905,N,08254.62692,W,2,09,0.88,00259,M,-033,M,,*52
$GPGLL,4003.58905,N,08254.62692,W,014015.00,A,D*7B
$GPVTG,264.8,T,271.4,M,001.75,N,003.25,K,D*29
$GPGSA,A,3,25,01,29,31,32,14,20,16,23,,,,1.50,0.88,1.21*0B
$GPGSV,3,1,10,25,24,044,47,01,07,258,33,29,11,078,43,31,68,023,49*72
$GPGSV,3,2,10,32,61,259,50,14,35,103,48,20,34,301,48,16,21,192,46*7E
$GPGSV,3,3,10,46,43,203,45,23,11,301,38,,,,,,,,*75
$GPGST,014015.00,,021.16,021.09,070.5,004.60,004.59,004.65*49
$GPRMC,014015.00,A,4003.58905,N,08254.62692,W,001.75,264.8,241213,06.7,W,D*38
$PTNLRTF,V,A,178831,09,3,4003.58905,N,08254.62692,W,00259,-000.898,-000.082,+000.090,0,1*5E
$PTNLRBA,1,1*57
$GPZDA,014017.00,24,12,2013,,*60
$GPGGA,014017.00,4003.58898,N,08254.62822,W,2,09,0.88,00259,M,-033,M,,*50
$GPGLL,4003.58898,N,08254.62822,W,014017.00,A,D*79
$GPVTG,263.4,T,270.1,M,002.34,N,004.33,K,D*20
$GPGSA,A,3,25,01,29,31,32,14,20,16,23,,,,1.50,0.88,1.21*0B
$GPGSV,3,1,10,25,24,044,46,01,07,258,35,29,11,078,43,31,68,023,50*7D
$GPGSV,3,2,10,32,61,259,51,14,35,103,47,20,34,301,49,16,21,192,48*7F
$GPGSV,3,3,10,46,43,203,46,23,11,301,34,,,,,,,,*7A
$GPGST,014017.00,,021.54,021.50,051.9,004.64,004.64,004.69*48
$GPRMC,014017.00,A,4003.58898,N,08254.62822,W,002.34,263.4,241213,06.7,W,D*37
$PTNLRTF,V,A,178833,09,3,4003.58898,N,08254.62822,W,00259,-001.196,-000.138,+000.051,0,1*57
$PTNLRBA,1,1*57
$GPZDA,014018.00,24,12,2013,,*6F
$GPGGA,014018.00,4003.58895,N,08254.62967,W,2,08,0.98,00259,M,-033,M,,*52
$GPGLL,4003.58895,N,08254.62967,W,014018.00,A,D*7B
$GPVTG,267.2,T,273.8,M,003.87,N,007.16,K,D*25
$GPGSA,A,3,25,01,29,31,32,14,20,16,,,,,1.65,0.98,1.32*0F
$GPGSV,3,1,10,25,24,044,46,01,07,258,35,29,11,078,44,31,68,023,50*7A
$GPGSV,3,2,10,32,61,259,51,14,35,103,46,20,34,301,48,16,21,192,45*72
$GPGSV,3,3,10,46,43,203,45,23,11,301,36,,,,,,,,*7B
$GPGST,014018.00,,020.80,020.75,008.7,004.56,004.56,004.61*43
$GPRMC,014018.00,A,4003.58895,N,08254.62967,W,003.87,267.2,241213,06.7,W,D*3E
$PTNLRTF,V,A,178834,08,3,4003.58895,N,08254.62967,W,00259,-001.987,-000.099,+000.040,0,1*5E
$PTNLRBA,1,1*57
$GPZDA,014020.00,24,12,2013,,*64
$GPGGA,014020.00,4003.58878,N,08254.63170,W,2,09,0.88,00260,M,-033,M,,*5F
$GPGLL,4003.58878,N,08254.63170,W,014020.00,A,D*7C
$GPVTG,263.0,T,269.7,M,002.36,N,004.37,K,D*2C
$GPGSA,A,3,25,01,29,31,32,14,20,16,23,,,,1.50,0.88,1.21*0B
$GPGSV,3,1,10,25,24,044,47,01,07,258,38,29,11,078,44,31,68,023,50*76
$GPGSV,3,2,10,32,61,259,51,14,35,103,46,20,34,301,49,16,21,192,48*7E
$GPGSV,3,3,10,46,43,203,44,23,11,301,34,,,,,,,,*78
$GPGST,014020.00,,020.59,020.56,007.3,004.53,004.54,004.60*40
$GPRMC,014020.00,A,4003.58878,N,08254.63170,W,002.36,263.0,241213,06.7,W,D*34
$PTNLRTF,V,A,178836,09,3,4003.58878,N,08254.63170,W,00260,-001.204,-000.149,+000.009,0,1*5A
$PTNLRBA,1,1*57
$GPZDA,014022.00,24,12,2013,,*66
$GPGGA,014022.00,4003.58812,N,08254.63617,W,2,09,0.88,00260,M,-033,M,,*57
$GPGLL,4003.58812,N,08254.63617,W,014022.00,A,D*74
$GPVTG,258.4,T,265.1,M,007.46,N,013.81,K,D*23
$GPGSA,A,3,25,01,29,31,32,14,20,16,23,,,,1.50,0.88,1.21*0B
$GPGSV,3,1,10,25,24,044,46,01,07,258,35,29,11,078,44,31,68,023,50*7A
$GPGSV,3,2,10,32,61,259,51,14,35,103,46,20,34,301,45,16,21,192,46*7C
$GPGSV,3,3,10,46,43,203,45,23,11,301,28,,,,,,,,*74
$GPGST,014022.00,,085.37,085.05,013.2,009.22,009.24,009.26*46
$GPRMC,014022.00,A,4003.58812,N,08254.63617,W,007.46,258.4,241213,06.7,W,D*32
$PTNLRTF,V,A,178838,09,3,4003.58812,N,08254.63617,W,00260,-003.759,-000.769,+000.274,0,1*5D
$PTNLRBA,1,1*57
$GPZDA,014023.00,24,12,2013,,*67
$GPGGA,014023.00,4003.58774,N,08254.63854,W,2,08,0.98,00260,M,-033,M,,*50
$GPGLL,4003.58774,N,08254.63854,W,014023.00,A,D*73
$GPVTG,257.7,T,264.4,M,006.56,N,012.15,K,D*27
$GPGSA,A,3,25,01,29,31,32,14,20,16,,,,,1.65,0.98,1.32*0F
$GPGSV,3,1,10,25,24,044,45,01,07,258,37,29,11,078,43,31,68,023,51*7D
$GPGSV,3,2,10,32,61,259,51,14,35,103,47,20,34,301,40,16,21,192,47*79
$GPGSV,3,3,10,46,43,203,45,23,11,301,29,,,,,,,,*75
$GPGST,014023.00,,079.42,079.14,012.8,008.90,008.91,008.94*41
$GPRMC,014023.00,A,4003.58774,N,08254.63854,W,006.56,257.7,241213,06.7,W,D*39
$PTNLRTF,V,A,178839,08,3,4003.58774,N,08254.63854,W,00260,-003.297,-000.718,+000.013,0,1*59
$PTNLRBA,1,1*57
$GPZDA,014024.00,24,12,2013,,*60
$GPGGA,014024.00,4003.58740,N,08254.63992,W,2,08,0.92,00260,M,-033,M,,*51
$GPGLL,4003.58740,N,08254.63992,W,014024.00,A,D*78
$GPVTG,252.0,T,258.7,M,004.04,N,007.49,K,D*21
$GPGSA,A,3,25,29,31,32,14,20,16,23,,,,,1.64,0.92,1.35*03
$GPGSV,3,1,10,25,24,044,45,01,07,258,36,29,11,078,42,31,68,023,50*7C
$GPGSV,3,2,10,32,61,259,50,14,35,103,48,20,34,301,35,16,21,192,48*7A
$GPGSV,3,3,10,46,43,203,45,23,11,301,29,,,,,,,,*75
$GPGST,014024.00,,072.27,071.87,008.3,008.48,008.50,008.52*4E
$GPRMC,014024.00,A,4003.58740,N,08254.63992,W,004.04,252.0,241213,06.7,W,D*35
$PTNLRTF,V,A,178840,08,3,4003.58740,N,08254.63992,W,00260,-001.979,-000.642,+000.039,0,1*54
$PTNLRBA,1,1*57
$GPZDA,014026.00,24,12,2013,,*62
$GPGGA,014026.00,4003.58722,N,08254.64221,W,2,09,0.88,00260,M,-033,M,,*59
$GPGLL,4003.58722,N,08254.64221,W,014026.00,A,D*7A
$GPVTG,267.8,T,274.5,M,002.68,N,004.97,K,D*2F
$GPGSA,A,3,25,01,29,31,32,14,20,16,23,,,,1.50,0.88,1.21*0B
$GPGSV,3,1,10,25,24,044,45,01,07,258,35,29,11,078,43,31,68,023,49*76
$GPGSV,3,2,10,32,61,259,50,14,35,103,48,20,34,301,35,16,21,192,49*7B
$GPGSV,3,3,10,46,43,203,43,23,11,301,27,,,,,,,,*7D
$GPGST,014026.00,,098.00,097.70,008.4,009.88,009.90,009.92*47
$GPRMC,014026.00,A,4003.58722,N,08254.64221,W,002.68,267.8,241213,06.7,W,D*35
$PTNLRTF,V,A,178842,09,3,4003.58722,N,08254.64221,W,00260,-001.378,-000.054,+000.012,0,1*54
$PTNLRBA,1,1*57
$GPZDA,014027.00,24,12,2013,,*63
$GPGGA,014027.00,4003.58727,N,08254.64316,W,2,08,0.98,00260,M,-033,M,,*58
$GPGLL,4003.58727,N,08254.64316,W,014027.00,A,D*7B
$GPVTG,276.3,T,283.0,M,002.50,N,004.64,K,D*2E
$GPGSA,A,3,25,01,29,31,32,14,20,16,,,,,1.65,0.98,1.32*0F
$GPGSV,3,1,10,25,24,044,45,01,07,258,38,29,11,078,42,31,68,023,49*7A
$GPGSV,3,2,10,32,61,259,50,14,35,103,47,20,34,301,33,16,21,192,46*7D
$GPGSV,3,3,10,46,43,203,46,23,11,301,27,,,,,,,,*78
$GPGST,014027.00,,090.27,090.02,007.0,009.49,009.50,009.52*4F
$GPRMC,014027.00,A,4003.58727,N,08254.64316,W,002.50,276.3,241213,06.7,W,D*34
$PTNLRTF,V,A,178843,08,3,4003.58727,N,08254.64316,W,00260,-001.281,+000.141,+000.080,0,1*5B
$PTNLRBA,1,1*57
$GPZDA,014029.00,24,12,2013,,*6D
$GPGGA,014029.00,4003.58733,N,08254.64393,W,2,08,0.98,00261,M,-033,M,,*5F
$GPGLL,4003.58733,N,08254.64393,W,014029.00,A,D*7D
$GPVTG,277.0,T,283.7,M,000.17,N,000.32,K,D*2D
$GPGSA,A,3,25,01,29,31,32,14,20,16,,,,,1.65,0.98,1.32*0F
$GPGSV,3,1,10,25,24,044,33,01,07,258,36,29,11,078,43,31,68,023,42*7F
$GPGSV,3,2,10,32,61,259,49,14,35,103,45,20,34,301,32,16,21,192,47*77
$GPGSV,3,3,10,46,43,203,45,23,11,301,27,,,,,,,,*7B
$GPGST,014029.00,,083.05,082.83,001.7,009.10,009.11,009.14*43
$GPRMC,014029.00,A,4003.58733,N,08254.64393,W,000.17,277.0,241213,06.7,W,D*31
$PTNLRTF,V,A,178845,08,3,4003.58733,N,08254.64393,W,00261,-000.088,+000.011,+000.017,0,1*54
$PTNLRBA,1,1*57
$GPZDA,014031.00,24,12,2013,,*64
$GPGGA,014031.00,4003.58732,N,08254.64388,W,2,08,0.93,00261,M,-033,M,,*56
$GPGLL,4003.58732,N,08254.64388,W,014031.00,A,D*7F
$GPVTG,000.0,T,006.7,M,000.00,N,000.00,K,D*27
$GPGSA,A,3,25,01,29,31,32,14,16,23,,,,,1.54,0.93,1.23*05
$GPGSV,3,1,10,25,24,044,32,01,07,258,39,29,11,078,44,31,68,023,37*74
$GPGSV,3,2,10,32,61,259,49,14,35,103,45,20,34,301,36,16,21,192,48*7C
$GPGSV,3,3,10,46,43,203,46,23,11,301,27,,,,,,,,*78
$GPGST,014031.00,,188.18,188.02,004.2,013.71,013.72,013.74*41
$GPRMC,014031.00,A,4003.58732,N,08254.64388,W,000.00,000.0,241213,06.7,W,D*37
$PTNLRTF,V,A,178847,08,3,4003.58732,N,08254.64388,W,00261,+000.000,+000.000,+000.000,0,1*5D
$PTNLRBA,1,1*57
$GPZDA,014032.00,24,12,2013,,*67
$GPGGA,014032.00,4003.58732,N,08254.64388,W,2,08,0.93,00262,M,-033,M,,*56
$GPGLL,4003.58732,N,08254.64388,W,014032.00,A,D*7C
$GPVTG,000.0,T,006.7,M,000.00,N,000.00,K,D*27
$GPGSA,A,3,25,01,29,31,32,14,16,23,,,,,1.54,0.93,1.23*05
$GPGSV,3,1,10,25,24,044,36,01,07,258,38,29,11,078,43,31,68,023,36*77
$GPGSV,3,2,10,32,61,259,49,14,35,103,45,20,34,301,36,16,21,192,47*73
$GPGSV,3,3,10,46,43,203,45,23,11,301,27,,,,,,,,*7B
$GPGST,014032.00,,237.68,237.56,007.5,015.41,015.42,015.44*45
$GPRMC,014032.00,A,4003.58732,N,08254.64388,W,000.00,000.0,241213,06.7,W,D*34
$PTNLRTF,V,A,178848,08,3,4003.58732,N,08254.64388,W,00262,+000.000,+000.000,+000.000,0,1*51
$PTNLRBA,1,1*57
$GPZDA,014033.00,24,12,2013,,*66
$GPGGA,014033.00,4003.58730,N,08254.64388,W,2,09,0.88,00262,M,-033,M,,*5E
$GPGLL,4003.58730,N,08254.64388,W,014033.00,A,D*7F
$GPVTG,000.0,T,006.7,M,000.00,N,000.00,K,D*27
$GPGSA,A,3,25,01,29,31,32,14,20,16,23,,,,1.50,0.88,1.21*0B
$GPGSV,3,1,10,25,24,044,33,01,07,258,38,29,11,078,44,31,68,023,37*74
$GPGSV,3,2,10,32,61,259,49,14,35,103,45,20,34,301,35,16,21,192,46*71
$GPGSV,3,3,10,46,43,203,44,23,11,301,27,,,,,,,,*7A
$GPGST,014033.00,,288.08,287.98,011.7,016.97,016.97,016.99*4A
$GPRMC,014033.00,A,4003.58730,N,08254.64388,W,000.00,000.0,241213,06.7,W,D*37
$PTNLRTF,V,A,178849,09,3,4003.58730,N,08254.64388,W,00262,+000.000,+000.000,+000.000,0,1*53
$PTNLRBA,1,1*57
$GPZDA,014035.00,24,12,2013,,*60
$GPGGA,014035.00,4003.58728,N,08254.64392,W,2,09,0.88,00262,M,-033,M,,*5A
$GPGLL,4003.58728,N,08254.64392,W,014035.00,A,D*7B
$GPVTG,316.7,T,323.4,M,000.25,N,000.46,K,D*26
$GPGSA,A,3,25,01,29,31,32,14,20,16,23,,,,1.50,0.88,1.21*0B
$GPGSV,3,1,10,25,24,044,34,01,07,258,36,29,11,078,44,31,68,023,39*73
$GPGSV,3,2,10,32,61,259,48,14,35,103,45,20,34,301,35,16,21,192,48*7E
$GPGSV,3,3,10,46,43,203,44,23,11,301,28,,,,,,,,*75
$GPGST,014035.00,,345.89,345.82,030.4,018.60,018.60,018.62*4B
$GPRMC,014035.00,A,4003.58728,N,08254.64392,W,000.25,316.7,241213,06.7,W,D*37
$PTNLRTF,V,A,178851,09,3,4003.58728,N,08254.64392,W,00262,-000.088,+000.094,+000.043,0,1*54
$PTNLRBA,1,1*57
$GPZDA,014036.00,24,12,2013,,*63
$GPGGA,014036.00,4003.58719,N,08254.64385,W,2,08,0.97,00262,M,-033,M,,*52
$GPGLL,4003.58719,N,08254.64385,W,014036.00,A,D*7C
$GPVTG,000.0,T,006.7,M,000.00,N,000.00,K,D*27
$GPGSA,A,3,01,29,31,32,14,20,16,23,,,,,1.57,0.97,1.23*07
$GPGSV,3,1,10,25,24,044,33,01,07,258,37,29,11,078,44,31,68,023,38*74
$GPGSV,3,2,10,32,61,259,48,14,35,103,44,20,34,301,35,16,21,192,47*70
$GPGSV,3,3,10,46,43,203,45,23,11,301,27,,,,,,,,*7B
$GPGST,014036.00,,438.02,437.94,039.0,020.93,020.93,020.94*4C
$GPRMC,014036.00,A,4003.58719,N,08254.64385,W,000.00,000.0,241213,06.7,W,D*34
$PTNLRTF,V,A,178853,09,3,4003.58719,N,08254.64385,W,00262,+000.000,+000.000,+000.000,0,1*5E
$PTNLRBA,1,1*57
$GPZDA,014038.00,24,12,2013,,*6D
$GPGGA,014038.00,4003.58710,N,08254.64378,W,2,08,0.97,00263,M,-033,M,,*56
$GPGLL,4003.58710,N,08254.64378,W,014038.00,A,D*79
$GPVTG,000.0,T,006.7,M,000.00,N,000.00,K,D*27
$GPGSA,A,3,01,29,31,32,14,20,16,23,,,,,1.57,0.97,1.23*07
$GPGSV,3,1,10,25,24,044,38,01,07,258,39,29,11,078,44,31,68,023,38*71
$GPGSV,3,2,10,32,61,259,48,14,35,103,44,20,34,301,36,16,21,192,48*7C
$GPGSV,3,3,10,46,43,203,44,23,11,301,26,,,,,,,,*7B
$GPGST,014038.00,,524.21,524.13,051.7,022.90,022.89,022.91*45
$GPRMC,014038.00,A,4003.58710,N,08254.64378,W,000.00,000.0,241213,06.7,W,D*31
$PTNLRTF,V,A,178854,08,3,4003.58710,N,08254.64378,W,00263,+000.000,+000.000,+000.000,0,1*52
$PTNLRBA,1,1*57
$GPZDA,014040.00,24,12,2013,,*62
$GPGGA,014040.00,4003.58695,N,08254.64369,W,2,09,0.88,00263,M,-033,M,,*5A
$GPGLL,4003.58695,N,08254.64369,W,014040.00,A,D*7A
$GPVTG,135.2,T,141.9,M,000.37,N,000.68,K,D*24
$GPGSA,A,3,25,01,29,31,32,14,20,16,23,,,,1.50,0.88,1.21*0B
$GPGSV,3,1,10,25,24,044,34,01,07,258,37,29,11,078,45,31,68,023,37*7D
$GPGSV,3,2,10,32,61,259,48,14,35,103,45,20,34,301,36,16,21,192,48*7D
$GPGSV,3,3,10,46,43,203,44,23,11,301,28,,,,,,,,*75
$GPGST,014040.00,,533.56,533.45,059.3,023.10,023.10,023.11*44
$GPRMC,014040.00,A,4003.58695,N,08254.64369,W,000.37,135.2,241213,06.7,W,D*33
$PTNLRTF,V,A,178856,09,3,4003.58695,N,08254.64369,W,00263,+000.133,-000.134,+000.236,0,1*5B
$PTNLRBA,1,1*57
$GPZDA,014041.00,24,12,2013,,*63
$GPGGA,014041.00,4003.58684,N,08254.64366,W,2,09,0.88,00263,M,-033,M,,*54
$GPGLL,4003.58684,N,08254.64366,W,014041.00,A,D*74
$GPVTG,151.0,T,157.7,M,000.17,N,000.31,K,D*23
$GPGSA,A,3,25,01,29,31,32,14,20,16,23,,,,1.50,0.88,1.21*0B
$GPGSV,3,1,10,25,24,044,33,01,07,258,37,29,11,078,45,31,68,023,39*74
$GPGSV,3,2,10,32,61,259,48,14,35,103,42,20,34,301,36,16,21,192,46*74
$GPGSV,3,3,10,46,43,203,45,23,11,301,28,,,,,,,,*74
$GPGST,014041.00,,517.96,517.84,061.9,022.76,022.76,022.77*44
$GPRMC,014041.00,A,4003.58684,N,08254.64366,W,000.17,151.0,241213,06.7,W,D*3F
$PTNLRTF,V,A,178857,09,3,4003.58684,N,08254.64366,W,00263,+000.042,-000.075,+000.178,0,1*5F
$PTNLRBA,1,1*57
$GPZDA,014043.00,24,12,2013,,*61
$GPGGA,014043.00,4003.58678,N,08254.64372,W,2,09,0.88,00264,M,-033,M,,*57
$GPGLL,4003.58678,N,08254.64372,W,014043.00,A,D*70
$GPVTG,000.0,T,006.7,M,000.00,N,000.00,K,D*27
$GPGSA,A,3,25,01,29,31,32,14,20,16,23,,,,1.50,0.88,1.21*0B
$GPGSV,3,1,10,25,24,044,35,01,07,258,36,29,11,078,45,31,68,023,39*73
$GPGSV,3,2,10,32,61,259,48,14,35,103,44,20,34,301,35,16,21,192,48*7F
$GPGSV,3,3,10,46,43,203,45,23,11,301,25,,,,,,,,*79
$GPGST,014043.00,,493.99,493.87,064.7,022.23,022.22,022.24*46
$GPRMC,014043.00,A,4003.58678,N,08254.64372,W,000.00,000.0,241213,06.7,W,D*38
$PTNLRTF,V,A,178859,09,3,4003.58678,N,08254.64372,W,00264,+000.000,+000.000,+000.000,0,1*5C
$PTNLRBA,1,1*57
$GPZDA,014044.00,24,12,2013,,*66
$GPGGA,014044.00,4003.58676,N,08254.64374,W,2,09,0.88,00264,M,-033,M,,*58
$GPGLL,4003.58676,N,08254.64374,W,014044.00,A,D*7F
$GPVTG,000.0,T,006.7,M,000.00,N,000.00,K,D*27
$GPGSA,A,3,25,01,29,31,32,14,20,16,23,,,,1.50,0.88,1.21*0B
$GPGSV,3,1,10,25,24,044,33,01,07,258,37,29,11,078,45,31,68,023,38*75
$GPGSV,3,2,10,32,61,259,46,14,35,103,43,20,34,301,34,16,21,192,48*77
$GPGSV,3,3,10,46,43,203,46,23,11,301,21,,,,,,,,*7E
$GPGST,014044.00,,497.97,497.84,065.9,022.31,022.31,022.33*44
$GPRMC,014044.00,A,4003.58676,N,08254.64374,W,000.00,000.0,241213,06.7,W,D*37
$PTNLRTF,V,A,178860,09,3,4003.58676,N,08254.64374,W,00264,+000.000,+000.000,+000.000,0,1*5E
$PTNLRBA,1,1*57
$GPZDA,014045.00,24,12,2013,,*67
$GPGGA,014045.00,4003.58674,N,08254.64376,W,2,09,0.88,00264,M,-033,M,,*59
$GPGLL,4003.58674,N,08254.64376,W,014045.00,A,D*7E
$GPVTG,000.0,T,006.7,M,000.00,N,000.00,K,D*27
$GPGSA,A,3,25,01,29,31,32,14,20,16,23,,,,1.50,0.88,1.21*0B
$GPGSV,3,1,10,25,24,044,34,01,07,258,36,29,11,078,44,31,68,023,38*72
$GPGSV,3,2,10,32,61,259,48,14,35,103,43,20,34,301,34,16,21,192,47*76
$GPGSV,3,3,10,46,43,203,45,23,11,301,20,,,,,,,,*7C
$GPGST,014045.00,,486.91,486.77,066.9,022.07,022.06,022.08*45
$GPRMC,014045.00,A,4003.58674,N,08254.64376,W,000.00,000.0,241213,06.7,W,D*36
$PTNLRTF,V,A,178862,09,3,4003.58674,N,08254.64376,W,00264,+000.000,+000.000,+000.000,0,1*5C
$PTNLRBA,1,1*57
$GPZDA,014047.00,24,12,2013,,*65
$GPGGA,014047.00,4003.58671,N,08254.64379,W,2,09,0.88,00264,M,-033,M,,*51
$GPGLL,4003.58671,N,08254.64379,W,014047.00,A,D*76
$GPVTG,000.0,T,006.7,M,000.00,N,000.00,K,D*27
$GPGSA,A,3,25,01,29,31,32,14,20,16,23,,,,1.50,0.88,1.21*0B
$GPGSV,3,1,10,25,24,044,33,01,07,258,37,29,11,078,45,31,68,023,39*74
$GPGSV,3,2,10,32,61,259,47,14,35,103,44,20,34,301,34,16,21,192,47*7E
$GPGSV,3,3,10,46,43,203,45,23,11,301,22,,,,,,,,*7E
$GPGST,014047.00,,465.15,465.00,068.3,021.57,021.56,021.58*49
$GPRMC,014047.00,A,4003.58671,N,08254.64379,W,000.00,000.0,241213,06.7,W,D*3E
$PTNLRTF,V,A,178863,09,3,4003.58671,N,08254.64379,W,00264,+000.000,+000.000,+000.000,0,1*57
$PTNLRBA,1,1*57
$GPZDA,014049.00,24,12,2013,,*6B
$GPGGA,014049.00,4003.58668,N,08254.64380,W,2,09,0.88,00264,M,-033,M,,*51
$GPGLL,4003.58668,N,08254.64380,W,014049.00,A,D*76
$GPVTG,000.0,T,006.7,M,000.00,N,000.00,K,D*27
$GPGSA,A,3,25,01,29,31,32,14,20,16,23,,,,1.50,0.88,1.21*0B
$GPGSV,3,1,10,25,24,044,34,01,07,258,37,29,11,078,45,31,68,023,38*72
$GPGSV,3,2,10,32,61,259,46,14,35,103,44,20,34,301,34,16,21,192,48*70
$GPGSV,3,3,10,46,43,203,46,23,11,301,21,,,,,,,,*7E
$GPGST,014049.00,,452.54,452.39,069.3,021.27,021.27,021.29*4E
$GPRMC,014049.00,A,4003.58668,N,08254.64380,W,000.00,000.0,241213,06.7,W,D*3E
$PTNLRTF,V,A,178865,09,3,4003.58668,N,08254.64380,W,00264,+000.000,+000.000,+000.000,0,1*5F
$PTNLRBA,1,1*57
$GPZDA,014050.00,24,12,2013,,*63
$GPGGA,014050.00,4003.58665,N,08254.64380,W,2,09,0.88,00264,M,-033,M,,*54
$GPGLL,4003.58665,N,08254.64380,W,014050.00,A,D*73
$GPVTG,000.0,T,006.7,M,000.00,N,000.00,K,D*27
$GPGSA,A,3,25,01,29,31,32,14,20,16,23,,,,1.50,0.88,1.21*0B
$GPGSV,3,1,10,25,24,044,35,01,07,258,36,29,11,078,45,31,68,023,39*73
$GPGSV,3,2,10,32,61,259,47,14,35,103,44,20,34,301,34,16,21,192,47*7E
$GPGSV,3,3,10,46,43,203,45,23,11,301,23,,,,,,,,*7F
$GPGST,014050.00,,514.03,513.87,069.8,022.67,022.67,022.69*4A
$GPRMC,014050.00,A,4003.58665,N,08254.64380,W,000.00,000.0,241213,06.7,W,D*3B
$PTNLRTF,V,A,178866,09,3,4003.58665,N,08254.64380,W,00264,+000.000,+000.000,+000.000,0,1*51
$PTNLRBA,1,1*57
$GPZDA,014052.00,24,12,2013,,*61
$GPGGA,014052.00,4003.58659,N,08254.64383,W,2,09,0.88,00265,M,-033,M,,*5B
$GPGLL,4003.58659,N,08254.64383,W,014052.00,A,D*7D
$GPVTG,000.0,T,006.7,M,000.00,N,000.00,K,D*27
$GPGSA,A,3,25,01,29,31,32,14,20,16,23,,,,1.50,0.88,1.21*0B
$GPGSV,3,1,10,25,24,044,32,01,07,258,38,29,11,078,44,31,68,023,38*7A
$GPGSV,3,2,10,32,61,259,48,14,35,103,45,20,34,301,34,16,21,192,47*70
$GPGSV,3,3,10,46,43,203,45,23,11,301,23,,,,,,,,*7F
$GPGST,014052.00,,621.91,621.74,070.5,024.94,024.94,024.95*48
$GPRMC,014052.00,A,4003.58659,N,08254.64383,W,000.00,000.0,241213,06.7,W,D*35
$PTNLRTF,V,A,178868,09,3,4003.58659,N,08254.64383,W,00265,+000.000,+000.000,+000.000,0,1*52
$PTNLRBA,1,1*57
$GPZDA,014053.00,24,12,2013,,*60
$GPGGA,014053.00,4003.58660,N,08254.64388,W,2,08,0.98,00265,M,-033,M,,*5B
$GPGLL,4003.58660,N,08254.64388,W,014053.00,A,D*7D
$GPVTG,000.0,T,006.7,M,000.00,N,000.00,K,D*27
$GPGSA,A,3,25,01,29,31,32,14,20,16,,,,,1.65,0.98,1.32*0F
$GPGSV,3,1,10,25,24,044,34,01,07,258,37,29,11,078,44,31,68,023,36*7D
$GPGSV,3,2,10,32,61,259,49,14,35,103,45,20,34,301,34,16,21,192,48*7E
$GPGSV,3,3,10,46,43,203,45,23,11,301,22,,,,,,,,*7E
$GPGST,014053.00,,566.69,566.53,070.7,023.80,023.80,023.82*48
$GPRMC,014053.00,A,4003.58660,N,08254.64388,W,000.00,000.0,241213,06.7,W,D*35
$PTNLRTF,V,A,178869,08,3,4003.58660,N,08254.64388,W,00265,+000.000,+000.000,+000.000,0,1*53
$PTNLRBA,1,1*57
$GPZDA,014055.00,24,12,2013,,*66
$GPGGA,014055.00,4003.58660,N,08254.64395,W,2,08,0.98,00265,M,-033,M,,*51
$GPGLL,4003.58660,N,08254.64395,W,014055.00,A,D*77
$GPVTG,000.0,T,006.7,M,000.00,N,000.00,K,D*27
$GPGSA,A,3,25,01,29,31,32,14,20,16,,,,,1.65,0.98,1.32*0F
$GPGSV,3,1,10,25,24,044,33,01,07,258,35,29,11,078,45,31,68,023,38*77
$GPGSV,3,2,10,32,61,259,48,14,35,103,44,20,34,301,32,16,21,192,47*77
$GPGSV,3,3,10,46,43,203,45,23,11,301,16,,,,,,,,*79
$GPGST,014055.00,,472.04,471.87,070.9,021.73,021.72,021.74*4B
$GPRMC,014055.00,A,4003.58660,N,08254.64395,W,000.00,000.0,241213,06.7,W,D*3F
$PTNLRTF,V,A,178871,08,3,4003.58660,N,08254.64395,W,00265,+000.000,+000.000,+000.000,0,1*56
$PTNLRBA,1,1*57
$GPZDA,014056.00,24,12,2013,,*65
$GPGGA,014056.00,4003.58659,N,08254.64400,W,2,08,0.98,00265,M,-033,M,,*53
$GPGLL,4003.58659,N,08254.64400,W,014056.00,A,D*75
$GPVTG,000.0,T,006.7,M,000.00,N,000.00,K,D*27
$GPGSA,A,3,25,01,29,31,32,14,20,16,,,,,1.65,0.98,1.32*0F
$GPGSV,3,1,10,25,24,044,32,01,07,258,37,29,11,078,44,31,68,023,38*75
$GPGSV,3,2,10,32,61,259,48,14,35,103,45,20,34,301,32,16,21,192,47*76
$GPGSV,3,3,10,46,43,203,44,23,11,301,21,,,,,,,,*7C
$GPGST,014056.00,,431.66,431.49,071.1,020.78,020.77,020.79*46
$GPRMC,014056.00,A,4003.58659,N,08254.64400,W,000.00,000.0,241213,06.7,W,D*3D
$PTNLRTF,V,A,178872,08,3,4003.58659,N,08254.64400,W,00265,+000.000,+000.000,+000.000,0,1*54
$PTNLRBA,1,1*57
$GPZDA,014058.00,24,12,2013,,*6B
$GPGGA,014058.00,4003.58663,N,08254.64411,W,2,09,0.88,00264,M,-033,M,,*55
$GPGLL,4003.58663,N,08254.64411,W,014058.00,A,D*72
$GPVTG,099.9,T,106.6,M,000.03,N,000.06,K,D*2B
$GPGSA,A,3,25,01,29,31,32,14,20,16,23,,,,1.50,0.88,1.21*0B
$GPGSV,3,1,10,25,24,044,30,01,07,258,36,29,11,078,44,31,68,023,39*77
$GPGSV,3,2,10,32,61,259,47,14,35,103,44,20,34,301,34,16,21,192,46*7F
$GPGSV,3,3,10,46,43,203,46,23,11,301,23,,,,,,,,*7C
$GPGST,014058.00,,371.19,371.00,070.4,019.27,019.26,019.28*49
$GPRMC,014058.00,A,4003.58663,N,08254.64411,W,000.03,099.9,241213,06.7,W,D*30
$PTNLRTF,V,A,178874,09,3,4003.58663,N,08254.64411,W,00264,+000.015,-000.003,-000.076,0,1*5D
$PTNLRBA,1,1*57
$GPZDA,014100.00,24,12,2013,,*67
$GPGGA,014100.00,4003.58662,N,08254.64419,W,2,09,0.88,00264,M,-033,M,,*50
$GPGLL,4003.58662,N,08254.64419,W,014100.00,A,D*77
$GPVTG,000.0,T,006.7,M,000.00,N,000.00,K,D*27
$GPGSA,A,3,25,01,29,31,32,14,20,16,23,,,,1.50,0.88,1.21*0B
$GPGSV,3,1,10,25,24,044,31,01,07,258,35,29,11,078,43,31,68,023,39*72
$GPGSV,3,2,10,32,61,259,48,14,35,103,44,20,34,301,30,16,21,192,47*75
$GPGSV,3,3,10,46,43,203,44,23,11,301,20,,,,,,,,*7D
$GPGST,014100.00,,311.42,311.24,071.3,017.65,017.64,017.66*4F
$GPRMC,014100.00,A,4003.58662,N,08254.64419,W,000.00,000.0,241213,06.7,W,D*3F
$PTNLRTF,V,A,178876,09,3,4003.58662,N,08254.64419,W,00264,+000.000,+000.000,+000.000,0,1*50
$PTNLRBA,1,1*57
$GPZDA,014101.00,24,12,2013,,*66
$GPGGA,014101.00,4003.58663,N,08254.64424,W,2,08,0.98,00264,M,-033,M,,*5E
$GPGLL,4003.58663,N,08254.64424,W,014101.00,A,D*79
$GPVTG,000.0,T,006.7,M,000.00,N,000.00,K,D*27
$GPGSA,A,3,25,01,29,31,32,14,20,16,,,,,1.65,0.98,1.32*0F
$GPGSV,3,1,10,25,24,044,33,01,07,258,37,29,11,078,42,31,68,023,39*73
$GPGSV,3,2,10,32,61,259,49,14,35,103,44,20,34,301,30,16,21,192,47*74
$GPGSV,3,3,10,46,43,203,44,23,11,301,23,,,,,,,,*7E
$GPGST,014101.00,,291.22,291.04,071.3,017.06,017.06,017.08*43
$GPRMC,014101.00,A,4003.58663,N,08254.64424,W,000.00,000.0,241213,06.7,W,D*31
$PTNLRTF,V,A,178877,08,3,4003.58663,N,08254.64424,W,00264,+000.000,+000.000,+000.000,0,1*5F
$PTNLRBA,1,1*57
$GPZDA,014103.00,24,12,2013,,*64
$GPGGA,014103.00,4003.58665,N,08254.64434,W,2,09,0.88,00264,M,-033,M,,*5B
$GPGLL,4003.58665,N,08254.64434,W,014103.00,A,D*7C
$GPVTG,000.0,T,006.7,M,000.00,N,000.00,K,D*27
$GPGSA,A,3,25,01,29,31,32,14,20,16,23,,,,1.50,0.88,1.21*0B
$GPGSV,3,1,10,25,24,044,31,01,07,258,37,29,11,078,42,31,68,023,38*70
$GPGSV,3,2,10,32,61,259,48,14,35,103,43,20,34,301,30,16,21,192,48*7D
$GPGSV,3,3,10,46,43,203,45,23,11,301,20,,,,,,,,*7C
$GPGST,014103.00,,295.98,295.79,071.3,017.20,017.20,017.22*42
$GPRMC,014103.00,A,4003.58665,N,08254.64434,W,000.00,000.0,241213,06.7,W,D*34
$PTNLRTF,V,A,178879,09,3,4003.58665,N,08254.64434,W,00264,+000.000,+000.000,+000.000,0,1*57
$PTNLRBA,1,1*57
$GPZDA,014104.00,24,12,2013,,*63
$GPGGA,014104.00,4003.58666,N,08254.64442,W,2,09,0.88,00264,M,-033,M,,*5E
$GPGLL,4003.58666,N,08254.64442,W,014104.00,A,D*79
$GPVTG,000.0,T,006.7,M,000.00,N,000.00,K,D*27
$GPGSA,A,3,25,01,29,31,32,14,20,16,23,,,,1.50,0.88,1.21*0B
$GPGSV,3,1,10,25,24,044,31,01,07,258,37,29,11,078,43,31,68,023,39*70
$GPGSV,3,2,10,32,61,259,48,14,35,103,44,20,34,301,30,16,21,192,47*75
$GPGSV,3,3,10,46,43,203,47,23,11,301,21,,,,,,,,*7F
$GPGST,014104.00,,305.77,305.59,071.3,017.49,017.48,017.50*42
$GPRMC,014104.00,A,4003.58666,N,08254.64442,W,000.00,000.0,241213,06.7,W,D*31
$PTNLRTF,V,A,178880,09,3,4003.58666,N,08254.64442,W,00264,+000.000,+000.000,+000.000,0,1*53
$PTNLRBA,1,1*57
$GPZDA,014106.00,24,12,2013,,*61
$GPGGA,014106.00,4003.58668,N,08254.64457,W,2,09,0.88,00264,M,-033,M,,*56
$GPGLL,4003.58668,N,08254.64457,W,014106.00,A,D*71
$GPVTG,000.0,T,006.7,M,000.00,N,000.00,K,D*27
$GPGSA,A,3,25,01,29,31,32,14,20,16,23,,,,1.50,0.88,1.21*0B
$GPGSV,3,1,10,25,24,044,31,01,07,258,37,29,11,078,44,31,68,023,39*77
$GPGSV,3,2,10,32,61,259,48,14,35,103,44,20,34,301,29,16,21,192,47*7D
$GPGSV,3,3,10,46,43,203,44,23,11,301,24,,,,,,,,*79
$GPGST,014106.00,,310.21,310.03,071.2,017.61,017.61,017.63*4C
$GPRMC,014106.00,A,4003.58668,N,08254.64457,W,000.00,000.0,241213,06.7,W,D*39
$PTNLRTF,V,A,178882,09,3,4003.58668,N,08254.64457,W,00264,+000.000,+000.000,+000.000,0,1*5B
$PTNLRBA,1,1*57
$GPZDA,014107.00,24,12,2013,,*60
$GPGGA,014107.00,4003.58667,N,08254.64464,W,2,09,0.88,00264,M,-033,M,,*58
$GPGLL,4003.58667,N,08254.64464,W,014107.00,A,D*7F
$GPVTG,000.0,T,006.7,M,000.00,N,000.00,K,D*27
$GPGSA,A,3,25,01,29,31,32,14,20,16,23,,,,1.50,0.88,1.21*0B
$GPGSV,3,1,10,25,24,044,32,01,07,258,37,29,11,078,43,31,68,023,39*73
$GPGSV,3,2,10,32,61,259,48,14,35,103,45,20,34,301,28,16,21,192,47*7D
$GPGSV,3,3,10,46,43,203,44,23,11,301,24,,,,,,,,*79
$GPGST,014107.00,,317.48,317.30,071.2,017.82,017.81,017.83*4F
$GPRMC,014107.00,A,4003.58667,N,08254.64464,W,000.00,000.0,241213,06.7,W,D*37
$PTNLRTF,V,A,178883,09,3,4003.58667,N,08254.64464,W,00264,+000.000,+000.000,+000.000,0,1*55
$PTNLRBA,1,1*57
$GPZDA,014109.00,24,12,2013,,*6E
$GPGGA,014109.00,4003.58665,N,08254.64474,W,2,09,0.88,00264,M,-033,M,,*55
$GPGLL,4003.58665,N,08254.64474,W,014109.00,A,D*72
$GPVTG,000.0,T,006.7,M,000.00,N,000.00,K,D*27
$GPGSA,A,3,25,01,29,31,32,14,20,16,23,,,,1.50,0.88,1.21*0B
$GPGSV,3,1,10,25,24,044,33,01,07,258,37,29,11,078,43,31,68,023,39*72
$GPGSV,3,2,10,32,61,259,49,14,35,103,46,20,34,301,28,16,21,192,46*7E
$GPGSV,3,3,10,46,43,203,44,23,11,301,27,,,,,,,,*7A
$GPGST,014109.00,,303.66,303.48,071.4,017.43,017.42,017.44*4D
$GPRMC,014109.00,A,4003.58665,N,08254.64474,W,000.00,000.0,241213,06.7,W,D*3A
$PTNLRTF,V,A,178885,09,3,4003.58665,N,08254.64474,W,00264,+000.000,+000.000,+000.000,0,1*50
$PTNLRBA,1,1*57
$GPZDA,014110.00,24,12,2013,,*66
$GPGGA,014110.00,4003.58664,N,08254.64481,W,2,08,0.98,00264,M,-033,M,,*56
$GPGLL,4003.58664,N,08254.64481,W,014110.00,A,D*71
$GPVTG,000.0,T,006.7,M,000.00,N,000.00,K,D*27
$GPGSA,A,3,25,01,29,31,32,14,20,16,,,,,1.65,0.98,1.32*0F
$GPGSV,3,1,10,25,24,044,32,01,07,258,36,29,11,078,43,31,68,023,38*73
$GPGSV,3,2,10,32,61,259,48,14,35,103,45,20,34,301,28,16,21,192,46*7C
$GPGSV,3,3,10,46,43,203,44,23,11,301,25,,,,,,,,*78
$GPGST,014110.00,,302.81,302.63,071.3,017.40,017.40,017.42*45
$GPRMC,014110.00,A,4003.58664,N,08254.64481,W,000.00,000.0,241213,06.7,W,D*39
$PTNLRTF,V,A,178887,09,3,4003.58664,N,08254.64481,W,00264,+000.000,+000.000,+000.000,0,1*59
$PTNLRBA,1,1*57
$GPZDA,014112.00,24,12,2013,,*64
$GPGGA,014112.00,4003.58661,N,08254.64489,W,2,09,0.88,00264,M,-033,M,,*59
$GPGLL,4003.58661,N,08254.64489,W,014112.00,A,D*7E
$GPVTG,000.0,T,006.7,M,000.00,N,000.00,K,D*27
$GPGSA,A,3,25,01,29,31,32,14,20,16,23,,,,1.50,0.88,1.21*0B
$GPGSV,3,1,10,25,24,044,33,01,07,258,37,29,11,078,44,31,68,023,38*74
$GPGSV,3,2,10,32,61,259,48,14,35,103,45,20,34,301,25,16,21,192,46*71
$GPGSV,3,3,10,46,43,203,43,23,11,301,27,,,,,,,,*7D
$GPGST,014112.00,,280.34,280.17,071.5,016.74,016.74,016.76*4A
$GPRMC,014112.00,A,4003.58661,N,08254.64489,W,000.00,000.0,241213,06.7,W,D*36
$PTNLRTF,V,A,178888,09,3,4003.58661,N,08254.64489,W,00264,+000.000,+000.000,+000.000,0,1*5B
$PTNLRBA,1,1*57
$GPZDA,014113.00,24,12,2013,,*65
$GPGGA,014113.00,4003.58658,N,08254.64494,W,2,09,0.88,00264,M,-033,M,,*5E
$GPGLL,4003.58658,N,08254.64494,W,014113.00,A,D*79
$GPVTG,000.0,T,006.7,M,000.00,N,000.00,K,D*27
$GPGSA,A,3,25,01,29,31,32,14,20,16,23,,,,1.50,0.88,1.21*0B
$GPGSV,3,1,10,25,24,044,30,01,07,258,37,29,11,078,43,31,68,023,38*70
$GPGSV,3,2,10,32,61,259,49,14,35,103,46,20,34,301,26,16,21,192,47*71
$GPGSV,3,3,10,46,43,203,44,23,11,301,25,,,,,,,,*78
$GPGST,014113.00,,278.69,278.51,071.6,016.69,016.69,016.71*45
$GPRMC,014113.00,A,4003.58658,N,08254.64494,W,000.00,000.0,241213,06.7,W,D*31
$PTNLRTF,V,A,178889,09,3,4003.58658,N,08254.64494,W,00264,+000.000,+000.000,+000.000,0,1*5C
$PTNLRBA,1,1*57
$GPZDA,014115.00,24,12,2013,,*63
$GPGGA,014115.00,4003.58651,N,08254.64499,W,2,08,0.89,00264,M,-033,M,,*5C
$GPGLL,4003.58651,N,08254.64499,W,014115.00,A,D*7B
$GPVTG,000.0,T,006.7,M,000.00,N,000.00,K,D*27
$GPGSA,A,3,25,01,29,32,14,20,16,23,,,,,1.74,0.89,1.50*08
$GPGSV,3,1,10,25,24,044,32,01,07,258,35,29,11,078,44,31,68,023,37*78
$GPGSV,3,2,10,32,61,259,49,14,35,103,46,20,34,301,22,16,21,192,46*74
$GPGSV,3,3,10,46,43,203,45,23,11,301,26,,,,,,,,*7A
$GPGST,014115.00,,359.46,359.28,071.8,018.96,018.96,018.97*48
$GPRMC,014115.00,A,4003.58651,N,08254.64499,W,000.00,000.0,241213,06.7,W,D*33
$PTNLRTF,V,A,178891,08,3,4003.58651,N,08254.64499,W,00264,+000.000,+000.000,+000.000,0,1*50
$PTNLRBA,1,1*57
$GPZDA,014116.00,24,12,2013,,*60
$GPGGA,014116.00,4003.58648,N,08254.64502,W,2,09,0.88,00264,M,-033,M,,*54
$GPGLL,4003.58648,N,08254.64502,W,014116.00,A,D*73
$GPVTG,000.0,T,006.7,M,000.00,N,000.00,K,D*27
$GPGSA,A,3,25,01,29,31,32,14,20,16,23,,,,1.50,0.88,1.21*0B
$GPGSV,3,1,10,25,24,044,29,01,07,258,36,29,11,078,45,31,68,023,37*70
$GPGSV,3,2,10,32,61,259,49,14,35,103,46,20,34,301,22,16,21,192,47*75
$GPGSV,3,3,10,46,43,203,44,23,11,301,28,,,,,,,,*75
$GPGST,014116.00,,395.37,395.19,071.9,019.88,019.88,019.90*48
$GPRMC,014116.00,A,4003.58648,N,08254.64502,W,000.00,000.0,241213,06.7,W,D*3B
$PTNLRTF,V,A,178892,09,3,4003.58648,N,08254.64502,W,00264,+000.000,+000.000,+000.000,0,1*59
$PTNLRBA,1,1*57
$GPZDA,014118.00,24,12,2013,,*6E
$GPGGA,014118.00,4003.58646,N,08254.64510,W,2,09,0.88,00264,M,-033,M,,*57
$GPGLL,4003.58646,N,08254.64510,W,014118.00,A,D*70
$GPVTG,000.0,T,006.7,M,000.00,N,000.00,K,D*27
$GPGSA,A,3,25,01,29,31,32,14,20,16,23,,,,1.50,0.88,1.22*08
$GPGSV,3,1,10,25,24,044,31,01,07,258,36,29,11,078,45,31,68,023,37*79
$GPGSV,3,2,10,32,61,259,50,14,35,103,46,20,34,301,28,16,21,192,47*77
$GPGSV,3,3,10,46,43,203,45,23,11,301,24,,,,,,,,*78
$GPGST,014118.00,,371.06,370.88,071.9,019.26,019.26,019.27*41
$GPRMC,014118.00,A,4003.58646,N,08254.64510,W,000.00,000.0,241213,06.7,W,D*38
$PTNLRTF,V,A,178894,09,3,4003.58646,N,08254.64510,W,00264,+000.000,+000.000,+000.000,0,1*52
$PTNLRBA,1,1*57
$GPZDA,014119.00,24,12,2013,,*6F
$GPGGA,014119.00,4003.58645,N,08254.64513,W,2,09,0.88,00264,M,-033,M,,*56
$GPGLL,4003.58645,N,08254.64513,W,014119.00,A,D*71
$GPVTG,000.0,T,006.7,M,000.00,N,000.00,K,D*27
$GPGSA,A,3,25,01,29,31,32,14,20,16,23,,,,1.50,0.88,1.22*08
$GPGSV,3,1,10,25,24,044,29,01,07,258,37,29,11,078,45,31,68,023,36*70
$GPGSV,3,2,10,32,61,259,50,14,35,103,46,20,34,301,27,16,21,192,47*78
$GPGSV,3,3,10,46,43,203,45,23,11,301,26,,,,,,,,*7A
$GPGST,014119.00,,374.62,374.44,072.0,019.35,019.35,019.37*48
$GPRMC,014119.00,A,4003.58645,N,08254.64513,W,000.00,000.0,241213,06.7,W,D*39
$PTNLRTF,V,A,178896,09,3,4003.58645,N,08254.64513,W,00264,+000.000,+000.000,+000.000,0,1*50
$PTNLRBA,1,1*57
$GPZDA,014121.00,24,12,2013,,*64
$GPGGA,014121.00,4003.58644,N,08254.64517,W,2,08,0.92,00264,M,-033,M,,*52
$GPGLL,4003.58644,N,08254.64517,W,014121.00,A,D*7F
$GPVTG,000.0,T,006.7,M,000.00,N,000.00,K,D*27
$GPGSA,A,3,25,29,31,32,14,20,16,23,,,,,1.65,0.92,1.37*00
$GPGSV,3,1,10,25,24,044,32,01,07,258,36,29,11,078,45,31,68,023,37*7A
$GPGSV,3,2,10,32,61,259,49,14,35,103,46,20,34,301,27,16,21,192,47*70
$GPGSV,3,3,10,46,43,203,46,23,11,301,23,,,,,,,,*7C
$GPGST,014121.00,,348.22,348.05,071.8,018.66,018.66,018.67*4D
$GPRMC,014121.00,A,4003.58644,N,08254.64517,W,000.00,000.0,241213,06.7,W,D*37
$PTNLRTF,V,A,178897,08,3,4003.58644,N,08254.64517,W,00264,+000.000,+000.000,+000.000,0,1*55
$PTNLRBA,1,1*57
$GPZDA,014123.00,24,12,2013,,*66
$GPGGA,014123.00,4003.58646,N,08254.64525,W,2,08,0.98,00264,M,-033,M,,*59
$GPGLL,4003.58646,N,08254.64525,W,014123.00,A,D*7E
$GPVTG,000.0,T,006.7,M,000.00,N,000.00,K,D*27
$GPGSA,A,3,25,01,29,31,32,14,20,16,,,,,1.65,0.98,1.32*0F
$GPGSV,3,1,10,25,24,044,28,01,07,258,33,29,11,078,46,31,68,023,39*79
$GPGSV,3,2,10,32,61,259,49,14,35,103,46,20,34,301,31,16,21,192,47*77
$GPGSV,3,3,10,46,43,203,47,23,11,301,25,,,,,,,,*7B
$GPGST,014123.00,,314.15,313.98,071.7,017.72,017.72,017.74*4A
$GPRMC,014123.00,A,4003.58646,N,08254.64525,W,000.00,000.0,241213,06.7,W,D*36
$PTNLRTF,V,A,178899,08,3,4003.58646,N,08254.64525,W,00264,+000.000,+000.000,+000.000,0,1*58
$PTNLRBA,1,1*57
$GPZDA,014124.00,24,12,2013,,*61
$GPGGA,014124.00,4003.58645,N,08254.64529,W,2,07,0.99,00264,M,-033,M,,*5F
$GPGLL,4003.58645,N,08254.64529,W,014124.00,A,D*76
$GPVTG,000.0,T,006.7,M,000.00,N,000.00,K,D*27
$GPGSA,A,3,25,01,29,32,14,20,16,,,,,,1.89,0.99,1.61*08
$GPGSV,3,1,10,25,24,044,25,01,07,258,34,29,11,078,46,31,68,023,38*72
$GPGSV,3,2,10,32,61,259,50,14,35,103,46,20,34,301,25,16,21,192,47*7A
$GPGSV,3,3,10,46,43,203,46,23,11,301,23,,,,,,,,*7C
$GPGST,014124.00,,302.12,301.95,071.6,017.38,017.38,017.39*4B
$GPRMC,014124.00,A,4003.58645,N,08254.64529,W,000.00,000.0,241213,06.7,W,D*3E
