$GPZDA,213437.00,16,02,2014,,*64
$GPGGA,213437.00,3917.25878,N,08203.79317,W,1,08,0.95,00309,M,-033,M,,*53
$GPGLL,3917.25878,N,08203.79317,W,213437.00,A,A*75
$GPVTG,000.0,T,007.2,M,000.0,N,000.0,K,A*26
$GPGSA,A,3,32,22,01,16,20,25,29,31,,,,,1.67,0.95,1.37*00
$GPGSV,3,1,09,32,62,274,43,22,11,160,36,01,11,267,30,16,10,194,31*7A
$GPGSV,3,2,09,20,29,308,28,25,31,048,34,29,08,089,36,31,75,349,32*7F
$GPGSV,3,3,09,14,41,094,27,,,,,,,,,,,,*48
$GPGST,213437.00,,073.94,061.56,063.7,008.46,008.00,009.27*48
$GPRMC,213437.00,A,3917.25878,N,08203.79317,W,000.0,000.0,160214,07.2,W,A*0E
$PTNLRTF,V,A,$GPZDA,213438.00,16,02,2014,,*6B
$GPGGA,213438.00,3917.25882,N,08203.79322,W,1,08,0.95,00309,M,-033,M,,*5F
$GPGLL,3917.25882,N,08203.79322,W,213438.00,A,A*79
$GPVTG,000.0,T,007.2,M,000.0,N,000.0,K,A*26
$GPGSA,A,3,32,22,01,16,20,25,29,31,,,,,1.67,0.95,1.37*00
$GPGSV,3,1,09,32,62,274,43,22,11,160,36,01,11,267,31,16,10,194,31*7B
$GPGSV,3,2,09,20,29,308,30,25,31,048,34,29,08,089,36,31,75,349,33*77
$GPGSV,3,3,09,14,41,094,26,,,,,,,,,,,,*49
$GPGST,213438.00,,069.99,058.99,063.7,008.24,007.82,009.00*4C
$GPRMC,213438.00,A,3917.25882,N,08203.79322,W,000.0,000.0,160214,07.2,W,A*02
$PTNLRTF,V,A,077694,08,3,3917.25882,N,08203.79322,W,00309,+000.000,+000.000,+000.000,0,1*57
$PTNLRBA,1,1*57
$GPZDA,213439.00,16,02,2014,,*6A
$GPGGA,213439.00,3917.25910,N,08203.79336,W,1,08,0.95,00309,M,-033,M,,*51
$GPGLL,3917.25910,N,08203.79336,W,213439.00,A,A*77
$GPVTG,000.0,T,007.2,M,000.0,N,000.0,K,A*26
$GPGSA,A,3,32,22,01,16,20,25,29,31,,,,,1.67,0.95,1.37*00
$GPGSV,3,1,09,32,62,274,43,22,11,160,36,01,11,267,30,16,10,194,32*79
$GPGSV,3,2,09,20,29,308,28,25,31,048,34,29,08,089,36,31,75,349,33*7E
$GPGSV,3,3,09,14,41,094,26,,,,,,,,,,,,*49
$GPGST,213439.00,,066.85,057.08,063.9,008.06,007.68,008.78*4C
$GPRMC,213439.00,A,3917.25910,N,08203.79336,W,000.0,000.0,160214,07.2,W,A*0C
$PTNLRTF,V,A,077695,08,3,3917.25910,N,08203.79336,W,00309,+000.000,+000.000,+000.000,0,1*59
$PTNLRBA,1,1*57
$GPZDA,213441.00,16,02,2014,,*65
$GPGGA,213441.00,3917.25883,N,08203.79310,W,1,08,0.95,00310,M,-033,M,,*59
$GPGLL,3917.25883,N,08203.79310,W,213441.00,A,A*77
$GPVTG,000.0,T,007.2,M,000.0,N,000.0,K,A*26
$GPGSA,A,3,32,22,01,16,20,25,29,31,,,,,1.67,0.95,1.37*00
$GPGSV,3,1,09,32,62,274,43,22,11,160,36,01,11,267,31,16,10,194,31*7B
$GPGSV,3,2,09,20,29,308,32,25,31,048,34,29,08,089,33,31,75,349,34*77
$GPGSV,3,3,09,14,41,094,23,,,,,,,,,,,,*4C
$GPGST,213441.00,,059.95,052.05,064.1,007.64,007.32,008.29*49
$GPRMC,213441.00,A,3917.25883,N,08203.79310,W,000.0,000.0,160214,07.2,W,A*0C
$PTNLRTF,V,A,077697,08,3,3917.25883,N,08203.79310,W,00310,+000.000,+000.000,+000.000,0,1*5C
$PTNLRBA,1,1*57
$GPZDA,213442.00,16,02,2014,,*66
$GPGGA,213442.00,3917.25887,N,08203.79281,W,1,08,0.95,00311,M,-033,M,,*56
$GPGLL,3917.25887,N,08203.79281,W,213442.00,A,A*79
$GPVTG,000.0,T,007.2,M,000.0,N,000.0,K,A*26
$GPGSA,A,3,32,22,01,16,20,25,29,31,,,,,1.67,0.95,1.37*00
$GPGSV,3,1,09,32,62,274,42,22,11,160,37,01,11,267,31,16,10,194,31*7B
$GPGSV,3,2,09,20,29,308,29,25,31,048,34,29,08,089,32,31,75,349,34*7C
$GPGSV,3,3,09,14,41,094,24,,,,,,,,,,,,*4B
$GPGST,213442.00,,060.23,053.19,064.1,007.67,007.38,008.29*48
$GPRMC,213442.00,A,3917.25887,N,08203.79281,W,000.0,000.0,160214,07.2,W,A*02
$PTNLRTF,V,A,077698,08,3,3917.25887,N,08203.79281,W,00311,+000.000,+000.000,+000.000,0,1*5F
$PTNLRBA,1,1*57
$GPZDA,213444.00,16,02,2014,,*60
$GPGGA,213444.00,3917.25889,N,08203.79257,W,1,08,0.95,00311,M,-033,M,,*55
$GPGLL,3917.25889,N,08203.79257,W,213444.00,A,A*7A
$GPVTG,000.0,T,007.2,M,000.0,N,000.0,K,A*26
$GPGSA,A,3,32,22,01,16,20,25,29,31,,,,,1.67,0.95,1.37*00
$GPGSV,3,1,09,32,62,274,43,22,11,160,36,01,11,267,30,16,10,194,33*78
$GPGSV,3,2,09,20,29,308,27,25,31,048,33,29,08,089,33,31,75,349,34*74
$GPGSV,3,3,09,14,41,094,28,,,,,,,,,,,,*47
$GPGST,213444.00,,064.34,058.71,064.9,007.96,007.73,008.50*4E
$GPRMC,213444.00,A,3917.25889,N,08203.79257,W,000.0,000.0,160214,07.2,W,A*01
$PTNLRTF,V,A,077700,08,3,3917.25889,N,08203.79257,W,00311,+000.000,+000.000,+000.000,0,1*5A
$PTNLRBA,1,1*57
