$GPZDA,215525.00,05,03,2014,,*63
$GPGGA,215525.00,3919.81633,N,08206.08362,W,1,05,1.70,00222,M,-033,M,,*58
$GPGLL,3919.81633,N,08206.08362,W,215525.00,A,A*71
$GPVTG,000.0,T,007.2,M,000.0,N,000.0,K,A*26
$GPGSA,A,3,31,32,20,23,16,,,,,,,,8.15,1.70,7.97*06
$GPGSV,2,1,06,31,47,056,34,32,38,209,34,20,39,259,30,23,38,311,38*78
$GPGSV,2,2,06,16,54,201,33,30,37,276,29,,,,,,,,*75
$GPGST,215525.00,,151.59,150.62,003.8,012.27,012.31,012.69*44
$GPRMC,215525.00,A,3919.81633,N,08206.08362,W,000.0,000.0,050314,07.2,W,A*09
$PTNLRTF,V,A,338142,05,3,3919.81633,N,08206.08362,W,00222,+000.000,+000.000,+000.000,0,1$GPZDA,215527.00,05,03,2014,,*61
$GPGGA,215527.00,3919.81632,N,08206.08360,W,1,05,1.70,00222,M,-033,M,,*59
$GPGLL,3919.81632,N,08206.08360,W,215527.00,A,A*70
$GPVTG,000.0,T,007.2,M,000.0,N,000.0,K,A*26
$GPGSA,A,3,31,32,20,23,16,,,,,,,,8.14,1.70,7.96*06
$GPGSV,2,1,06,31,47,056,34,32,38,209,35,20,39,259,30,23,38,311,38*79
$GPGSV,2,2,06,16,54,201,33,30,37,276,30,,,,,,,,*7D
$GPGST,215527.00,,146.97,146.05,003.1,012.09,012.12,012.51*4B
$GPRMC,215527.00,A,3919.81632,N,08206.08360,W,000.0,000.0,050314,07.2,W,A*08
$PTNLRTF,V,A,338143,05,3,3919.81632,N,08206.08360,W,00222,+000.000,+000.000,+000.000,0,1*57
$PTNLRBA,1,1*57
$GPZDA,215528.00,05,03,2014,,*6E
$GPGGA,215528.00,3919.81631,N,08206.08362,W,1,05,1.70,00222,M,-033,M,,*57
$GPGLL,3919.81631,N,08206.08362,W,215528.00,A,A*7E
$GPVTG,000.0,T,007.2,M,000.0,N,000.0,K,A*26
$GPGSA,A,3,31,32,20,23,16,,,,,,,,8.13,1.70,7.96*01
$GPGSV,2,1,06,31,47,056,34,32,38,209,34,20,39,259,31,23,38,311,38*79
$GPGSV,2,2,06,16,54,201,33,30,37,276,28,,,,,,,,*74
$GPGST,215528.00,,144.44,143.54,003.0,011.98,012.02,012.41*43
$GPRMC,215528.00,A,3919.81631,N,08206.08362,W,000.0,000.0,050314,07.2,W,A*06
$PTNLRTF,V,A,338144,05,3,3919.81631,N,08206.08362,W,00222,+000.000,+000.000,+000.000,0,1*51
$PTNLRBA,1,1*57
$GPZDA,215529.00,05,03,2014,,*6F
$GPGGA,215529.00,3919.81633,N,08206.08356,W,1,05,1.70,00222,M,-033,M,,*53
$GPGLL,3919.81633,N,08206.08356,W,215529.00,A,A*7A
$GPVTG,000.0,T,007.2,M,000.0,N,000.0,K,A*26
$GPGSA,A,3,31,32,20,23,16,,,,,,,,8.11,1.69,7.94*09
$GPGSV,2,1,06,31,47,056,35,32,38,209,34,20,39,259,30,23,38,311,38*79
$GPGSV,2,2,06,16,54,201,33,30,37,276,29,,,,,,,,*75
$GPGST,215529.00,,150.22,149.36,002.4,012.22,012.26,012.64*4F
$GPRMC,215529.00,A,3919.81633,N,08206.08356,W,000.0,000.0,050314,07.2,W,A*02
$PTNLRTF,V,A,338146,05,3,3919.81633,N,08206.08356,W,00222,+000.000,+000.000,+000.000,0,1*56
$PTNLRBA,1,1*57
$GPZDA,215531.00,05,03,2014,,*66
$GPGGA,215531.00,3919.81632,N,08206.08361,W,1,05,1.69,00222,M,-033,M,,*57
$GPGLL,3919.81632,N,08206.08361,W,215531.00,A,A*76
$GPVTG,000.0,T,007.2,M,000.0,N,000.0,K,A*26
$GPGSA,A,3,31,32,20,23,16,,,,,,,,8.11,1.69,7.93*0E
$GPGSV,2,1,06,31,47,056,35,32,38,209,34,20,39,259,30,23,38,311,38*79
$GPGSV,2,2,06,16,54,201,33,30,37,276,31,,,,,,,,*7C
$GPGST,215531.00,,149.96,149.13,001.9,012.21,012.25,012.63*4F
$GPRMC,215531.00,A,3919.81632,N,08206.08361,W,000.0,000.0,050314,07.2,W,A*0E
$PTNLRTF,V,A,338147,05,3,3919.81632,N,08206.08361,W,00222,+000.000,+000.000,+000.000,0,1*52
$PTNLRBA,1,1*57
$GPZDA,215532.00,05,03,2014,,*65
$GPGGA,215532.00,3919.81631,N,08206.08356,W,1,05,1.69,00222,M,-033,M,,*53
$GPGLL,3919.81631,N,08206.08356,W,215532.00,A,A*72
$GPVTG,000.0,T,007.2,M,000.0,N,000.0,K,A*26
$GPGSA,A,3,31,32,20,23,16,,,,,,,,8.10,1.69,7.92*0E
$GPGSV,2,1,06,31,47,056,35,32,38,209,34,20,39,259,30,23,38,311,38*79
$GPGSV,2,2,06,16,54,201,33,30,37,276,30,,,,,,,,*7D
$GPGST,215532.00,,149.83,149.02,001.7,012.21,012.24,012.62*46
$GPRMC,215532.00,A,3919.81631,N,08206.08356,W,000.0,000.0,050314,07.2,W,A*0A
$PTNLRTF,V,A,338149,05,3,3919.81631,N,08206.08356,W,00222,+000.000,+000.000,+000.000,0,1*5B
$PTNLRBA,1,1*57
$GPZDA,215534.00,05,03,2014,,*63
$GPGGA,215534.00,3919.81630,N,08206.08362,W,1,05,1.69,00222,M,-033,M,,*53
$GPGLL,3919.81630,N,08206.08362,W,215534.00,A,A*72
$GPVTG,000.0,T,007.2,M,000.0,N,000.0,K,A*26
$GPGSA,A,3,31,32,20,23,16,,,,,,,,8.08,1.69,7.90*05
$GPGSV,2,1,06,31,47,056,35,32,38,209,35,20,39,259,30,23,38,311,38*78
$GPGSV,2,2,06,16,54,201,33,30,37,276,30,,,,,,,,*7D
$GPGST,215534.00,,147.39,146.60,001.1,012.11,012.14,012.53*40
$GPRMC,215534.00,A,3919.81630,N,08206.08362,W,000.0,000.0,050314,07.2,W,A*0A
$PTNLRTF,V,A,338150,05,3,3919.81630,N,08206.08362,W,00222,+000.000,+000.000,+000.000,0,1*55
$PTNLRBA,1,1*57
$GPZDA,215535.00,05,03,2014,,*62
$GPGGA,215535.00,3919.81628,N,08206.08371,W,1,05,1.69,00222,M,-033,M,,*59
$GPGLL,3919.81628,N,08206.08371,W,215535.00,A,A*78
$GPVTG,000.0,T,007.2,M,000.0,N,000.0,K,A*26
$GPGSA,A,3,31,32,20,23,16,,,,,,,,8.07,1.69,7.89*02
$GPGSV,2,1,06,31,47,056,35,32,38,209,35,20,39,259,29,23,38,311,38*70
$GPGSV,2,2,06,16,54,201,32,30,37,276,29,,,,,,,,*74
$GPGST,215535.00,,150.89,150.12,000.9,012.25,012.28,012.67*48
$GPRMC,215535.00,A,3919.81628,N,08206.08371,W,000.0,000.0,050314,07.2,W,A*00
$PTNLRTF,V,A,338151,05,3,3919.81628,N,08206.08371,W,00222,+000.000,+000.000,+000.000,0,1*5F
$PTNLRBA,1,1*57
$GPZDA,215536.00,05,03,2014,,*61
$GPGGA,215536.00,3919.81630,N,08206.08375,W,1,05,1.69,00222,M,-033,M,,*57
$GPGLL,3919.81630,N,08206.08375,W,215536.00,A,A*76
$GPVTG,000.0,T,007.2,M,000.0,N,000.0,K,A*26
$GPGSA,A,3,31,32,20,23,16,,,,,,,,8.05,1.69,7.87*0E
$GPGSV,2,1,06,31,47,056,35,32,38,209,34,20,39,259,30,23,38,311,38*79
$GPGSV,2,2,06,16,54,201,33,30,37,276,29,,,,,,,,*75
$GPGST,215536.00,,144.92,144.16,000.7,012.01,012.04,012.43*45
$GPRMC,215536.00,A,3919.81630,N,08206.08375,W,000.0,000.0,050314,07.2,W,A*0E
$PTNLRTF,V,A,338153,05,3,3919.81630,N,08206.08375,W,00222,+000.000,+000.000,+000.000,0,1*50
$PTNLRBA,1,1*57
$GPZDA,215538.00,05,03,2014,,*6F
$GPGGA,215538.00,3919.81635,N,08206.08385,W,1,05,1.69,00222,M,-033,M,,*53
$GPGLL,3919.81635,N,08206.08385,W,215538.00,A,A*72
$GPVTG,000.0,T,007.2,M,000.0,N,000.0,K,A*26
$GPGSA,A,3,31,32,20,23,16,,,,,,,,8.04,1.69,7.86*0E
$GPGSV,2,1,06,31,47,056,34,32,38,209,34,20,39,259,28,23,38,311,37*7E
$GPGSV,2,2,06,16,54,201,31,30,37,276,30,,,,,,,,*7F
$GPGST,215538.00,,133.55,132.81,000.3,011.52,011.56,011.96*41
$GPRMC,215538.00,A,3919.81635,N,08206.08385,W,000.0,000.0,050314,07.2,W,A*0A
$PTNLRTF,V,A,338154,05,3,3919.81635,N,08206.08385,W,00222,+000.000,+000.000,+000.000,0,1*5D
$PTNLRBA,1,1*57
$GPZDA,215539.00,05,03,2014,,*6E
$GPGGA,215539.00,3919.81635,N,08206.08387,W,1,05,1.68,00222,M,-033,M,,*51
$GPGLL,3919.81635,N,08206.08387,W,215539.00,A,A*71
$GPVTG,000.0,T,007.2,M,000.0,N,000.0,K,A*26
$GPGSA,A,3,31,32,20,23,16,,,,,,,,8.03,1.68,7.85*0B
$GPGSV,2,1,06,31,47,056,36,32,38,209,35,20,39,259,30,23,38,311,38*7B
$GPGSV,2,2,06,16,54,201,33,30,37,276,30,,,,,,,,*7D
$GPGST,215539.00,,130.22,129.49,000.0,011.38,011.41,011.82*41
$GPRMC,215539.00,A,3919.81635,N,08206.08387,W,000.0,000.0,050314,07.2,W,A*09
$PTNLRTF,V,A,338155,05,3,3919.81635,N,08206.08387,W,00222,+000.000,+000.000,+000.000,0,1*5E
$PTNLRBA,1,1*57
$GPZDA,215541.00,05,03,2014,,*61
$GPGGA,215541.00,3919.81633,N,08206.08399,W,1,05,1.68,00222,M,-033,M,,*57
$GPGLL,3919.81633,N,08206.08399,W,215541.00,A,A*77
$GPVTG,000.0,T,007.2,M,000.0,N,000.0,K,A*26
$GPGSA,A,3,31,32,20,23,16,,,,,,,,8.01,1.68,7.83*0F
$GPGSV,2,1,06,31,47,056,35,32,38,209,35,20,39,259,31,23,38,311,38*79
$GPGSV,2,2,06,16,54,201,33,30,37,276,29,,,,,,,,*75
$GPGST,215541.00,,124.57,123.87,000.4,011.13,011.16,011.58*49
$GPRMC,215541.00,A,3919.81633,N,08206.08399,W,000.0,000.0,050314,07.2,W,A*0F
$PTNLRTF,V,A,338157,05,3,3919.81633,N,08206.08399,W,00222,+000.000,+000.000,+000.000,0,1*55
$PTNLRBA,1,1*57
$GPZDA,215542.00,05,03,2014,,*62
$GPGGA,215542.00,3919.81631,N,08206.08405,W,1,05,1.68,00222,M,-033,M,,*54
$GPGLL,3919.81631,N,08206.08405,W,215542.00,A,A*74
$GPVTG,000.0,T,007.2,M,000.0,N,000.0,K,A*26
$GPGSA,A,3,31,32,20,23,16,,,,,,,,8.00,1.68,7.82*0F
$GPGSV,2,1,06,31,47,056,36,32,38,209,35,20,39,259,30,23,38,311,38*7B
$GPGSV,2,2,06,16,54,201,33,30,37,276,28,,,,,,,,*74
$GPGST,215542.00,,123.19,122.49,000.6,011.07,011.10,011.52*4F
$GPRMC,215542.00,A,3919.81631,N,08206.08405,W,000.0,000.0,050314,07.2,W,A*0C
$PTNLRTF,V,A,338158,05,3,3919.81631,N,08206.08405,W,00222,+000.000,+000.000,+000.000,0,1*5A
$PTNLRBA,1,1*57
$GPZDA,215543.00,05,03,2014,,*63
$GPGGA,215543.00,3919.81629,N,08206.08409,W,1,05,1.68,00222,M,-033,M,,*50
$GPGLL,3919.81629,N,08206.08409,W,215543.00,A,A*70
$GPVTG,000.0,T,007.2,M,000.0,N,000.0,K,A*26
$GPGSA,A,3,31,32,20,23,16,,,,,,,,7.98,1.68,7.80*03
$GPGSV,2,1,06,31,47,056,36,32,38,209,35,20,39,259,30,23,38,311,38*7B
$GPGSV,2,2,06,16,54,201,33,30,37,276,30,,,,,,,,*7D
$GPGST,215543.00,,124.27,123.59,001.1,011.12,011.15,011.57*46
$GPRMC,215543.00,A,3919.81629,N,08206.08409,W,000.0,000.0,050314,07.2,W,A*08
$PTNLRTF,V,A,338160,05,3,3919.81629,N,08206.08409,W,00222,+000.000,+000.000,+000.000,0,1*54
$PTNLRBA,1,1*57
$GPZDA,215545.00,05,03,2014,,*65
$GPGGA,215545.00,3919.81618,N,08206.08419,W,1,05,1.68,00222,M,-033,M,,*55
$GPGLL,3919.81618,N,08206.08419,W,215545.00,A,A*75
$GPVTG,000.0,T,007.2,M,000.0,N,000.0,K,A*26
$GPGSA,A,3,31,32,20,23,16,,,,,,,,7.97,1.68,7.79*0A
$GPGSV,2,1,06,31,47,056,36,32,38,209,35,20,39,259,30,23,38,311,38*7B
$GPGSV,2,2,06,16,54,201,33,30,37,276,30,,,,,,,,*7D
$GPGST,215545.00,,125.36,124.72,001.8,011.17,011.20,011.62*43
$GPRMC,215545.00,A,3919.81618,N,08206.08419,W,000.0,000.0,050314,07.2,W,A*0D
$PTNLRTF,V,A,338161,05,3,3919.81618,N,08206.08419,W,00222,+000.000,+000.000,+000.000,0,1*56
$PTNLRBA,1,1*57
$GPZDA,215546.00,05,03,2014,,*66
$GPGGA,215546.00,3919.81616,N,08206.08421,W,1,05,1.68,00222,M,-033,M,,*53
$GPGLL,3919.81616,N,08206.08421,W,215546.00,A,A*73
$GPVTG,000.0,T,007.2,M,000.0,N,000.0,K,A*26
$GPGSA,A,3,31,32,20,23,16,,,,,,,,7.96,1.68,7.78*0A
$GPGSV,2,1,06,31,47,056,36,32,38,209,35,20,39,259,30,23,38,311,38*7B
$GPGSV,2,2,06,16,54,201,33,30,37,276,30,,,,,,,,*7D
$GPGST,215546.00,,128.95,128.32,002.3,011.33,011.36,011.77*41
$GPRMC,215546.00,A,3919.81616,N,08206.08421,W,000.0,000.0,050314,07.2,W,A*0B
$PTNLRTF,V,A,338162,05,3,3919.81616,N,08206.08421,W,00222,+000.000,+000.000,+000.000,0,1*50
$PTNLRBA,1,1*57
$GPZDA,215547.00,05,03,2014,,*67
$GPGGA,215547.00,3919.81616,N,08206.08424,W,1,05,1.68,00222,M,-033,M,,*57
$GPGLL,3919.81616,N,08206.08424,W,215547.00,A,A*77
$GPVTG,000.0,T,007.2,M,000.0,N,000.0,K,A*26
$GPGSA,A,3,31,32,20,23,16,,,,,,,,7.95,1.68,7.77*06
$GPGSV,2,1,06,31,47,056,36,32,38,209,35,20,39,259,30,23,38,311,38*7B
$GPGSV,2,2,06,16,54,201,34,30,37,276,30,,,,,,,,*7A
$GPGST,215547.00,,127.28,126.67,002.8,011.25,011.28,011.70*43
$GPRMC,215547.00,A,3919.81616,N,08206.08424,W,000.0,000.0,050314,07.2,W,A*0F
$PTNLRTF,V,A,338164,05,3,3919.81616,N,08206.08424,W,00222,+000.000,+000.000,+000.000,0,1*53
$PTNLRBA,1,1*57
$GPZDA,215549.00,05,03,2014,,*69
$GPGGA,215549.00,3919.81613,N,08206.08427,W,1,05,1.67,00222,M,-033,M,,*50
$GPGLL,3919.81613,N,08206.08427,W,215549.00,A,A*7F
$GPVTG,000.0,T,007.2,M,000.0,N,000.0,K,A*26
$GPGSA,A,3,31,32,20,23,16,,,,,,,,7.94,1.67,7.76*09
$GPGSV,2,1,06,31,47,056,36,32,38,209,35,20,39,259,30,23,38,311,38*7B
$GPGSV,2,2,06,16,54,201,33,30,37,276,28,,,,,,,,*74
$GPGST,215549.00,,125.15,124.57,003.9,011.16,011.19,011.61*42
$GPRMC,215549.00,A,3919.81613,N,08206.08427,W,000.0,000.0,050314,07.2,W,A*07
$PTNLRTF,V,A,338165,05,3,3919.81613,N,08206.08427,W,00222,+000.000,+000.000,+000.000,0,1*54
$PTNLRBA,1,1*57
$GPZDA,215550.00,05,03,2014,,*61
$GPGGA,215550.00,3919.81614,N,08206.08423,W,1,05,1.67,00222,M,-033,M,,*5B
$GPGLL,3919.81614,N,08206.08423,W,215550.00,A,A*74
$GPVTG,000.0,T,007.2,M,000.0,N,000.0,K,A*26
$GPGSA,A,3,31,32,20,23,16,,,,,,,,7.93,1.67,7.75*0D
$GPGSV,2,1,06,31,47,056,36,32,38,209,35,20,39,259,30,23,38,311,38*7B
$GPGSV,2,2,06,16,54,201,34,30,37,276,30,,,,,,,,*7A
$GPGST,215550.00,,120.31,119.74,004.4,010.94,010.97,011.40*43
$GPRMC,215550.00,A,3919.81614,N,08206.08423,W,000.0,000.0,050314,07.2,W,A*0C
$PTNLRTF,V,A,338167,05,3,3919.81614,N,08206.08423,W,00222,+000.000,+000.000,+000.000,0,1*55
$PTNLRBA,1,1*57
$GPZDA,215552.00,05,03,2014,,*63
$GPGGA,215552.00,3919.81615,N,08206.08413,W,1,05,1.67,00222,M,-033,M,,*5B
$GPGLL,3919.81615,N,08206.08413,W,215552.00,A,A*74
$GPVTG,000.0,T,007.2,M,000.0,N,000.0,K,A*26
$GPGSA,A,3,31,32,20,23,16,,,,,,,,7.91,1.67,7.73*09
$GPGSV,2,1,06,31,47,056,36,32,38,209,35,20,39,259,29,23,38,311,38*73
$GPGSV,2,2,06,16,54,201,34,30,37,276,30,,,,,,,,*7A
$GPGST,215552.00,,117.51,116.96,005.4,010.82,010.84,011.28*4A
$GPRMC,215552.00,A,3919.81615,N,08206.08413,W,000.0,000.0,050314,07.2,W,A*0C
$PTNLRTF,V,A,338168,05,3,3919.81615,N,08206.08413,W,00222,+000.000,+000.000,+000.000,0,1*58
$PTNLRBA,1,1*57
$GPZDA,215553.00,05,03,2014,,*62
$GPGGA,215553.00,3919.81613,N,08206.08416,W,1,05,1.67,00222,M,-033,M,,*59
$GPGLL,3919.81613,N,08206.08416,W,215553.00,A,A*76
$GPVTG,000.0,T,007.2,M,000.0,N,000.0,K,A*26
$GPGSA,A,3,31,32,20,23,16,,,,,,,,7.90,1.67,7.72*09
$GPGSV,2,1,06,31,47,056,36,32,38,209,35,20,39,259,29,23,38,311,38*73
$GPGSV,2,2,06,16,54,201,33,30,37,276,30,,,,,,,,*7D
$GPGST,215553.00,,117.11,116.56,005.5,010.80,010.82,011.26*48
$GPRMC,215553.00,A,3919.81613,N,08206.08416,W,000.0,000.0,050314,07.2,W,A*0E
$PTNLRTF,V,A,338169,05,3,3919.81613,N,08206.08416,W,00222,+000.000,+000.000,+000.000,0,1*5A
$PTNLRBA,1,1*57
$GPZDA,215554.00,05,03,2014,,*65
$GPGGA,215554.00,3919.81611,N,08206.08420,W,1,05,1.67,00222,M,-033,M,,*59
$GPGLL,3919.81611,N,08206.08420,W,215554.00,A,A*76
$GPVTG,000.0,T,007.2,M,000.0,N,000.0,K,A*26
$GPGSA,A,3,31,32,20,23,16,,,,,,,,7.88,1.67,7.70*02
$GPGSV,2,1,06,31,47,056,35,32,38,209,35,20,39,259,30,23,38,311,38*78
$GPGSV,2,2,06,16,54,201,34,30,37,276,30,,,,,,,,*7A
$GPGST,215554.00,,121.55,121.01,006.0,011.00,011.02,011.45*4F
$GPRMC,215554.00,A,3919.81611,N,08206.08420,W,000.0,000.0,050314,07.2,W,A*0E
$PTNLRTF,V,A,338171,05,3,3919.81611,N,08206.08420,W,00222,+000.000,+000.000,+000.000,0,1*54
$PTNLRBA,1,1*57
$GPZDA,215556.00,05,03,2014,,*67
$GPGGA,215556.00,3919.81612,N,08206.08425,W,1,05,1.67,00222,M,-033,M,,*5D
$GPGLL,3919.81612,N,08206.08425,W,215556.00,A,A*72
$GPVTG,000.0,T,007.2,M,000.0,N,000.0,K,A*26
$GPGSA,A,3,31,32,20,23,16,,,,,,,,7.87,1.67,7.69*05
$GPGSV,2,1,06,31,47,056,36,32,38,209,35,20,39,259,29,23,38,311,38*73
$GPGSV,2,2,06,16,54,201,33,30,37,276,30,,,,,,,,*7D
$GPGST,215556.00,,113.45,112.93,006.9,010.63,010.65,011.09*43
$GPRMC,215556.00,A,3919.81612,N,08206.08425,W,000.0,000.0,050314,07.2,W,A*0A
$PTNLRTF,V,A,338172,05,3,3919.81612,N,08206.08425,W,00222,+000.000,+000.000,+000.000,0,1*51
$PTNLRBA,1,1*57
$GPZDA,215557.00,05,03,2014,,*66
$GPGGA,215557.00,3919.81610,N,08206.08429,W,1,05,1.67,00222,M,-033,M,,*52
$GPGLL,3919.81610,N,08206.08429,W,215557.00,A,A*7D
$GPVTG,000.0,T,007.2,M,000.0,N,000.0,K,A*26
$GPGSA,A,3,31,32,20,23,16,,,,,,,,7.86,1.67,7.68*05
$GPGSV,2,1,06,31,47,056,36,32,38,209,35,20,39,259,30,23,38,311,38*7B
$GPGSV,2,2,06,16,54,202,33,30,37,276,29,,,,,,,,*76
$GPGST,215557.00,,123.14,122.64,007.3,011.07,011.10,011.52*4B
$GPRMC,215557.00,A,3919.81610,N,08206.08429,W,000.0,000.0,050314,07.2,W,A*05
$PTNLRTF,V,A,338173,05,3,3919.81610,N,08206.08429,W,00222,+000.000,+000.000,+000.000,0,1*5E
$PTNLRBA,1,1*57
$GPZDA,215559.00,05,03,2014,,*68
$GPGGA,215559.00,3919.81607,N,08206.08427,W,1,05,1.66,00222,M,-033,M,,*55
$GPGLL,3919.81607,N,08206.08427,W,215559.00,A,A*7B
$GPVTG,000.0,T,007.2,M,000.0,N,000.0,K,A*26
$GPGSA,A,3,31,32,20,23,16,,,,,,,,7.84,1.66,7.67*09
$GPGSV,2,1,06,31,47,056,36,32,38,209,35,20,39,259,30,23,38,311,38*7B
$GPGSV,2,2,06,16,54,202,34,30,37,276,30,,,,,,,,*79
$GPGST,215559.00,,126.04,125.55,007.9,011.21,011.23,011.65*4E
$GPRMC,215559.00,A,3919.81607,N,08206.08427,W,000.0,000.0,050314,07.2,W,A*03
$PTNLRTF,V,A,338175,05,3,3919.81607,N,08206.08427,W,00222,+000.000,+000.000,+000.000,0,1*50
$PTNLRBA,1,1*57
$GPZDA,215600.00,05,03,2014,,*67
$GPGGA,215600.00,3919.81605,N,08206.08423,W,1,05,1.66,00222,M,-033,M,,*5C
$GPGLL,3919.81605,N,08206.08423,W,215600.00,A,A*72
$GPVTG,000.0,T,007.2,M,000.0,N,000.0,K,A*26
$GPGSA,A,3,31,32,20,23,16,,,,,,,,7.84,1.66,7.66*08
$GPGSV,2,1,06,31,47,056,36,32,38,209,35,20,39,259,30,23,38,311,38*7B
$GPGSV,2,2,06,16,54,202,33,30,37,276,29,,,,,,,,*76
$GPGST,215600.00,,129.38,128.89,008.4,011.35,011.37,011.79*42
$GPRMC,215600.00,A,3919.81605,N,08206.08423,W,000.0,000.0,050314,07.2,W,A*0A
$PTNLRTF,V,A,338176,05,3,3919.81605,N,08206.08423,W,00222,+000.000,+000.000,+000.000,0,1*55
$PTNLRBA,1,1*57
$GPZDA,215601.00,05,03,2014,,*66
$GPGGA,215601.00,3919.81604,N,08206.08429,W,1,05,1.66,00222,M,-033,M,,*56
$GPGLL,3919.81604,N,08206.08429,W,215601.00,A,A*78
$GPVTG,000.0,T,007.2,M,000.0,N,000.0,K,A*26
$GPGSA,A,3,31,32,20,23,16,,,,,,,,7.82,1.66,7.64*0C
$GPGSV,2,1,06,31,47,056,36,32,38,209,35,20,39,259,30,23,38,311,38*7B
$GPGSV,2,2,06,16,54,202,33,30,37,276,30,,,,,,,,*7E
$GPGST,215601.00,,139.86,139.38,008.8,011.81,011.83,012.23*4D
$GPRMC,215601.00,A,3919.81604,N,08206.08429,W,000.0,000.0,050314,07.2,W,A*00
$PTNLRTF,V,A,338178,05,3,3919.81604,N,08206.08429,W,00222,+000.000,+000.000,+000.000,0,1*50
$PTNLRBA,1,1*57
$GPZDA,215603.00,05,03,2014,,*64
$GPGGA,215603.00,3919.81601,N,08206.08435,W,1,05,1.66,00222,M,-033,M,,*5C
$GPGLL,3919.81601,N,08206.08435,W,215603.00,A,A*72
$GPVTG,000.0,T,007.2,M,000.0,N,000.0,K,A*26
$GPGSA,A,3,31,32,20,23,16,,,,,,,,7.81,1.66,7.63*08
$GPGSV,2,1,06,31,47,056,35,32,38,209,35,20,39,259,30,23,38,311,38*78
$GPGSV,2,2,06,16,54,202,33,30,37,276,29,,,,,,,,*76
$GPGST,215603.00,,135.65,135.19,009.3,011.63,011.65,012.05*4B
$GPRMC,215603.00,A,3919.81601,N,08206.08435,W,000.0,000.0,050314,07.2,W,A*0A
$PTNLRTF,V,A,338179,05,3,3919.81601,N,08206.08435,W,00222,+000.000,+000.000,+000.000,0,1*59
$PTNLRBA,1,1*57
$GPZDA,215604.00,05,03,2014,,*63
$GPGGA,215604.00,3919.81602,N,08206.08434,W,1,05,1.66,00222,M,-033,M,,*59
$GPGLL,3919.81602,N,08206.08434,W,215604.00,A,A*77
$GPVTG,000.0,T,007.2,M,000.0,N,000.0,K,A*26
$GPGSA,A,3,31,32,20,23,16,,,,,,,,7.80,1.66,7.62*08
$GPGSV,2,1,06,31,47,056,36,32,38,209,35,20,39,259,28,23,38,311,38*72
$GPGSV,2,2,06,16,54,202,33,30,37,276,29,,,,,,,,*76
$GPGST,215604.00,,138.11,137.65,009.7,011.73,011.75,012.15*4E
$GPRMC,215604.00,A,3919.81602,N,08206.08434,W,000.0,000.0,050314,07.2,W,A*0F
$PTNLRTF,V,A,338180,05,3,3919.81602,N,08206.08434,W,00222,+000.000,+000.000,+000.000,0,1*5D
$PTNLRBA,1,1*57
$GPZDA,215605.00,05,03,2014,,*62
$GPGGA,215605.00,3919.81601,N,08206.08437,W,1,05,1.66,00222,M,-033,M,,*58
$GPGLL,3919.81601,N,08206.08437,W,215605.00,A,A*76
$GPVTG,000.0,T,007.2,M,000.0,N,000.0,K,A*26
$GPGSA,A,3,31,32,20,23,16,,,,,,,,7.78,1.66,7.60*0D
$GPGSV,2,1,06,31,47,056,35,32,38,209,35,20,39,259,30,23,38,311,38*78
$GPGSV,2,2,06,16,54,202,33,30,37,276,28,,,,,,,,*77
$GPGST,215605.00,,140.49,140.04,009.8,011.83,011.85,012.25*46
$GPRMC,215605.00,A,3919.81601,N,08206.08437,W,000.0,000.0,050314,07.2,W,A*0E
$PTNLRTF,V,A,338182,05,3,3919.81601,N,08206.08437,W,00222,+000.000,+000.000,+000.000,0,1*5F
$PTNLRBA,1,1*57
$GPZDA,215607.00,05,03,2014,,*60
$GPGGA,215607.00,3919.81599,N,08206.08435,W,1,05,1.66,00222,M,-033,M,,*5A
$GPGLL,3919.81599,N,08206.08435,W,215607.00,A,A*74
$GPVTG,000.0,T,007.2,M,000.0,N,000.0,K,A*26
$GPGSA,A,3,31,32,20,23,16,,,,,,,,7.77,1.66,7.59*08
$GPGSV,2,1,06,31,47,056,35,32,38,209,34,20,39,259,30,23,38,311,38*79
$GPGSV,2,2,06,16,54,202,33,30,37,276,30,,,,,,,,*7E
$GPGST,215607.00,,153.37,152.93,010.7,012.37,012.38,012.77*4B
$GPRMC,215607.00,A,3919.81599,N,08206.08435,W,000.0,000.0,050314,07.2,W,A*0C
$PTNLRTF,V,A,338183,05,3,3919.81599,N,08206.08435,W,00222,+000.000,+000.000,+000.000,0,1*5E
$PTNLRBA,1,1*57
$GPZDA,215608.00,05,03,2014,,*6F
$GPGGA,215608.00,3919.81598,N,08206.08436,W,1,05,1.66,00222,M,-033,M,,*57
$GPGLL,3919.81598,N,08206.08436,W,215608.00,A,A*79
$GPVTG,000.0,T,007.2,M,000.0,N,000.0,K,A*26
$GPGSA,A,3,31,32,20,23,16,,,,,,,,7.76,1.66,7.59*09
$GPGSV,2,1,06,31,47,056,35,32,38,209,35,20,39,259,30,23,38,311,38*78
$GPGSV,2,2,06,16,54,202,33,30,37,276,29,,,,,,,,*76
$GPGST,215608.00,,155.56,155.12,010.8,012.46,012.47,012.85*47
$GPRMC,215608.00,A,3919.81598,N,08206.08436,W,000.0,000.0,050314,07.2,W,A*01
$PTNLRTF,V,A,338184,05,3,3919.81598,N,08206.08436,W,00222,+000.000,+000.000,+000.000,0,1*5B
$PTNLRBA,1,1*57
$GPZDA,215610.00,05,03,2014,,*66
$GPGGA,215610.00,3919.81596,N,08206.08434,W,1,05,1.65,00222,M,-033,M,,*51
$GPGLL,3919.81596,N,08206.08434,W,215610.00,A,A*7C
$GPVTG,000.0,T,007.2,M,000.0,N,000.0,K,A*26
$GPGSA,A,3,31,32,20,23,16,,,,,,,,7.75,1.65,7.57*07
$GPGSV,2,1,06,31,47,056,35,32,38,209,35,20,39,259,30,23,38,311,38*78
$GPGSV,2,2,06,16,54,202,33,30,37,276,29,,,,,,,,*76
$GPGST,215610.00,,167.35,166.92,011.3,012.92,012.94,013.30*40
$GPRMC,215610.00,A,3919.81596,N,08206.08434,W,000.0,000.0,050314,07.2,W,A*04
$PTNLRTF,V,A,338186,05,3,3919.81596,N,08206.08434,W,00222,+000.000,+000.000,+000.000,0,1*55
$PTNLRBA,1,1*57
$GPZDA,215611.00,05,03,2014,,*67
$GPGGA,215611.00,3919.81597,N,08206.08434,W,1,05,1.65,00222,M,-033,M,,*51
$GPGLL,3919.81597,N,08206.08434,W,215611.00,A,A*7C
$GPVTG,000.0,T,007.2,M,000.0,N,000.0,K,A*26
$GPGSA,A,3,31,32,20,23,16,,,,,,,,7.74,1.65,7.56*07
$GPGSV,2,1,06,31,47,056,35,32,38,209,34,20,39,259,30,23,38,311,38*79
$GPGSV,2,2,06,16,54,202,34,30,37,276,29,,,,,,,,*71
$GPGST,215611.00,,167.07,166.64,011.4,012.91,012.92,013.29*43
$GPRMC,215611.00,A,3919.81597,N,08206.08434,W,000.0,000.0,050314,07.2,W,A*04
$PTNLRTF,V,A,338187,05,3,3919.81597,N,08206.08434,W,00222,+000.000,+000.000,+000.000,0,1*55
$PTNLRBA,1,1*57
$GPZDA,215612.00,05,03,2014,,*64
$GPGGA,215612.00,3919.81596,N,08206.08436,W,1,05,1.65,00222,M,-033,M,,*51
$GPGLL,3919.81596,N,08206.08436,W,215612.00,A,A*7C
$GPVTG,000.0,T,007.2,M,000.0,N,000.0,K,A*26
$GPGSA,A,3,31,32,20,23,16,,,,,,,,7.72,1.65,7.54*03
$GPGSV,2,1,06,31,47,056,35,32,38,209,34,20,39,259,29,23,38,311,38*71
$GPGSV,2,2,06,16,54,202,33,30,37,276,28,,,,,,,,*77
$GPGST,215612.00,,169.43,169.01,011.5,013.00,013.02,013.38*42
$GPRMC,215612.00,A,3919.81596,N,08206.08436,W,000.0,000.0,050314,07.2,W,A*04
$PTNLRTF,V,A,338189,05,3,3919.81596,N,08206.08436,W,00222,+000.000,+000.000,+000.000,0,1*58
$PTNLRBA,1,1*57
$GPZDA,215614.00,05,03,2014,,*62
$GPGGA,215614.00,3919.81596,N,08206.08436,W,1,05,1.65,00222,M,-033,M,,*57
$GPGLL,3919.81596,N,08206.08436,W,215614.00,A,A*7A
$GPVTG,000.0,T,007.2,M,000.0,N,000.0,K,A*26
$GPGSA,A,3,31,32,20,23,16,,,,,,,,7.71,1.65,7.53*07
$GPGSV,2,1,06,31,47,056,35,32,38,209,34,20,39,259,30,23,38,311,38*79
$GPGSV,2,2,06,16,54,202,34,30,37,276,28,,,,,,,,*70
$GPGST,215614.00,,163.57,163.16,011.7,012.77,012.79,013.16*45
$GPRMC,215614.00,A,3919.81596,N,08206.08436,W,000.0,000.0,050314,07.2,W,A*02
$PTNLRTF,V,A,338190,05,3,3919.81596,N,08206.08436,W,00222,+000.000,+000.000,+000.000,0,1*50
$PTNLRBA,1,1*57
$GPZDA,215615.00,05,03,2014,,*63
$GPGGA,215615.00,3919.81595,N,08206.08437,W,1,05,1.65,00222,M,-033,M,,*54
$GPGLL,3919.81595,N,08206.08437,W,215615.00,A,A*79
$GPVTG,000.0,T,007.2,M,000.0,N,000.0,K,A*26
$GPGSA,A,3,31,32,20,23,16,,,,,,,,7.70,1.65,7.52*07
$GPGSV,2,1,06,31,47,056,35,32,38,209,34,20,39,259,30,23,38,311,38*79
$GPGSV,2,2,06,16,54,202,34,30,37,276,28,,,,,,,,*70
$GPGST,215615.00,,165.60,165.19,012.1,012.85,012.87,013.24*47
$GPRMC,215615.00,A,3919.81595,N,08206.08437,W,000.0,000.0,050314,07.2,W,A*01
$PTNLRTF,V,A,338191,05,3,3919.81595,N,08206.08437,W,00222,+000.000,+000.000,+000.000,0,1*53
$PTNLRBA,1,1*57
$GPZDA,215617.00,05,03,2014,,*61
$GPGGA,215617.00,3919.81596,N,08206.08439,W,1,05,1.65,00222,M,-033,M,,*5B
$GPGLL,3919.81596,N,08206.08439,W,215617.00,A,A*76
$GPVTG,000.0,T,007.2,M,000.0,N,000.0,K,A*26
$GPGSA,A,3,31,32,20,23,16,,,,,,,,7.69,1.65,7.51*0C
$GPGSV,2,1,06,31,47,056,36,32,38,209,33,20,39,259,30,23,38,311,38*7D
$GPGSV,2,2,06,16,54,202,32,30,37,276,28,,,,,,,,*76
$GPGST,215617.00,,174.74,174.34,012.6,013.20,013.22,013.58*43
$GPRMC,215617.00,A,3919.81596,N,08206.08439,W,000.0,000.0,050314,07.2,W,A*0E
$PTNLRTF,V,A,338193,05,3,3919.81596,N,08206.08439,W,00222,+000.000,+000.000,+000.000,0,1*5C
$PTNLRBA,1,1*57
$GPZDA,215618.00,05,03,2014,,*6E
$GPGGA,215618.00,3919.81596,N,08206.08439,W,1,05,1.65,00222,M,-033,M,,*54
$GPGLL,3919.81596,N,08206.08439,W,215618.00,A,A*79
$GPVTG,000.0,T,007.2,M,000.0,N,000.0,K,A*26
$GPGSA,A,3,31,32,20,23,16,,,,,,,,7.68,1.65,7.50*0C
$GPGSV,2,1,06,31,47,056,35,32,38,209,33,20,39,259,30,23,38,311,38*7E
$GPGSV,2,2,06,16,54,202,33,30,37,276,28,,,,,,,,*77
$GPGST,215618.00,,181.50,181.10,013.0,013.46,013.47,013.82*4F
$GPRMC,215618.00,A,3919.81596,N,08206.08439,W,000.0,000.0,050314,07.2,W,A*01
$PTNLRTF,V,A,338194,05,3,3919.81596,N,08206.08439,W,00222,+000.000,+000.000,+000.000,0,1*5B
$PTNLRBA,1,1*57
$GPZDA,215619.00,05,03,2014,,*6F
$GPGGA,215619.00,3919.81597,N,08206.08439,W,1,05,1.65,00222,M,-033,M,,*54
$GPGLL,3919.81597,N,08206.08439,W,215619.00,A,A*79
$GPVTG,000.0,T,007.2,M,000.0,N,000.0,K,A*26
$GPGSA,A,3,31,32,20,23,16,,,,,,,,7.66,1.64,7.48*0A
$GPGSV,2,1,06,31,47,056,36,32,38,209,33,20,39,259,30,23,38,311,38*7D
$GPGSV,2,2,06,16,54,202,33,30,37,276,29,,,,,,,,*76
$GPGST,215619.00,,177.00,176.61,013.4,013.29,013.30,013.66*4B
$GPRMC,215619.00,A,3919.81597,N,08206.08439,W,000.0,000.0,050314,07.2,W,A*01
$PTNLRTF,V,A,338196,05,3,3919.81597,N,08206.08439,W,00222,+000.000,+000.000,+000.000,0,1*58
$PTNLRBA,1,1*57
$GPZDA,215621.00,05,03,2014,,*64
$GPGGA,215621.00,3919.81595,N,08206.08438,W,1,05,1.64,00222,M,-033,M,,*5D
$GPGLL,3919.81595,N,08206.08438,W,215621.00,A,A*71
$GPVTG,000.0,T,007.2,M,000.0,N,000.0,K,A*26
$GPGSA,A,3,31,32,20,23,16,,,,,,,,7.65,1.64,7.47*06
$GPGSV,2,1,06,31,47,056,36,32,38,209,34,20,39,259,30,23,38,311,38*7A
$GPGSV,2,2,06,16,54,202,33,30,37,276,28,,,,,,,,*77
$GPGST,215621.00,,173.27,172.90,014.1,013.15,013.16,013.52*45
$GPRMC,215621.00,A,3919.81595,N,08206.08438,W,000.0,000.0,050314,07.2,W,A*09
$PTNLRTF,V,A,338197,05,3,3919.81595,N,08206.08438,W,00222,+000.000,+000.000,+000.000,0,1*5A
$PTNLRBA,1,1*57
$GPZDA,215622.00,05,03,2014,,*67
$GPGGA,215622.00,3919.81594,N,08206.08444,W,1,05,1.64,00222,M,-033,M,,*54
$GPGLL,3919.81594,N,08206.08444,W,215622.00,A,A*78
$GPVTG,000.0,T,007.2,M,000.0,N,000.0,K,A*26
$GPGSA,A,3,31,32,20,23,16,,,,,,,,7.64,1.64,7.46*06
$GPGSV,2,1,06,31,47,056,36,32,38,209,34,20,39,259,30,23,38,311,38*7A
$GPGSV,2,2,06,16,54,202,33,30,37,276,29,,,,,,,,*76
$GPGST,215622.00,,177.31,176.93,014.2,013.30,013.31,013.67*45
$GPRMC,215622.00,A,3919.81594,N,08206.08444,W,000.0,000.0,050314,07.2,W,A*00
$PTNLRTF,V,A,338198,05,3,3919.81594,N,08206.08444,W,00222,+000.000,+000.000,+000.000,0,1*5F
$PTNLRBA,1,1*57
$GPZDA,215623.00,05,03,2014,,*66
$GPGGA,215623.00,3919.81594,N,08206.08446,W,1,05,1.64,00222,M,-033,M,,*57
$GPGLL,3919.81594,N,08206.08446,W,215623.00,A,A*7B
$GPVTG,000.0,T,007.2,M,000.0,N,000.0,K,A*26
$GPGSA,A,3,31,32,20,23,16,,,,,,,,7.63,1.64,7.45*02
$GPGSV,2,1,06,31,47,056,36,32,38,209,34,20,39,259,30,23,38,311,38*7A
$GPGSV,2,2,06,16,54,202,33,30,37,276,29,,,,,,,,*76
$GPGST,215623.00,,184.74,184.37,014.3,013.58,013.59,013.94*47
$GPRMC,215623.00,A,3919.81594,N,08206.08446,W,000.0,000.0,050314,07.2,W,A*03
$PTNLRTF,V,A,338200,05,3,3919.81594,N,08206.08446,W,00222,+000.000,+000.000,+000.000,0,1*5F
$PTNLRBA,1,1*57
$GPZDA,215625.00,05,03,2014,,*60
$GPGGA,215625.00,3919.81592,N,08206.08448,W,1,05,1.64,00222,M,-033,M,,*59
$GPGLL,3919.81592,N,08206.08448,W,215625.00,A,A*75
$GPVTG,000.0,T,007.2,M,000.0,N,000.0,K,A*26
$GPGSA,A,3,31,32,20,23,16,,,,,,,,7.62,1.64,7.44*02
$GPGSV,2,1,06,31,47,056,36,32,38,209,34,20,39,259,29,23,38,311,38*72
$GPGSV,2,2,06,16,54,202,33,30,37,276,28,,,,,,,,*77
$GPGST,215625.00,,182.16,181.79,014.7,013.48,013.50,013.85*40
$GPRMC,215625.00,A,3919.81592,N,08206.08448,W,000.0,000.0,050314,07.2,W,A*0D
$PTNLRTF,V,A,338201,05,3,3919.81592,N,08206.08448,W,00222,+000.000,+000.000,+000.000,0,1*56
$PTNLRBA,1,1*57
$GPZDA,215626.00,05,03,2014,,*63
$GPGGA,215626.00,3919.81593,N,08206.08452,W,1,05,1.64,00222,M,-033,M,,*50
$GPGLL,3919.81593,N,08206.08452,W,215626.00,A,A*7C
$GPVTG,000.0,T,007.2,M,000.0,N,000.0,K,A*26
$GPGSA,A,3,31,32,20,23,16,,,,,,,,7.61,1.64,7.43*06
$GPGSV,2,1,06,31,47,056,36,32,38,209,33,20,39,259,31,23,38,311,38*7C
$GPGSV,2,2,06,16,54,202,33,30,37,276,29,,,,,,,,*76
$GPGST,215626.00,,180.53,180.16,014.8,013.42,013.44,013.79*4B
$GPRMC,215626.00,A,3919.81593,N,08206.08452,W,000.0,000.0,050314,07.2,W,A*04
$PTNLRTF,V,A,338202,05,3,3919.81593,N,08206.08452,W,00222,+000.000,+000.000,+000.000,0,1*5F
$PTNLRBA,1,1*57
$GPZDA,215628.00,05,03,2014,,*6D
$GPGGA,215628.00,3919.81592,N,08206.08453,W,1,05,1.64,00222,M,-033,M,,*5E
$GPGLL,3919.81592,N,08206.08453,W,215628.00,A,A*72
$GPVTG,000.0,T,007.2,M,000.0,N,000.0,K,A*26
$GPGSA,A,3,31,32,20,23,16,,,,,,,,7.59,1.64,7.41*0F
$GPGSV,2,1,06,31,47,056,35,32,38,209,33,20,39,259,30,23,38,311,38*7E
$GPGSV,2,2,06,16,54,202,33,30,37,276,28,,,,,,,,*77
$GPGST,215628.00,,180.48,180.12,015.2,013.42,013.43,013.78*46
$GPRMC,215628.00,A,3919.81592,N,08206.08453,W,000.0,000.0,050314,07.2,W,A*0A
$PTNLRTF,V,A,338204,05,3,3919.81592,N,08206.08453,W,00222,+000.000,+000.000,+000.000,0,1*59
$PTNLRBA,1,1*57
$GPZDA,215629.00,05,03,2014,,*6C
$GPGGA,215629.00,3919.81592,N,08206.08452,W,1,05,1.64,00222,M,-033,M,,*5E
$GPGLL,3919.81592,N,08206.08452,W,215629.00,A,A*72
$GPVTG,000.0,T,007.2,M,000.0,N,000.0,K,A*26
$GPGSA,A,3,31,32,20,23,16,,,,,,,,7.58,1.64,7.40*0F
$GPGSV,2,1,06,31,47,056,36,32,38,209,33,20,39,259,31,23,38,311,38*7C
$GPGSV,2,2,06,16,54,202,33,30,37,276,30,,,,,,,,*7E
$GPGST,215629.00,,181.84,181.48,015.6,013.47,013.48,013.83*46
$GPRMC,215629.00,A,3919.81592,N,08206.08452,W,000.0,000.0,050314,07.2,W,A*0A
$PTNLRTF,V,A,338205,05,3,3919.81592,N,08206.08452,W,00222,+000.000,+000.000,+000.000,0,1*59
$PTNLRBA,1,1*57
$GPZDA,215630.00,05,03,2014,,*64
$GPGGA,215630.00,3919.81592,N,08206.08456,W,1,05,1.64,00222,M,-033,M,,*52
$GPGLL,3919.81592,N,08206.08456,W,215630.00,A,A*7E
$GPVTG,000.0,T,007.2,M,000.0,N,000.0,K,A*26
$GPGSA,A,3,31,32,20,23,16,,,,,,,,7.57,1.63,7.39*09
$GPGSV,2,1,06,31,47,056,36,32,38,209,34,20,38,259,30,23,39,311,38*7A
$GPGSV,2,2,06,16,54,202,33,30,37,277,28,,,,,,,,*76
$GPGST,215630.00,,187.89,187.55,015.9,013.70,013.71,014.05*47
$GPRMC,215630.00,A,3919.81592,N,08206.08456,W,000.0,000.0,050314,07.2,W,A*06
$PTNLRTF,V,A,338207,05,3,3919.81592,N,08206.08456,W,00222,+000.000,+000.000,+000.000,0,1*5F
$PTNLRBA,1,1*57
$GPZDA,215632.00,05,03,2014,,*66
$GPGGA,215632.00,3919.81590,N,08206.08462,W,1,05,1.63,00222,M,-033,M,,*52
$GPGLL,3919.81590,N,08206.08462,W,215632.00,A,A*79
$GPVTG,000.0,T,007.2,M,000.0,N,000.0,K,A*26
$GPGSA,A,3,31,32,20,23,16,,,,,,,,7.56,1.63,7.38*09
$GPGSV,2,1,06,31,47,056,36,32,38,209,33,20,38,259,29,23,39,311,38*75
$GPGSV,2,2,06,16,54,202,33,30,37,277,28,,,,,,,,*76
$GPGST,215632.00,,190.42,190.08,016.3,013.79,013.80,014.14*44
$GPRMC,215632.00,A,3919.81590,N,08206.08462,W,000.0,000.0,050314,07.2,W,A*01
$PTNLRTF,V,A,338208,05,3,3919.81590,N,08206.08462,W,00222,+000.000,+000.000,+000.000,0,1*55
$PTNLRBA,1,1*57
$GPZDA,215633.00,05,03,2014,,*67
$GPGGA,215633.00,3919.81590,N,08206.08466,W,1,05,1.63,00222,M,-033,M,,*57
$GPGLL,3919.81590,N,08206.08466,W,215633.00,A,A*7C
$GPVTG,000.0,T,007.2,M,000.0,N,000.0,K,A*26
$GPGSA,A,3,31,32,20,23,16,,,,,,,,7.55,1.63,7.37*05
$GPGSV,2,1,06,31,47,056,36,32,38,209,34,20,38,259,30,23,39,311,38*7A
$GPGSV,2,2,06,16,54,202,33,30,37,277,28,,,,,,,,*76
$GPGST,215633.00,,189.51,189.17,016.4,013.75,013.77,014.11*4F
$GPRMC,215633.00,A,3919.81590,N,08206.08466,W,000.0,000.0,050314,07.2,W,A*04
$PTNLRTF,V,A,338209,05,3,3919.81590,N,08206.08466,W,00222,+000.000,+000.000,+000.000,0,1*50
$PTNLRBA,1,1*57
$GPZDA,215635.00,05,03,2014,,*61
$GPGGA,215635.00,3919.81590,N,08206.08465,W,1,05,1.63,00222,M,-033,M,,*52
$GPGLL,3919.81590,N,08206.08465,W,215635.00,A,A*79
$GPVTG,000.0,T,007.2,M,000.0,N,000.0,K,A*26
$GPGSA,A,3,31,32,20,23,16,,,,,,,,7.53,1.63,7.35*01
$GPGSV,2,1,06,31,47,056,36,32,38,209,34,20,38,259,29,23,39,311,38*72
$GPGSV,2,2,06,16,54,202,33,30,37,277,27,,,,,,,,*79
$GPGST,215635.00,,193.00,192.67,017.0,013.88,013.89,014.23*4C
$GPRMC,215635.00,A,3919.81590,N,08206.08465,W,000.0,000.0,050314,07.2,W,A*01
$PTNLRTF,V,A,338211,05,3,3919.81590,N,08206.08465,W,00222,+000.000,+000.000,+000.000,0,1*5A
$PTNLRBA,1,1*57
$GPZDA,215636.00,05,03,2014,,*62
$GPGGA,215636.00,3919.81590,N,08206.08464,W,1,05,1.63,00222,M,-033,M,,*50
$GPGLL,3919.81590,N,08206.08464,W,215636.00,A,A*7B
$GPVTG,000.0,T,007.2,M,000.0,N,000.0,K,A*26
$GPGSA,A,3,31,32,20,23,16,,,,,,,,7.53,1.63,7.35*01
$GPGSV,2,1,06,31,47,056,36,32,38,209,34,20,38,259,29,23,39,311,38*72
$GPGSV,2,2,06,16,54,202,34,30,37,277,28,,,,,,,,*71
$GPGST,215636.00,,196.02,195.69,017.3,013.99,014.00,014.34*42
$GPRMC,215636.00,A,3919.81590,N,08206.08464,W,000.0,000.0,050314,07.2,W,A*03
$PTNLRTF,V,A,338212,05,3,3919.81590,N,08206.08464,W,00222,+000.000,+000.000,+000.000,0,1*58
$PTNLRBA,1,1*57
$GPZDA,215637.00,05,03,2014,,*63
$GPGGA,215637.00,3919.81588,N,08206.08464,W,1,05,1.63,00222,M,-033,M,,*58
$GPGLL,3919.81588,N,08206.08464,W,215637.00,A,A*73
$GPVTG,000.0,T,007.2,M,000.0,N,000.0,K,A*26
$GPGSA,A,3,31,32,20,23,16,,,,,,,,7.51,1.63,7.33*05
$GPGSV,2,1,06,31,47,056,36,32,38,209,34,20,38,259,29,23,39,311,38*72
$GPGSV,2,2,06,16,54,202,33,30,37,277,28,,,,,,,,*76
$GPGST,215637.00,,204.94,204.62,017.6,014.31,014.31,014.64*43
$GPRMC,215637.00,A,3919.81588,N,08206.08464,W,000.0,000.0,050314,07.2,W,A*0B
$PTNLRTF,V,A,338214,05,3,3919.81588,N,08206.08464,W,00222,+000.000,+000.000,+000.000,0,1*57
$PTNLRBA,1,1*57
$GPZDA,215639.00,05,03,2014,,*6D
$GPGGA,215639.00,3919.81587,N,08206.08467,W,1,05,1.63,00222,M,-033,M,,*5A
$GPGLL,3919.81587,N,08206.08467,W,215639.00,A,A*71
$GPVTG,000.0,T,007.2,M,000.0,N,000.0,K,A*26
$GPGSA,A,3,31,32,20,23,16,,,,,,,,7.50,1.63,7.32*05
$GPGSV,2,1,06,31,47,056,36,32,38,209,33,20,38,259,29,23,39,311,38*75
$GPGSV,2,2,06,16,54,202,33,30,37,277,28,,,,,,,,*76
$GPGST,215639.00,,198.59,198.27,018.2,014.08,014.09,014.42*43
$GPRMC,215639.00,A,3919.81587,N,08206.08467,W,000.0,000.0,050314,07.2,W,A*09
$PTNLRTF,V,A,338215,05,3,3919.81587,N,08206.08467,W,00222,+000.000,+000.000,+000.000,0,1*5A
$PTNLRBA,1,1*57
$GPZDA,215640.00,05,03,2014,,*63
$GPGGA,215640.00,3919.81587,N,08206.08471,W,1,05,1.63,00223,M,-033,M,,*52
$GPGLL,3919.81587,N,08206.08471,W,215640.00,A,A*78
$GPVTG,000.0,T,007.2,M,000.0,N,000.0,K,A*26
$GPGSA,A,3,31,32,20,23,16,,,,,,,,7.49,1.63,7.31*0E
$GPGSV,2,1,06,31,47,056,36,32,38,209,33,20,38,259,29,23,39,311,38*75
$GPGSV,2,2,06,16,54,202,33,30,37,277,28,,,,,,,,*76
$GPGST,215640.00,,195.95,195.63,018.5,013.99,014.00,014.33*4A
$GPRMC,215640.00,A,3919.81587,N,08206.08471,W,000.0,000.0,050314,07.2,W,A*00
$PTNLRTF,V,A,338216,05,3,3919.81587,N,08206.08471,W,00223,+000.000,+000.000,+000.000,0,1*5F
$PTNLRBA,1,1*57
$GPZDA,215641.00,05,03,2014,,*62
$GPGGA,215641.00,3919.81586,N,08206.08472,W,1,05,1.63,00223,M,-033,M,,*51
$GPGLL,3919.81586,N,08206.08472,W,215641.00,A,A*7B
$GPVTG,000.0,T,007.2,M,000.0,N,000.0,K,A*26
$GPGSA,A,3,31,32,20,23,16,,,,,,,,7.48,1.63,7.30*0E
$GPGSV,2,1,06,31,47,056,36,32,38,209,33,20,38,259,27,23,39,311,38*7B
$GPGSV,2,2,06,16,54,202,33,30,37,277,27,,,,,,,,*79
$GPGST,215641.00,,198.94,198.63,018.5,014.09,014.10,014.44*45
$GPRMC,215641.00,A,3919.81586,N,08206.08472,W,000.0,000.0,050314,07.2,W,A*03
$PTNLRTF,V,A,338218,05,3,3919.81586,N,08206.08472,W,00223,+000.000,+000.000,+000.000,0,1*53
$PTNLRBA,1,1*57
$GPZDA,215643.00,05,03,2014,,*60
$GPGGA,215643.00,3919.81585,N,08206.08478,W,1,05,1.62,00223,M,-033,M,,*5B
$GPGLL,3919.81585,N,08206.08478,W,215643.00,A,A*70
$GPVTG,000.0,T,007.2,M,000.0,N,000.0,K,A*26
$GPGSA,A,3,31,32,20,23,16,,,,,,,,7.47,1.62,7.29*08
$GPGSV,2,1,06,31,47,056,37,32,38,209,33,20,38,259,29,23,39,311,38*74
$GPGSV,2,2,06,16,54,202,33,30,37,277,28,,,,,,,,*76
$GPGST,215643.00,,192.31,192.00,018.8,013.86,013.87,014.20*4B
$GPRMC,215643.00,A,3919.81585,N,08206.08478,W,000.0,000.0,050314,07.2,W,A*08
$PTNLRTF,V,A,338219,05,3,3919.81585,N,08206.08478,W,00223,+000.000,+000.000,+000.000,0,1*5B
$PTNLRBA,1,1*57
$GPZDA,215644.00,05,03,2014,,*67
$GPGGA,215644.00,3919.81585,N,08206.08477,W,1,05,1.62,00223,M,-033,M,,*53
$GPGLL,3919.81585,N,08206.08477,W,215644.00,A,A*78
$GPVTG,000.0,T,007.2,M,000.0,N,000.0,K,A*26
$GPGSA,A,3,31,32,20,23,16,,,,,,,,7.46,1.62,7.28*08
$GPGSV,2,1,06,31,47,056,37,32,38,209,33,20,38,259,29,23,39,311,38*74
$GPGSV,2,2,06,16,54,202,33,30,37,277,29,,,,,,,,*77
$GPGST,215644.00,,185.71,185.41,019.1,013.62,013.63,013.97*4E
$GPRMC,215644.00,A,3919.81585,N,08206.08477,W,000.0,000.0,050314,07.2,W,A*00
$PTNLRTF,V,A,338220,05,3,3919.81585,N,08206.08477,W,00223,+000.000,+000.000,+000.000,0,1*5E
$PTNLRBA,1,1*57
$GPZDA,215646.00,05,03,2014,,*65
$GPGGA,215646.00,3919.81586,N,08206.08493,W,1,05,1.62,00223,M,-033,M,,*58
$GPGLL,3919.81586,N,08206.08493,W,215646.00,A,A*73
$GPVTG,278.5,T,285.7,M,000.1,N,000.2,K,A*20
$GPGSA,A,3,31,32,20,23,16,,,,,,,,7.44,1.62,7.26*04
$GPGSV,2,1,06,31,47,056,36,32,38,209,32,20,38,259,27,23,39,311,38*7A
$GPGSV,2,2,06,16,54,202,33,30,37,277,26,,,,,,,,*78
$GPGST,215646.00,,190.40,189.88,032.3,013.79,013.79,014.13*42
$GPRMC,215646.00,A,3919.81586,N,08206.08493,W,000.1,278.5,050314,07.2,W,A*02
$PTNLRTF,V,A,338222,05,3,3919.81586,N,08206.08493,W,00223,-000.045,+000.007,+000.001,0,1*54
$PTNLRBA,1,1*57
$GPZDA,215647.00,05,03,2014,,*64
$GPGGA,215647.00,3919.81587,N,08206.08494,W,1,05,1.62,00223,M,-033,M,,*5F
$GPGLL,3919.81587,N,08206.08494,W,215647.00,A,A*74
$GPVTG,000.0,T,007.2,M,000.0,N,000.0,K,A*26
$GPGSA,A,3,31,32,20,23,16,,,,,,,,7.44,1.62,7.26*04
$GPGSV,2,1,06,31,47,056,37,32,38,209,33,20,38,259,29,23,39,311,38*74
$GPGSV,2,2,06,16,54,202,33,30,37,277,27,,,,,,,,*79
$GPGST,215647.00,,193.47,193.01,031.4,013.90,013.90,014.24*4D
$GPRMC,215647.00,A,3919.81587,N,08206.08494,W,000.0,000.0,050314,07.2,W,A*0C
$PTNLRTF,V,A,338223,05,3,3919.81587,N,08206.08494,W,00223,+000.000,+000.000,+000.000,0,1*52
$PTNLRBA,1,1*57
$GPZDA,215648.00,05,03,2014,,*6B
$GPGGA,215648.00,3919.81587,N,08206.08500,W,1,05,1.62,00223,M,-033,M,,*5C
$GPGLL,3919.81587,N,08206.08500,W,215648.00,A,A*77
$GPVTG,000.0,T,007.2,M,000.0,N,000.0,K,A*26
$GPGSA,A,3,31,32,20,23,16,,,,,,,,7.42,1.62,7.24*00
$GPGSV,2,1,06,31,47,056,37,32,38,209,33,20,38,259,29,23,39,311,38*74
$GPGSV,2,2,06,16,54,202,33,30,37,277,27,,,,,,,,*79
$GPGST,215648.00,,200.80,200.34,031.5,014.16,014.17,014.49*44
$GPRMC,215648.00,A,3919.81587,N,08206.08500,W,000.0,000.0,050314,07.2,W,A*0F
$PTNLRTF,V,A,338225,05,3,3919.81587,N,08206.08500,W,00223,+000.000,+000.000,+000.000,0,1*58
$PTNLRBA,1,1*57
$GPZDA,215650.00,05,03,2014,,*62
$GPGGA,215650.00,3919.81590,N,08206.08509,W,1,05,1.62,00223,M,-033,M,,*5A
$GPGLL,3919.81590,N,08206.08509,W,215650.00,A,A*71
$GPVTG,000.0,T,007.2,M,000.0,N,000.0,K,A*26
$GPGSA,A,3,31,32,20,23,16,,,,,,,,7.41,1.62,7.23*04
$GPGSV,2,1,06,31,47,056,37,32,38,209,33,20,38,259,29,23,39,311,38*74
$GPGSV,2,2,06,16,54,202,33,30,37,277,28,,,,,,,,*76
$GPGST,215650.00,,203.01,202.55,031.8,014.24,014.24,014.57*41
$GPRMC,215650.00,A,3919.81590,N,08206.08509,W,000.0,000.0,050314,07.2,W,A*09
$PTNLRTF,V,A,338226,05,3,3919.81590,N,08206.08509,W,00223,+000.000,+000.000,+000.000,0,1*54
$PTNLRBA,1,1*57
$GPZDA,215651.00,05,03,2014,,*63
$GPGGA,215651.00,3919.81591,N,08206.08512,W,1,05,1.62,00223,M,-033,M,,*50
$GPGLL,3919.81591,N,08206.08512,W,215651.00,A,A*7B
$GPVTG,000.0,T,007.2,M,000.0,N,000.0,K,A*26
$GPGSA,A,3,31,32,20,23,16,,,,,,,,7.40,1.62,7.22*04
$GPGSV,2,1,06,31,47,056,37,32,38,209,33,20,38,259,29,23,39,311,39*75
$GPGSV,2,2,06,16,54,202,33,30,37,277,26,,,,,,,,*78
$GPGST,215651.00,,211.23,210.78,031.9,014.52,014.53,014.85*40
$GPRMC,215651.00,A,3919.81591,N,08206.08512,W,000.0,000.0,050314,07.2,W,A*03
$PTNLRTF,V,A,338227,05,3,3919.81591,N,08206.08512,W,00223,+000.000,+000.000,+000.000,0,1*5E
$PTNLRBA,1,1*57
$GPZDA,215653.00,05,03,2014,,*61
$GPGGA,215653.00,3919.81587,N,08206.08543,W,1,04,4.30,00223,M,-033,M,,*52
$GPGLL,3919.81587,N,08206.08543,W,215653.00,A,A*7A
$GPVTG,249.3,T,256.5,M,000.5,N,001.0,K,A*2F
$GPGSA,A,3,32,20,23,16,,,,,,,,,9.74,4.30,8.74*01
$GPGSV,2,1,06,31,47,056,36,32,38,209,33,20,38,259,29,23,39,311,39*74
$GPGSV,2,2,06,16,54,202,33,30,37,277,27,,,,,,,,*79
$GPGST,215653.00,,202.30,201.86,023.0,014.21,014.22,014.54*47
$GPRMC,215653.00,A,3919.81587,N,08206.08543,W,000.5,249.3,050314,07.2,W,A*0B
$PTNLRTF,V,A,338229,04,3,3919.81587,N,08206.08543,W,00223,-000.261,-000.099,-000.014,0,1*54
$PTNLRBA,1,1*57
$GPZDA,215654.00,05,03,2014,,*66
$GPGGA,215654.00,3919.81580,N,08206.08549,W,1,04,4.30,00223,M,-033,M,,*58
$GPGLL,3919.81580,N,08206.08549,W,215654.00,A,A*70
$GPVTG,201.5,T,208.7,M,000.3,N,000.5,K,A*2E
$GPGSA,A,3,32,20,23,16,,,,,,,,,9.73,4.30,8.73*01
$GPGSV,2,1,06,31,47,056,36,32,38,209,33,20,38,259,30,23,39,311,38*7D
$GPGSV,2,2,06,16,54,202,33,30,37,277,27,,,,,,,,*79
$GPGST,215654.00,,208.55,207.91,007.8,014.42,014.44,014.74*40
$GPRMC,215654.00,A,3919.81580,N,08206.08549,W,000.3,201.5,050314,07.2,W,A*0D
$PTNLRTF,V,A,338230,04,3,3919.81580,N,08206.08549,W,00223,-000.052,-000.133,+000.014,0,1*54
$PTNLRBA,1,1*57
$GPZDA,215655.00,05,03,2014,,*67
$GPGGA,215655.00,3919.81582,N,08206.08532,W,1,05,1.61,00223,M,-033,M,,*57
$GPGLL,3919.81582,N,08206.08532,W,215655.00,A,A*7F
$GPVTG,106.9,T,114.1,M,000.3,N,000.5,K,A*2E
$GPGSA,A,3,31,32,20,23,16,,,,,,,,7.36,1.61,7.18*0F
$GPGSV,2,1,06,31,47,056,36,32,38,209,33,20,38,259,29,23,39,311,38*75
$GPGSV,2,2,06,16,54,202,33,30,37,277,27,,,,,,,,*79
$GPGST,215655.00,,212.14,211.58,014.4,014.55,014.56,014.87*4A
$GPRMC,215655.00,A,3919.81582,N,08206.08532,W,000.3,106.9,050314,07.2,W,A*0A
$PTNLRTF,V,A,338232,05,3,3919.81582,N,08206.08532,W,00223,+000.142,-000.043,-000.001,0,1*5B
$PTNLRBA,1,1*57
$GPZDA,215657.00,05,03,2014,,*65
$GPGGA,215657.00,3919.81589,N,08206.08548,W,1,05,1.61,00223,M,-033,M,,*53
$GPGLL,3919.81589,N,08206.08548,W,215657.00,A,A*7B
$GPVTG,000.0,T,007.2,M,000.0,N,000.0,K,A*26
$GPGSA,A,3,31,32,20,23,16,,,,,,,,7.36,1.61,7.18*0F
$GPGSV,2,1,06,31,47,056,36,32,38,209,33,20,38,259,28,23,39,311,38*74
$GPGSV,2,2,06,16,54,202,33,30,37,277,27,,,,,,,,*79
$GPGST,215657.00,,201.64,201.16,017.2,014.18,014.20,014.51*40
$GPRMC,215657.00,A,3919.81589,N,08206.08548,W,000.0,000.0,050314,07.2,W,A*03
$PTNLRTF,V,A,338233,05,3,3919.81589,N,08206.08548,W,00223,+000.000,+000.000,+000.000,0,1*5D
$PTNLRBA,1,1*57
$GPZDA,215658.00,05,03,2014,,*6A
$GPGGA,215658.00,3919.81591,N,08206.08553,W,1,05,1.61,00223,M,-033,M,,*5F
$GPGLL,3919.81591,N,08206.08553,W,215658.00,A,A*77
$GPVTG,000.0,T,007.2,M,000.0,N,000.0,K,A*26
$GPGSA,A,3,31,32,20,23,16,,,,,,,,7.35,1.61,7.17*03
$GPGSV,2,1,06,31,47,056,36,32,38,209,33,20,38,259,27,23,39,311,38*7B
$GPGSV,2,2,06,16,54,202,33,30,37,277,28,,,,,,,,*76
$GPGST,215658.00,,206.99,206.51,017.4,014.37,014.39,014.70*4E
$GPRMC,215658.00,A,3919.81591,N,08206.08553,W,000.0,000.0,050314,07.2,W,A*0F
$PTNLRTF,V,A,338234,05,3,3919.81591,N,08206.08553,W,00223,+000.000,+000.000,+000.000,0,1*59
$PTNLRBA,1,1*57
$GPZDA,215659.00,05,03,2014,,*6B
$GPGGA,215659.00,3919.81593,N,08206.08552,W,1,05,1.61,00223,M,-033,M,,*5D
$GPGLL,3919.81593,N,08206.08552,W,215659.00,A,A*75
$GPVTG,000.0,T,007.2,M,000.0,N,000.0,K,A*26
$GPGSA,A,3,31,32,20,23,16,,,,,,,,7.33,1.61,7.15*07
$GPGSV,2,1,06,31,47,056,36,32,38,209,32,20,38,259,29,23,39,311,38*74
$GPGSV,2,2,06,16,54,202,33,30,37,277,27,,,,,,,,*79
$GPGST,215659.00,,210.53,210.06,017.8,014.49,014.51,014.82*4D
$GPRMC,215659.00,A,3919.81593,N,08206.08552,W,000.0,000.0,050314,07.2,W,A*0D
$PTNLRTF,V,A,338236,05,3,3919.81593,N,08206.08552,W,00223,+000.000,+000.000,+000.000,0,1*58
$PTNLRBA,1,1*57
$GPZDA,215701.00,05,03,2014,,*67
$GPGGA,215701.00,3919.81596,N,08206.08558,W,1,05,1.61,00223,M,-033,M,,*5E
$GPGLL,3919.81596,N,08206.08558,W,215701.00,A,A*76
$GPVTG,000.0,T,007.2,M,000.0,N,000.0,K,A*26
$GPGSA,A,3,31,32,20,23,16,,,,,,,,7.32,1.61,7.14*07
$GPGSV,2,1,06,31,47,056,36,32,38,209,32,20,38,259,27,23,39,311,38*7A
$GPGSV,2,2,06,16,54,202,33,30,37,277,28,,,,,,,,*76
$GPGST,215701.00,,203.11,202.65,018.3,014.24,014.25,014.56*46
$GPRMC,215701.00,A,3919.81596,N,08206.08558,W,000.0,000.0,050314,07.2,W,A*0E
$PTNLRTF,V,A,338237,05,3,3919.81596,N,08206.08558,W,00223,+000.000,+000.000,+000.000,0,1*56
$PTNLRBA,1,1*57
$GPZDA,215702.00,05,03,2014,,*64
$GPGGA,215702.00,3919.81598,N,08206.08556,W,1,05,1.61,00223,M,-033,M,,*5D
$GPGLL,3919.81598,N,08206.08556,W,215702.00,A,A*75
$GPVTG,000.0,T,007.2,M,000.0,N,000.0,K,A*26
$GPGSA,A,3,31,32,20,23,16,,,,,,,,7.32,1.61,7.14*07
$GPGSV,2,1,06,31,47,056,36,32,38,209,32,20,38,259,28,23,39,311,38*75
$GPGSV,2,2,06,16,54,202,33,30,37,277,28,,,,,,,,*76
$GPGST,215702.00,,209.53,209.08,018.6,014.46,014.47,014.78*40
$GPRMC,215702.00,A,3919.81598,N,08206.08556,W,000.0,000.0,050314,07.2,W,A*0D
$PTNLRTF,V,A,338238,05,3,3919.81598,N,08206.08556,W,00223,+000.000,+000.000,+000.000,0,1*59
$PTNLRBA,1,1*57
$GPZDA,215704.00,05,03,2014,,*62
$GPGGA,215704.00,3919.81601,N,08206.08555,W,1,05,1.61,00223,M,-033,M,,*5B
$GPGLL,3919.81601,N,08206.08555,W,215704.00,A,A*73
$GPVTG,000.0,T,007.2,M,000.0,N,000.0,K,A*26
$GPGSA,A,3,31,32,20,23,16,,,,,,,,7.30,1.61,7.12*03
$GPGSV,2,1,06,31,46,056,36,32,38,209,31,20,38,258,29,23,39,311,39*76
$GPGSV,2,2,06,16,55,202,33,30,37,277,26,,,,,,,,*79
$GPGST,215704.00,,209.70,209.26,019.1,014.47,014.48,014.79*42
$GPRMC,215704.00,A,3919.81601,N,08206.08555,W,000.0,000.0,050314,07.2,W,A*0B
$PTNLRTF,V,A,338240,05,3,3919.81601,N,08206.08555,W,00223,+000.000,+000.000,+000.000,0,1*56
$PTNLRBA,1,1*57
$GPZDA,215705.00,05,03,2014,,*63
$GPGGA,215705.00,3919.81603,N,08206.08571,W,1,04,4.30,00223,M,-033,M,,*5E
$GPGLL,3919.81603,N,08206.08571,W,215705.00,A,A*76
$GPVTG,283.9,T,291.1,M,000.3,N,000.5,K,A*2E
$GPGSA,A,3,32,20,23,16,,,,,,,,,9.67,4.30,8.66*00
$GPGSV,2,1,06,31,46,056,36,32,38,209,32,20,38,258,28,23,39,311,38*75
$GPGSV,2,2,06,16,55,202,33,30,37,277,27,,,,,,,,*78
$GPGST,215705.00,,201.66,201.19,009.0,014.18,014.20,014.51*46
$GPRMC,215705.00,A,3919.81603,N,08206.08571,W,000.3,283.9,050314,07.2,W,A*0D
$PTNLRTF,V,A,338241,04,3,3919.81603,N,08206.08571,W,00223,-000.145,+000.036,+000.001,0,1*50
$PTNLRBA,1,1*57
$GPZDA,215706.00,05,03,2014,,*60
$GPGGA,215706.00,3919.81601,N,08206.08604,W,1,04,4.30,00224,M,-033,M,,*59
$GPGLL,3919.81601,N,08206.08604,W,215706.00,A,A*76
$GPVTG,265.6,T,272.8,M,000.5,N,001.0,K,A*2F
$GPGSA,A,3,31,32,20,23,16,,,,,,,,7.28,1.61,7.10*08
$GPGSV,2,1,06,31,46,056,36,32,38,209,32,20,38,258,26,23,39,311,39*7A
$GPGSV,2,2,06,16,55,202,33,30,37,277,27,,,,,,,,*78
$GPGST,215706.00,,215.66,214.88,001.7,014.66,014.69,014.97*4D
$GPRMC,215706.00,A,3919.81601,N,08206.08604,W,000.5,265.6,050314,07.2,W,A*0C
$PTNLRTF,V,A,338243,05,3,3919.81601,N,08206.08604,W,00224,-000.279,-000.022,-000.018,0,1*56
$PTNLRBA,1,1*57
$GPZDA,215708.00,05,03,2014,,*6E
$GPGGA,215708.00,3919.81607,N,08206.08587,W,1,05,1.60,00224,M,-033,M,,*58
$GPGLL,3919.81607,N,08206.08587,W,215708.00,A,A*76
$GPVTG,000.0,T,007.2,M,000.0,N,000.0,K,A*26
$GPGSA,A,3,31,32,20,23,16,,,,,,,,7.27,1.60,7.09*0E
$GPGSV,2,1,06,31,46,056,36,32,38,209,31,20,38,258,27,23,39,311,38*79
$GPGSV,2,2,06,16,55,202,33,30,37,277,28,,,,,,,,*77
$GPGST,215708.00,,219.46,218.84,004.8,014.79,014.81,015.10*41
$GPRMC,215708.00,A,3919.81607,N,08206.08587,W,000.0,000.0,050314,07.2,W,A*0E
$PTNLRTF,V,A,338244,05,3,3919.81607,N,08206.08587,W,00224,+000.000,+000.000,+000.000,0,1*5C
$PTNLRBA,1,1*57
$GPZDA,215709.00,05,03,2014,,*6F
$GPGGA,215709.00,3919.81611,N,08206.08581,W,1,05,1.60,00224,M,-033,M,,*58
$GPGLL,3919.81611,N,08206.08581,W,215709.00,A,A*76
$GPVTG,000.0,T,007.2,M,000.0,N,000.0,K,A*26
$GPGSA,A,3,31,32,20,23,16,,,,,,,,7.26,1.60,7.08*0E
$GPGSV,2,1,06,31,46,056,36,32,38,209,32,20,38,258,28,23,39,311,38*75
$GPGSV,2,2,06,16,55,202,33,30,37,277,26,,,,,,,,*79
$GPGST,215709.00,,223.72,223.12,005.1,014.94,014.96,015.25*42
$GPRMC,215709.00,A,3919.81611,N,08206.08581,W,000.0,000.0,050314,07.2,W,A*0E
$PTNLRTF,V,A,338245,05,3,3919.81611,N,08206.08581,W,00224,+000.000,+000.000,+000.000,0,1*5C
$PTNLRBA,1,1*57
$GPZDA,215711.00,05,03,2014,,*66
$GPGGA,215711.00,3919.81613,N,08206.08586,W,1,05,1.60,00224,M,-033,M,,*54
$GPGLL,3919.81613,N,08206.08586,W,215711.00,A,A*7A
$GPVTG,000.0,T,007.2,M,000.0,N,000.0,K,A*26
$GPGSA,A,3,31,32,20,23,16,,,,,,,,7.25,1.60,7.07*02
$GPGSV,2,1,06,31,46,056,36,32,38,209,31,20,38,258,27,23,39,311,38*79
$GPGSV,2,2,06,16,55,202,33,30,37,277,26,,,,,,,,*79
$GPGST,215711.00,,227.68,227.12,005.6,015.07,015.09,015.38*47
$GPRMC,215711.00,A,3919.81613,N,08206.08586,W,000.0,000.0,050314,07.2,W,A*02
$PTNLRTF,V,A,338247,05,3,3919.81613,N,08206.08586,W,00224,+000.000,+000.000,+000.000,0,1*5B
$PTNLRBA,1,1*57
$GPZDA,215712.00,05,03,2014,,*65
$GPGGA,215712.00,3919.81615,N,08206.08589,W,1,05,1.60,00224,M,-033,M,,*5E
$GPGLL,3919.81615,N,08206.08589,W,215712.00,A,A*70
$GPVTG,000.0,T,007.2,M,000.0,N,000.0,K,A*26
$GPGSA,A,3,31,32,20,23,16,,,,,,,,7.24,1.60,7.06*02
$GPGSV,2,1,06,31,46,056,36,32,38,209,30,20,38,258,27,23,39,311,38*78
$GPGSV,2,2,06,16,55,202,33,30,37,277,27,,,,,,,,*78
$GPGST,215712.00,,232.25,231.70,005.7,015.22,015.24,015.52*4F
$GPRMC,215712.00,A,3919.81615,N,08206.08589,W,000.0,000.0,050314,07.2,W,A*08
$PTNLRTF,V,A,338248,05,3,3919.81615,N,08206.08589,W,00224,+000.000,+000.000,+000.000,0,1*5D
$PTNLRBA,1,1*57
$GPZDA,215713.00,05,03,2014,,*64
$GPGGA,215713.00,3919.81617,N,08206.08586,W,1,05,1.60,00224,M,-033,M,,*52
$GPGLL,3919.81617,N,08206.08586,W,215713.00,A,A*7C
$GPVTG,000.0,T,007.2,M,000.0,N,000.0,K,A*26
$GPGSA,A,3,31,32,20,23,16,,,,,,,,7.23,1.60,7.05*06
$GPGSV,2,1,06,31,46,056,36,32,38,209,30,20,38,258,27,23,39,311,38*78
$GPGSV,2,2,06,16,55,202,34,30,37,277,27,,,,,,,,*7F
$GPGST,215713.00,,232.93,232.40,006.1,015.24,015.26,015.55*45
$GPRMC,215713.00,A,3919.81617,N,08206.08586,W,000.0,000.0,050314,07.2,W,A*04
$PTNLRTF,V,A,338249,05,3,3919.81617,N,08206.08586,W,00224,+000.000,+000.000,+000.000,0,1*51
$PTNLRBA,1,1*57
$GPZDA,215715.00,05,03,2014,,*62
$GPGGA,215715.00,3919.81619,N,08206.08591,W,1,05,1.60,00224,M,-033,M,,*5C
$GPGLL,3919.81619,N,08206.08591,W,215715.00,A,A*72
$GPVTG,000.0,T,007.2,M,000.0,N,000.0,K,A*26
$GPGSA,A,3,31,32,20,23,16,,,,,,,,7.22,1.60,7.04*06
$GPGSV,2,1,06,31,46,056,37,32,38,209,30,20,38,258,27,23,39,311,38*79
$GPGSV,2,2,06,16,55,202,33,30,37,277,28,,,,,,,,*77
$GPGST,215715.00,,256.55,256.05,006.6,016.00,016.02,016.29*47
$GPRMC,215715.00,A,3919.81619,N,08206.08591,W,000.0,000.0,050314,07.2,W,A*0A
$PTNLRTF,V,A,338251,05,3,3919.81619,N,08206.08591,W,00224,+000.000,+000.000,+000.000,0,1*50
$PTNLRBA,1,1*57
$GPZDA,215716.00,05,03,2014,,*61
$GPGGA,215716.00,3919.81619,N,08206.08595,W,1,05,1.60,00224,M,-033,M,,*5B
$GPGLL,3919.81619,N,08206.08595,W,215716.00,A,A*75
$GPVTG,000.0,T,007.2,M,000.0,N,000.0,K,A*26
$GPGSA,A,3,31,32,20,23,16,,,,,,,,7.21,1.60,7.03*02
$GPGSV,2,1,06,31,46,056,36,32,38,209,29,20,38,258,26,23,39,311,38*71
$GPGSV,2,2,06,16,55,202,33,30,37,277,27,,,,,,,,*78
$GPGST,215716.00,,248.90,248.42,007.0,015.76,015.78,016.05*4B
$GPRMC,215716.00,A,3919.81619,N,08206.08595,W,000.0,000.0,050314,07.2,W,A*0D
$PTNLRTF,V,A,338252,05,3,3919.81619,N,08206.08595,W,00224,+000.000,+000.000,+000.000,0,1*57
$PTNLRBA,1,1*57
$GPZDA,215717.00,05,03,2014,,*60
$GPGGA,215717.00,3919.81621,N,08206.08597,W,1,05,1.60,00224,M,-033,M,,*53
$GPGLL,3919.81621,N,08206.08597,W,215717.00,A,A*7D
$GPVTG,000.0,T,007.2,M,000.0,N,000.0,K,A*26
$GPGSA,A,3,31,32,20,23,16,,,,,,,,7.19,1.60,7.01*0B
$GPGSV,2,1,06,31,46,056,36,32,38,209,30,20,38,258,27,23,39,311,38*78
$GPGSV,2,2,06,16,55,202,33,30,37,277,28,,,,,,,,*77
$GPGST,215717.00,,242.20,241.73,007.5,015.55,015.56,015.84*42
$GPRMC,215717.00,A,3919.81621,N,08206.08597,W,000.0,000.0,050314,07.2,W,A*05
$PTNLRTF,V,A,338254,05,3,3919.81621,N,08206.08597,W,00224,+000.000,+000.000,+000.000,0,1*58
$PTNLRBA,1,1*57
$GPZDA,215719.00,05,03,2014,,*6E
$GPGGA,215719.00,3919.81633,N,08206.08580,W,1,05,1.60,00224,M,-033,M,,*58
$GPGLL,3919.81633,N,08206.08580,W,215719.00,A,A*76
$GPVTG,337.8,T,345.0,M,000.2,N,000.4,K,A*28
$GPGSA,A,3,31,32,20,23,16,,,,,,,,7.19,1.60,7.01*0B
$GPGSV,2,1,06,31,46,056,36,32,38,209,30,20,38,258,27,23,39,311,38*78
$GPGSV,2,2,06,16,55,202,33,30,37,277,27,,,,,,,,*78
$GPGST,215719.00,,242.16,241.72,006.7,015.55,015.56,015.84*4B
$GPRMC,215719.00,A,3919.81633,N,08206.08580,W,000.2,337.8,050314,07.2,W,A*03
$PTNLRTF,V,A,338255,05,3,3919.81633,N,08206.08580,W,00224,-000.038,+000.093,-000.005,0,1*58
$PTNLRBA,1,1*57
$GPZDA,215720.00,05,03,2014,,*64
$GPGGA,215720.00,3919.81630,N,08206.08577,W,1,05,1.60,00224,M,-033,M,,*59
$GPGLL,3919.81630,N,08206.08577,W,215720.00,A,A*77
$GPVTG,000.0,T,007.2,M,000.0,N,000.0,K,A*26
$GPGSA,A,3,31,32,20,23,16,,,,,,,,7.18,1.60,7.00*0B
$GPGSV,2,1,06,31,46,056,36,32,38,209,30,20,38,258,27,23,39,311,38*78
$GPGSV,2,2,06,16,55,202,34,30,37,277,28,,,,,,,,*70
$GPGST,215720.00,,237.96,237.53,008.0,015.41,015.43,015.71*4B
$GPRMC,215720.00,A,3919.81630,N,08206.08577,W,000.0,000.0,050314,07.2,W,A*0F
$PTNLRTF,V,A,338256,05,3,3919.81630,N,08206.08577,W,00224,+000.000,+000.000,+000.000,0,1*54
$PTNLRBA,1,1*57
$GPZDA,215721.00,05,03,2014,,*65
$GPGGA,215721.00,3919.81632,N,08206.08582,W,1,05,1.59,00224,M,-033,M,,*5A
$GPGLL,3919.81632,N,08206.08582,W,215721.00,A,A*7E
$GPVTG,000.0,T,007.2,M,000.0,N,000.0,K,A*26
$GPGSA,A,3,31,32,20,23,16,,,,,,,,7.16,1.59,6.98*0F
$GPGSV,2,1,06,31,46,056,36,32,38,209,29,20,38,258,26,23,39,311,38*71
$GPGSV,2,2,06,16,55,202,34,30,37,277,28,,,,,,,,*70
$GPGST,215721.00,,233.60,233.17,008.2,015.27,015.28,015.57*48
$GPRMC,215721.00,A,3919.81632,N,08206.08582,W,000.0,000.0,050314,07.2,W,A*06
$PTNLRTF,V,A,338258,05,3,3919.81632,N,08206.08582,W,00224,+000.000,+000.000,+000.000,0,1*52
$PTNLRBA,1,1*57
$GPZDA,215723.00,05,03,2014,,*67
$GPGGA,215723.00,3919.81632,N,08206.08587,W,1,05,1.59,00224,M,-033,M,,*5D
$GPGLL,3919.81632,N,08206.08587,W,215723.00,A,A*79
$GPVTG,000.0,T,007.2,M,000.0,N,000.0,K,A*26
$GPGSA,A,3,31,32,20,23,16,,,,,,,,7.16,1.59,6.98*0F
$GPGSV,2,1,06,31,46,056,36,32,38,209,30,20,38,258,25,23,39,311,38*7A
$GPGSV,2,2,06,16,55,202,34,30,37,277,27,,,,,,,,*7F
$GPGST,215723.00,,248.65,248.25,009.0,015.76,015.77,016.05*47
$GPRMC,215723.00,A,3919.81632,N,08206.08587,W,000.0,000.0,050314,07.2,W,A*01
$PTNLRTF,V,A,338259,05,3,3919.81632,N,08206.08587,W,00224,+000.000,+000.000,+000.000,0,1*56
$PTNLRBA,1,1*57
$GPZDA,215724.00,05,03,2014,,*60
$GPGGA,215724.00,3919.81633,N,08206.08588,W,1,05,1.59,00224,M,-033,M,,*54
$GPGLL,3919.81633,N,08206.08588,W,215724.00,A,A*70
$GPVTG,000.0,T,007.2,M,000.0,N,000.0,K,A*26
$GPGSA,A,3,31,32,20,23,16,,,,,,,,7.15,1.59,6.97*03
$GPGSV,2,1,06,31,46,056,36,32,38,209,30,20,38,258,26,23,39,311,38*79
$GPGSV,2,2,06,16,55,202,34,30,37,277,26,,,,,,,,*7E
$GPGST,215724.00,,247.07,246.68,009.4,015.71,015.72,016.00*4F
$GPRMC,215724.00,A,3919.81633,N,08206.08588,W,000.0,000.0,050314,07.2,W,A*08
$PTNLRTF,V,A,338261,05,3,3919.81633,N,08206.08588,W,00224,+000.000,+000.000,+000.000,0,1*53
$PTNLRBA,1,1*57
$GPZDA,215726.00,05,03,2014,,*62
$GPGGA,215726.00,3919.81647,N,08206.08595,W,1,04,4.29,00224,M,-033,M,,*5A
$GPGLL,3919.81647,N,08206.08595,W,215726.00,A,A*7D
$GPVTG,130.2,T,137.4,M,000.1,N,000.1,K,A*22
$GPGSA,A,3,32,20,23,16,,,,,,,,,9.55,4.29,8.53*0F
$GPGSV,2,1,06,31,46,056,37,32,38,209,29,20,38,258,28,23,39,311,37*71
$GPGSV,2,2,06,16,55,202,34,30,37,277,27,,,,,,,,*7F
$GPGST,215726.00,,259.26,258.78,002.4,016.09,016.10,016.37*4B
$GPRMC,215726.00,A,3919.81647,N,08206.08595,W,000.1,130.2,050314,07.2,W,A*04
$PTNLRTF,V,A,338262,04,3,3919.81647,N,08206.08595,W,00224,+000.030,-000.025,+000.003,0,1*5F
$PTNLRBA,1,1*57
$GPZDA,215727.00,05,03,2014,,*63
$GPGGA,215727.00,3919.81650,N,08206.08601,W,1,05,1.59,00224,M,-033,M,,*50
$GPGLL,3919.81650,N,08206.08601,W,215727.00,A,A*74
$GPVTG,353.5,T,000.7,M,000.1,N,000.3,K,A*26
$GPGSA,A,3,31,32,20,23,16,,,,,,,,7.13,1.59,6.95*07
$GPGSV,2,1,06,31,46,056,36,32,38,209,28,20,38,258,26,23,39,311,37*7F
$GPGSV,2,2,06,16,55,202,34,30,37,277,26,,,,,,,,*7E
$GPGST,215727.00,,274.24,273.82,001.5,016.55,016.56,016.82*4C
$GPRMC,215727.00,A,3919.81650,N,08206.08601,W,000.1,353.5,050314,07.2,W,A*0D
$PTNLRTF,V,A,338263,05,3,3919.81650,N,08206.08601,W,00224,-000.008,+000.072,-000.011,0,1*5B
$PTNLRBA,1,1*57
$GPZDA,215728.00,05,03,2014,,*6C
$GPGGA,215728.00,3919.81645,N,08206.08612,W,1,05,1.59,00224,M,-033,M,,*59
$GPGLL,3919.81645,N,08206.08612,W,215728.00,A,A*7D
$GPVTG,000.0,T,007.2,M,000.0,N,000.0,K,A*26
$GPGSA,A,3,32,20,23,16,,,,,,,,,9.53,4.29,8.51*0B
$GPGSV,2,1,06,31,46,056,36,32,38,209,28,20,38,258,28,23,39,311,38*7E
$GPGSV,2,2,06,16,55,202,34,30,37,277,27,,,,,,,,*7F
$GPGST,215728.00,,297.17,296.79,000.6,017.23,017.24,017.49*41
$GPRMC,215728.00,A,3919.81645,N,08206.08612,W,000.0,000.0,050314,07.2,W,A*05
$PTNLRTF,V,A,338265,04,3,3919.81645,N,08206.08612,W,00224,+000.000,+000.000,+000.000,0,1*57
$PTNLRBA,1,1*57
$GPZDA,215730.00,05,03,2014,,*65
$GPGGA,215730.00,3919.81652,N,08206.08646,W,1,05,1.59,00224,M,-033,M,,*57
$GPGLL,3919.81652,N,08206.08646,W,215730.00,A,A*73
$GPVTG,283.2,T,290.4,M,000.5,N,000.9,K,A*2B
$GPGSA,A,3,31,32,20,23,16,,,,,,,,7.10,1.59,6.92*03
$GPGSV,2,1,06,31,46,056,36,32,38,209,28,20,38,258,27,23,39,311,38*71
$GPGSV,2,2,06,16,55,202,34,30,37,277,26,,,,,,,,*7E
$GPGST,215730.00,,320.13,319.67,003.8,017.88,017.89,018.13*43
$GPRMC,215730.00,A,3919.81652,N,08206.08646,W,000.5,283.2,050314,07.2,W,A*05
$PTNLRTF,V,A,338266,05,3,3919.81652,N,08206.08646,W,00224,-000.234,+000.055,-000.005,0,1*52
$PTNLRBA,1,1*57
$GPZDA,215731.00,05,03,2014,,*64
$GPGGA,215731.00,3919.81651,N,08206.08626,W,1,05,1.59,00224,M,-033,M,,*53
$GPGLL,3919.81651,N,08206.08626,W,215731.00,A,A*77
$GPVTG,000.0,T,007.2,M,000.0,N,000.0,K,A*26
$GPGSA,A,3,31,32,20,23,16,,,,,,,,7.10,1.59,6.92*03
$GPGSV,2,1,06,31,46,056,36,32,38,209,28,20,38,258,28,23,39,311,38*7E
$GPGSV,2,2,06,16,55,202,34,30,37,277,26,,,,,,,,*7E
$GPGST,215731.00,,306.76,306.32,001.7,017.50,017.51,017.76*4A
$GPRMC,215731.00,A,3919.81651,N,08206.08626,W,000.0,000.0,050314,07.2,W,A*0F
$PTNLRTF,V,A,338267,05,3,3919.81651,N,08206.08626,W,00224,+000.000,+000.000,+000.000,0,1*56
$PTNLRBA,1,1*57
$GPZDA,215733.00,05,03,2014,,*66
$GPGGA,215733.00,3919.81645,N,08206.08631,W,1,05,1.59,00224,M,-033,M,,*52
$GPGLL,3919.81645,N,08206.08631,W,215733.00,A,A*76
$GPVTG,000.0,T,007.2,M,000.0,N,000.0,K,A*26
$GPGSA,A,3,31,32,20,23,16,,,,,,,,7.08,1.59,6.90*08
$GPGSV,2,1,06,31,46,056,36,32,38,209,28,20,38,258,29,23,39,311,38*7F
$GPGSV,2,2,06,16,55,202,34,30,37,277,25,,,,,,,,*7D
$GPGST,215733.00,,322.91,322.50,000.8,017.96,017.97,018.21*46
$GPRMC,215733.00,A,3919.81645,N,08206.08631,W,000.0,000.0,050314,07.2,W,A*0E
$PTNLRTF,V,A,338269,05,3,3919.81645,N,08206.08631,W,00224,+000.000,+000.000,+000.000,0,1*5B
$PTNLRBA,1,1*57
$GPZDA,215734.00,05,03,2014,,*61
$GPGGA,215734.00,3919.81644,N,08206.08632,W,1,05,1.59,00224,M,-033,M,,*57
$GPGLL,3919.81644,N,08206.08632,W,215734.00,A,A*73
$GPVTG,000.0,T,007.2,M,000.0,N,000.0,K,A*26
$GPGSA,A,3,31,32,20,23,16,,,,,,,,7.07,1.59,6.89*0F
$GPGSV,2,1,06,31,46,056,36,32,38,209,27,20,38,258,29,23,39,311,38*70
$GPGSV,2,2,06,16,55,202,34,30,37,277,26,,,,,,,,*7E
$GPGST,215734.00,,337.25,336.86,000.4,018.35,018.36,018.60*4F
$GPRMC,215734.00,A,3919.81644,N,08206.08632,W,000.0,000.0,050314,07.2,W,A*0B
$PTNLRTF,V,A,338270,05,3,3919.81644,N,08206.08632,W,00224,+000.000,+000.000,+000.000,0,1*51
$PTNLRBA,1,1*57
$GPZDA,215735.00,05,03,2014,,*60
$GPGGA,215735.00,3919.81643,N,08206.08635,W,1,05,1.58,00224,M,-033,M,,*57
$GPGLL,3919.81643,N,08206.08635,W,215735.00,A,A*72
$GPVTG,000.0,T,007.2,M,000.0,N,000.0,K,A*26
$GPGSA,A,3,31,32,20,23,16,,,,,,,,7.06,1.58,6.88*0E
$GPGSV,2,1,06,31,46,057,36,32,38,209,26,20,38,258,28,23,39,311,37*7E
$GPGSV,2,2,06,16,55,202,35,30,37,277,25,,,,,,,,*7C
$GPGST,215735.00,,338.93,338.56,000.1,018.40,018.41,018.64*4C
$GPRMC,215735.00,A,3919.81643,N,08206.08635,W,000.0,000.0,050314,07.2,W,A*0A
$PTNLRTF,V,A,338272,05,3,3919.81643,N,08206.08635,W,00224,+000.000,+000.000,+000.000,0,1*53
$PTNLRBA,1,1*57
$GPZDA,215737.00,05,03,2014,,*62
$GPGGA,215737.00,3919.81640,N,08206.08646,W,1,05,1.58,00225,M,-033,M,,*53
$GPGLL,3919.81640,N,08206.08646,W,215737.00,A,A*77
$GPVTG,000.0,T,007.2,M,000.0,N,000.0,K,A*26
$GPGSA,A,3,31,32,20,23,16,,,,,,,,7.05,1.58,6.87*02
$GPGSV,2,1,06,31,46,057,35,32,38,209,26,20,38,258,28,23,39,311,37*7D
$GPGSV,2,2,06,16,55,202,35,30,37,277,23,,,,,,,,*7A
$GPGST,215737.00,,327.16,326.80,000.4,018.08,018.09,018.32*4F
$GPRMC,215737.00,A,3919.81640,N,08206.08646,W,000.0,000.0,050314,07.2,W,A*0F
$PTNLRTF,V,A,338273,05,3,3919.81640,N,08206.08646,W,00225,+000.000,+000.000,+000.000,0,1*54
$PTNLRBA,1,1*57
$GPZDA,215738.00,05,03,2014,,*6D
$GPGGA,215738.00,3919.81645,N,08206.08671,W,1,04,2.90,00225,M,-033,M,,*5B
$GPGLL,3919.81645,N,08206.08671,W,215738.00,A,A*79
$GPVTG,276.7,T,283.9,M,000.6,N,001.1,K,A*21
$GPGSA,A,3,31,20,23,16,,,,,,,,,13.9,2.90,13.6*00
$GPGSV,2,1,06,31,46,057,36,32,38,209,26,20,38,258,29,23,39,311,37*7F
$GPGSV,2,2,06,16,55,202,35,30,37,277,24,,,,,,,,*7D
$GPGST,215738.00,,306.94,306.58,000.5,017.51,017.52,017.76*42
$GPRMC,215738.00,A,3919.81645,N,08206.08671,W,000.6,276.7,050314,07.2,W,A*03
