$GPZDA,213510.00,16,02,2014,,*60
$GPGGA,213510.00,3917.25785,N,08203.79247,W,1,08,0.95,00310,M,-033,M,,*56
$GPGLL,3917.25785,N,08203.79247,W,213510.00,A,A*78
$GPVTG,022.1,T,029.3,M,000.2,N,000.5,K,A*2D
$GPGSA,A,3,32,22,01,16,20,25,29,31,,,,,1.67,0.95,1.37*00
$GPGSV,3,1,09,32,62,273,43,22,11,160,38,01,11,267,30,16,10,194,33*71
$GPGSV,3,2,09,20,29,308,30,25,31,048,33,29,08,089,33,31,75,349,37*71
$GPGSV,3,3,09,14,41,094,30,,,,,,,,,,,,*4E
$GPGST,213510.00,,092.57,091.84,072.6,009.62,009.59,009.81*4B
$GPRMC,213510.00,A,3917.25785,N,08203.79247,W,000.2,022.1,160214,07.2,W,A*00
$PTNLRTF,V,A,$GPZDA,213511.00,16,02,2014,,*61
$GPGGA,213511.00,3917.25780,N,08203.79244,W,1,08,0.95,00310,M,-033,M,,*51
$GPGLL,3917.25780,N,08203.79244,W,213511.00,A,A*7F
$GPVTG,000.0,T,007.2,M,000.0,N,000.0,K,A*26
$GPGSA,A,3,32,22,01,16,20,25,29,31,,,,,1.67,0.95,1.37*00
$GPGSV,3,1,09,32,62,273,44,22,11,160,38,01,11,267,30,16,10,194,33*76
$GPGSV,3,2,09,20,29,308,28,25,31,048,33,29,08,089,33,31,75,349,37*78
$GPGSV,3,3,09,14,41,094,33,,,,,,,,,,,,*4D
$GPGST,213511.00,,091.26,090.52,070.5,009.55,009.52,009.74*41
$GPRMC,213511.00,A,3917.25780,N,08203.79244,W,000.0,000.0,160214,07.2,W,A*04
$PTNLRTF,V,A,077727,08,3,3917.25780,N,08203.79244,W,00310,+000.000,+000.000,+000.000,0,1*5A
$PTNLRBA,1,1*57
$GPZDA,213513.00,16,02,2014,,*63
$GPGGA,213513.00,3917.25777,N,08203.79219,W,1,08,0.95,00311,M,-033,M,,*52
$GPGLL,3917.25777,N,08203.79219,W,213513.00,A,A*7D
$GPVTG,000.0,T,007.2,M,000.0,N,000.0,K,A*26
$GPGSA,A,3,32,22,01,16,20,25,29,31,,,,,1.67,0.95,1.37*00
$GPGSV,3,1,09,32,62,273,44,22,11,160,37,01,11,267,31,16,10,194,33*78
$GPGSV,3,2,09,20,29,308,30,25,31,048,33,29,08,089,34,31,75,349,36*77
$GPGSV,3,3,09,14,41,094,31,,,,,,,,,,,,*4F
$GPGST,213513.00,,095.88,095.11,065.8,009.79,009.76,009.97*4D
$GPRMC,213513.00,A,3917.25777,N,08203.79219,W,000.0,000.0,160214,07.2,W,A*06
$PTNLRTF,V,A,077729,08,3,3917.25777,N,08203.79219,W,00311,+000.000,+000.000,+000.000,0,1*55
$PTNLRBA,1,1*57
$GPZDA,213514.00,16,02,2014,,*64
$GPGGA,213514.00,3917.25774,N,08203.79204,W,1,08,0.95,00312,M,-033,M,,*59
$GPGLL,3917.25774,N,08203.79204,W,213514.00,A,A*75
$GPVTG,070.3,T,077.6,M,000.2,N,000.4,K,A*27
$GPGSA,A,3,32,22,01,16,20,25,29,31,,,,,1.67,0.95,1.37*00
$GPGSV,3,1,09,32,62,273,44,22,11,160,38,01,11,267,31,16,10,194,32*76
$GPGSV,3,2,09,20,29,308,28,25,31,048,33,29,08,089,34,31,75,349,37*7F
$GPGSV,3,3,09,14,41,094,31,,,,,,,,,,,,*4F
$GPGST,213514.00,,095.39,094.61,065.0,009.76,009.73,009.95*46
$GPRMC,213514.00,A,3917.25774,N,08203.79204,W,000.2,070.3,160214,07.2,W,A*08
$PTNLRTF,V,A,077730,08,3,3917.25774,N,08203.79204,W,00312,+000.111,+000.040,+000.013,0,1*56
$PTNLRBA,1,1*57
$GPZDA,213515.00,16,02,2014,,*65
$GPGGA,213515.00,3917.25767,N,08203.79185,W,1,08,0.95,00312,M,-033,M,,*50
$GPGLL,3917.25767,N,08203.79185,W,213515.00,A,A*7C
$GPVTG,103.2,T,110.5,M,000.2,N,000.4,K,A*20
$GPGSA,A,3,32,22,01,16,20,25,29,31,,,,,1.67,0.95,1.37*00
$GPGSV,3,1,09,32,62,273,44,22,11,160,37,01,11,267,31,16,10,194,33*78
$GPGSV,3,2,09,20,29,308,27,25,31,048,33,29,08,089,34,31,75,349,36*71
$GPGSV,3,3,09,14,41,094,31,,,,,,,,,,,,*4F
$GPGST,213515.00,,093.33,092.53,063.1,009.65,009.63,009.84*48
$GPRMC,213515.00,A,3917.25767,N,08203.79185,W,000.2,103.2,160214,07.2,W,A*05
$PTNLRTF,V,A,077732,08,3,3917.25767,N,08203.79185,W,00312,+000.109,-000.026,+000.013,0,1*53
$PTNLRBA,1,1*57
$GPZDA,213517.00,16,02,2014,,*67
$GPGGA,213517.00,3917.25767,N,08203.79181,W,1,08,0.95,00312,M,-033,M,,*56
$GPGLL,3917.25767,N,08203.79181,W,213517.00,A,A*7A
$GPVTG,000.0,T,007.2,M,000.0,N,000.0,K,A*26
$GPGSA,A,3,32,22,01,16,20,25,29,31,,,,,1.67,0.95,1.37*00
$GPGSV,3,1,09,32,62,273,44,22,11,160,37,01,11,267,31,16,10,194,32*79
$GPGSV,3,2,09,20,29,308,27,25,31,048,33,29,08,089,34,31,75,349,37*70
$GPGSV,3,3,09,14,41,094,30,,,,,,,,,,,,*4E
$GPGST,213517.00,,098.39,097.56,061.0,009.91,009.89,010.09*4A
$GPRMC,213517.00,A,3917.25767,N,08203.79181,W,000.0,000.0,160214,07.2,W,A*01
$PTNLRTF,V,A,077733,08,3,3917.25767,N,08203.79181,W,00312,+000.000,+000.000,+000.000,0,1*5E
$PTNLRBA,1,1*57
$GPZDA,213518.00,16,02,2014,,*68
$GPGGA,213518.00,3917.25772,N,08203.79183,W,1,07,0.97,00312,M,-033,M,,*52
$GPGLL,3917.25772,N,08203.79183,W,213518.00,A,A*73
$GPVTG,000.0,T,007.2,M,000.0,N,000.0,K,A*26
$GPGSA,A,3,32,22,01,16,20,25,29,,,,,,2.04,0.97,1.79*0C
$GPGSV,3,1,09,32,62,273,44,22,11,160,37,01,11,267,31,16,10,194,33*78
$GPGSV,3,2,09,20,29,308,28,25,31,048,33,29,08,089,35,31,75,349,37*7E
$GPGSV,3,3,09,14,41,094,31,,,,,,,,,,,,*4F
$GPGST,213518.00,,097.89,097.07,060.6,009.88,009.86,010.06*4A
$GPRMC,213518.00,A,3917.25772,N,08203.79183,W,000.0,000.0,160214,07.2,W,A*08
$PTNLRTF,V,A,077734,07,3,3917.25772,N,08203.79183,W,00312,+000.000,+000.000,+000.000,0,1*50
$PTNLRBA,1,1*57
$GPZDA,213520.00,16,02,2014,,*63
$GPGGA,213520.00,3917.25768,N,08203.79178,W,1,08,0.95,00312,M,-033,M,,*5B
$GPGLL,3917.25768,N,08203.79178,W,213520.00,A,A*77
$GPVTG,043.0,T,050.3,M,000.2,N,000.4,K,A*24
$GPGSA,A,3,32,22,01,16,20,25,29,31,,,,,1.67,0.95,1.37*00
$GPGSV,3,1,09,32,62,273,43,22,11,160,37,01,11,267,30,16,10,194,31*7C
$GPGSV,3,2,09,20,29,308,28,25,31,048,33,29,08,089,34,31,75,349,37*7F
$GPGSV,3,3,09,14,41,094,31,,,,,,,,,,,,*4F
$GPGST,213520.00,,092.46,091.61,058.8,009.60,009.58,009.78*40
$GPRMC,213520.00,A,3917.25768,N,08203.79178,W,000.2,043.0,160214,07.2,W,A*09
$PTNLRTF,V,A,077736,08,3,3917.25768,N,08203.79178,W,00312,+000.077,+000.082,+000.010,0,1*59
$PTNLRBA,1,1*57
$GPZDA,213521.00,16,02,2014,,*62
$GPGGA,213521.00,3917.25760,N,08203.79181,W,1,08,0.95,00312,M,-033,M,,*54
$GPGLL,3917.25760,N,08203.79181,W,213521.00,A,A*78
$GPVTG,206.1,T,213.3,M,000.3,N,000.6,K,A*20
$GPGSA,A,3,32,22,01,16,20,25,29,31,,,,,1.67,0.95,1.37*00
$GPGSV,3,1,09,32,62,273,45,22,11,160,37,01,11,267,30,16,10,194,33*78
$GPGSV,3,2,09,20,29,308,27,25,31,048,32,29,08,089,33,31,75,349,37*76
$GPGSV,3,3,09,14,41,094,31,,,,,,,,,,,,*4F
$GPGST,213521.00,,088.82,087.94,058.5,009.41,009.39,009.59*45
$GPRMC,213521.00,A,3917.25760,N,08203.79181,W,000.3,206.1,160214,07.2,W,A*05
$PTNLRTF,V,A,077737,08,3,3917.25760,N,08203.79181,W,00312,-000.074,-000.151,-000.012,0,1*5E
$PTNLRBA,1,1*57
