$GPZDA,203203.00,05,03,2014,,*67
$GPGLL,3919.82721,N,08206.08650,W,203203.00,A,A*70
$GPVTG,213.5,T,220.7,M,000.8,N,001.5,K,A*2D
$GPGSA,A,3,31,32,25,14,20,,,,,,,,3.64,2.12,2.96*0C
$GPGSV,2,1,05,31,74,356,28,32,63,263,18,25,28,046,30,14,38,098,24*7B
$GPGSV,2,2,05,20,32,305,32,,,,,,,,,,,,*48
$GPGST,203203.00,,274.45,235.65,086.9,016.56,015.35,015.25*4C
$GPRMC,203203.00,A,3919.82721,N,08206.08650,W,000.8,213.5,050314,07.2,W,A*05
$PTNLRTF,V,A,333139,05,3,3919.82721,N,08206.08650,W,00229,-000.233,-000.351,-000.023,0,1*5E
$PTNLRBA,1,1*57
$GPZDA,203204.00,05,03,2014,,*60
$GPGGA,203204.00,3919.82655,N,08206.08628,W,1,05,2.12,00229,M,-033,M,,*5F
$GPGLL,3919.82655,N,08206.08628,W,203204.00,A,A*7A
$GPVTG,187.3,T,194.5,M,001.3,N,002.4,K,A*23
$GPGSA,A,3,31,32,25,14,20,,,,,,,,3.64,2.12,2.96*0C
$GPGSV,2,1,05,31,74,356,28,32,63,263,19,25,28,046,31,14,38,098,24*7B
$GPGSV,2,2,05,20,32,305,31,,,,,,,,,,,,*4B
$GPGST,203204.00,,274.19,235.79,086.9,016.56,015.36,015.26*4F
$GPRMC,203204.00,A,3919.82655,N,08206.08628,W,001.3,187.3,050314,07.2,W,A*0D
$PTNLRTF,V,A,333141,05,3,3919.82655,N,08206.08628,W,00229,-000.085,-000.656,-000.002,0,1*52
$PTNLRBA,1,1*57
$GPZDA,203205.00,05,03,2014,,*61
$GPGGA,203205.00,3919.82614,N,08206.08660,W,1,05,2.12,00229,M,-033,M,,*57
$GPGLL,3919.82614,N,08206.08660,W,203205.00,A,A*72
$GPVTG,201.1,T,208.3,M,001.1,N,002.0,K,A*2A
$GPGSA,A,3,31,25,14,20,,,,,,,,,3.86,2.45,2.98*0D
$GPGSV,2,1,05,31,74,356,29,32,63,263,17,25,28,046,31,14,38,098,24*74
$GPGSV,2,2,05,20,32,305,31,,,,,,,,,,,,*4B
$GPGST,203205.00,,267.78,229.39,087.2,016.36,015.15,015.05*4E
$GPRMC,203205.00,A,3919.82614,N,08206.08660,W,001.1,201.1,050314,07.2,W,A*08
$PTNLRTF,V,A,333142,04,3,3919.82614,N,08206.08660,W,00229,-000.200,-000.518,+000.013,0,1*59
$PTNLRBA,1,1*57
$GPZDA,203208.00,05,03,2014,,*6C
$GPGGA,203208.00,3919.82529,N,08206.08622,W,1,05,2.11,00229,M,-033,M,,*52
$GPGLL,3919.82529,N,08206.08622,W,203208.00,A,A*74
$GPVTG,151.0,T,158.2,M,000.6,N,001.2,K,A*2D
$GPGSA,A,3,31,32,25,14,20,,,,,,,,3.64,2.11,2.96*0F
$GPGSV,2,1,05,31,74,356,28,32,63,263,23,25,28,046,31,14,38,098,24*72
$GPGSV,2,2,05,20,32,305,32,,,,,,,,,,,,*48
$GPGST,203208.00,,238.32,200.35,087.7,015.44,014.16,014.07*42
$GPRMC,203208.00,A,3919.82529,N,08206.08622,W,000.6,151.0,050314,07.2,W,A*0F
$PTNLRTF,V,A,333144,05,3,3919.82529,N,08206.08622,W,00229,+000.159,-000.286,-000.025,0,1*5F
$PTNLRBA,1,1*57
$GPZDA,203209.00,05,03,2014,,*6D
$GPGGA,203209.00,3919.82404,N,08206.08650,W,1,05,2.11,00229,M,-033,M,,*58
$GPGLL,3919.82404,N,08206.08650,W,203209.00,A,A*7E
$GPVTG,214.5,T,221.7,M,001.4,N,002.6,K,A*26
$GPGSA,A,3,31,32,25,14,20,,,,,,,,3.64,2.11,2.96*0F
$GPGSV,2,1,05,31,74,356,30,32,63,263,23,25,28,046,31,14,38,098,25*7A
$GPGSV,2,2,05,20,32,305,31,,,,,,,,,,,,*4B
$GPGST,203209.00,,270.94,233.31,087.6,016.46,015.28,015.20*4F
$GPRMC,203209.00,A,3919.82404,N,08206.08650,W,001.4,214.5,050314,07.2,W,A*01
$PTNLRTF,V,A,333145,05,3,3919.82404,N,08206.08650,W,00229,-000.412,-000.598,+000.003,0,1*53
$PTNLRBA,1,1*57
$GPZDA,203210.00,05,03,2014,,*65
$GPGGA,203210.00,3919.82381,N,08206.08667,W,1,05,2.11,00229,M,-033,M,,*5E
$GPGLL,3919.82381,N,08206.08667,W,203210.00,A,A*78
$GPVTG,225.6,T,232.8,M,000.3,N,000.5,K,A*2D
$GPGSA,A,3,31,32,25,14,20,,,,,,,,3.64,2.11,2.96*0F
$GPGSV,2,1,05,31,74,356,29,32,63,263,22,25,28,046,31,14,38,098,25*73
$GPGSV,2,2,05,20,32,305,32,,,,,,,,,,,,*48
$GPGST,203210.00,,266.80,229.32,087.7,016.33,015.15,015.07*45
$GPRMC,203210.00,A,3919.82381,N,08206.08667,W,000.3,225.6,050314,07.2,W,A*00
$PTNLRTF,V,A,333146,05,3,3919.82381,N,08206.08667,W,00229,-000.101,-000.099,-000.005,0,1*5D
$PTNLRBA,1,1*57
$GPZDA,203211.00,05,03,2014,,*64
$GPGLL,3919.82330,N,08206.08661,W,203211.00,A,A*75
$GPVTG,105.7,T,112.9,M,000.6,N,001.1,K,A*2D
$GPGSA,A,3,31,32,25,14,20,,,,,,,,3.64,2.11,2.96*0F
$GPGSV,2,1,05,31,74,356,30,32,63,263,22,25,28,046,32,14,38,098,25*78
$GPGSV,2,2,05,20,32,305,32,,,,,,,,,,,,*48
$GPGST,203211.00,,282.42,245.20,088.0,016.80,015.66,015.59*46
$GPRMC,203211.00,A,3919.82330,N,08206.08661,W,000.6,105.7,050314,07.2,W,A*08
$PTNLRTF,V,A,333147,05,3,3919.82330,N,08206.08661,W,00229,+000.287,-000.081,-000.020,0,1*55
$PTNLRBA,1,1*57
$GPZDA,203212.00,05,03,2014,,*67
$GPGGA,203212.00,3919.82256,N,08206.08649,W,1,05,2.11,00229,M,-033,M,,*5B
$GPVTG,168.0,T,175.2,M,000.8,N,001.4,K,A*20
$GPGSA,A,3,31,32,25,14,20,,,,,,,,3.64,2.11,2.96*0F
$GPGSV,2,1,05,31,74,356,29,32,63,263,21,25,28,046,32,14,38,098,23*75
$GPGSV,2,2,05,20,32,305,31,,,,,,,,,,,,*4B
$GPGST,203212.00,,296.44,259.38,088.0,017.22,016.11,016.05*42
$GPRMC,203212.00,A,3919.82256,N,08206.08649,W,000.8,168.0,050314,07.2,W,A*02
$PTNLRTF,V,A,333148,05,3,3919.82256,N,08206.08649,W,00229,+000.083,-000.391,+000.022,0,1*51
$PTNLRBA,1,1*57
$GPZDA,203213.00,05,03,2014,,*66
$GPGGA,203213.00,3919.82237,N,08206.08676,W,1,05,2.11,00230,M,-033,M,,*59
$GPGLL,3919.82237,N,08206.08676,W,203213.00,A,A*77
$GPVTG,250.9,T,258.1,M,000.5,N,001.0,K,A*27
$GPGSA,A,3,31,32,25,14,20,,,,,,,,3.63,2.11,2.96*08
$GPGSV,2,1,05,31,74,356,29,32,63,263,23,25,28,046,32,14,38,098,25*71
$GPGSV,2,2,05,20,32,305,32,,,,,,,,,,,,*48
$GPGST,203213.00,,306.68,270.28,088.0,017.51,016.44,016.39*44
$GPRMC,203213.00,A,3919.82237,N,08206.08676,W,000.5,250.9,050314,07.2,W,A*04
$PTNLRTF,V,A,333150,05,3,3919.82237,N,08206.08676,W,00230,-000.253,-000.087,-000.025,0,1*57
$PTNLRBA,1,1*57
$GPZDA,203215.00,05,03,2014,,*60
$GPGGA,203215.00,3919.82152,N,08206.08692,W,1,05,2.11,00230,M,-033,M,,*55
$GPVTG,155.1,T,162.3,M,000.2,N,000.4,K,A*23
$GPGSA,A,3,31,32,25,14,20,,,,,,,,3.63,2.11,2.96*08
$GPGSV,2,1,05,31,74,356,29,32,63,263,25,25,28,046,32,14,38,098,25*77
$GPGSV,2,2,05,20,32,305,32,,,,,,,,,,,,*48
$GPGST,203215.00,,306.63,271.11,088.7,017.51,016.47,016.42*4A
$GPRMC,203215.00,A,3919.82152,N,08206.08692,W,000.2,155.1,050314,07.2,W,A*01
$PTNLRTF,V,A,333151,05,3,3919.82152,N,08206.08692,W,00230,+000.051,-000.111,-000.004,0,1*57
$PTNLRBA,1,1*57
$GPZDA,203216.00,05,03,2014,,*63
$GPGGA,203216.00,3919.82102,N,08206.08714,W,1,05,2.11,00230,M,-033,M,,*5C
$GPGLL,3919.82102,N,08206.08714,W,203216.00,A,A*72
$GPVTG,230.3,T,237.5,M,000.2,N,000.5,K,A*25
$GPGSA,A,3,31,32,25,14,20,,,,,,,,3.63,2.11,2.96*08
$GPGSV,2,1,05,31,74,356,30,32,63,263,24,25,28,046,32,14,38,098,25*7E
$GPGSV,2,2,05,20,32,305,32,,,,,,,,,,,,*48
$GPGST,203216.00,,332.55,297.32,088.6,018.24,017.24,017.20*4F
$GPRMC,203216.00,A,3919.82102,N,08206.08714,W,000.2,230.3,050314,07.2,W,A*0A
$PTNLRTF,V,A,333152,05,3,3919.82102,N,08206.08714,W,00230,-000.099,-000.082,+000.001,0,1*54
$PTNLRBA,1,1*57
$GPZDA,203217.00,05,03,2014,,*62
$GPGGA,203217.00,3919.82130,N,08206.08731,W,1,05,2.11,00230,M,-033,M,,*5B
$GPGLL,3919.82130,N,08206.08731,W,203217.00,A,A*75
$GPVTG,264.1,T,271.3,M,000.8,N,001.5,K,A*29
$GPGSA,A,3,31,32,25,14,20,,,,,,,,3.63,2.11,2.96*08
$GPGSV,2,1,05,31,74,356,30,32,63,263,22,25,28,046,32,14,38,098,26*7B
$GPGSV,2,2,05,20,32,305,32,,,,,,,,,,,,*48
$GPGST,203217.00,,326.72,292.28,088.6,018.07,017.10,017.06*42
$GPRMC,203217.00,A,3919.82130,N,08206.08731,W,000.8,264.1,050314,07.2,W,A*04
$PTNLRTF,V,A,333153,05,3,3919.82130,N,08206.08731,W,00230,-000.401,-000.042,+000.005,0,1*5E
$PTNLRBA,1,1*57
$GPZDA,203218.00,05,03,2014,,*6D
$GPGGA,203218.00,3919.82081,N,08206.08738,W,1,05,2.11,00230,M,-033,M,,*56
$GPGLL,3919.82081,N,08206.08738,W,203218.00,A,A*78
$GPVTG,209.6,T,216.8,M,000.5,N,001.0,K,A*27
$GPGSA,A,3,31,32,25,14,20,,,,,,,,3.63,2.11,2.96*08
$GPGSV,2,1,05,31,74,356,29,32,63,263,24,25,28,046,32,14,38,098,24*77
$GPGSV,2,2,05,20,32,305,32,,,,,,,,,,,,*48
$GPGST,203218.00,,305.60,271.53,088.8,017.48,016.48,016.44*4F
$GPRMC,203218.00,A,3919.82081,N,08206.08738,W,000.5,209.6,050314,07.2,W,A*08
$PTNLRTF,V,A,333155,05,3,3919.82081,N,08206.08738,W,00230,-000.135,-000.238,+000.010,0,1*53
$PTNLRBA,1,1*57
$GPZDA,203219.00,05,03,2014,,*6C
$GPGGA,203219.00,3919.82112,N,08206.08743,W,1,05,2.11,00230,M,-033,M,,*50
$GPVTG,321.1,T,328.3,M,000.5,N,000.9,K,A*24
$GPGSA,A,3,31,32,25,14,20,,,,,,,,3.63,2.11,2.96*08
$GPGSV,2,1,05,31,74,356,31,32,63,263,25,25,28,046,32,14,38,098,24*7F
$GPGSV,2,2,05,20,32,305,32,,,,,,,,,,,,*48
$GPGST,203219.00,,290.05,256.26,088.7,017.03,016.01,015.97*47
$GPRMC,203219.00,A,3919.82112,N,08206.08743,W,000.5,321.1,050314,07.2,W,A*02
$PTNLRTF,V,A,333156,05,3,3919.82112,N,08206.08743,W,00230,-000.148,+000.184,+000.001,0,1*5F
$PTNLRBA,1,1*57
$GPZDA,203221.00,05,03,2014,,*67
$GPGGA,203221.00,3919.82124,N,08206.08718,W,1,05,2.11,00230,M,-033,M,,*50
$GPGLL,3919.82124,N,08206.08718,W,203221.00,A,A*7E
$GPVTG,332.8,T,340.0,M,000.9,N,001.6,K,A*20
$GPGSA,A,3,31,32,25,14,20,,,,,,,,3.63,2.11,2.96*08
$GPGSV,2,1,05,31,74,356,30,32,63,263,25,25,28,046,32,14,38,098,27*7D
$GPGSV,2,2,05,20,32,305,32,,,,,,,,,,,,*48
$GPGST,203221.00,,261.19,228.54,088.8,016.16,015.12,015.09*4F
$GPRMC,203221.00,A,3919.82124,N,08206.08718,W,000.9,332.8,050314,07.2,W,A*05
$PTNLRTF,V,A,333157,05,3,3919.82124,N,08206.08718,W,00230,-000.200,+000.391,+000.009,0,1*54
$PTNLRBA,1,1*57
$GPZDA,203222.00,05,03,2014,,*64
$GPGGA,203222.00,3919.82116,N,08206.08704,W,1,05,2.10,00230,M,-033,M,,*5E
$GPGLL,3919.82116,N,08206.08704,W,203222.00,A,A*71
$GPVTG,062.7,T,069.9,M,000.5,N,001.0,K,A*22
$GPGSA,A,3,31,32,25,14,20,,,,,,,,3.63,2.10,2.96*09
$GPGSV,2,1,05,31,74,356,31,32,63,263,26,25,28,046,32,14,38,098,25*7D
$GPGSV,2,2,05,20,32,305,31,,,,,,,,,,,,*4B
$GPGST,203222.00,,252.54,220.20,089.0,015.89,014.84,014.82*4E
$GPRMC,203222.00,A,3919.82116,N,08206.08704,W,000.5,062.7,050314,07.2,W,A*0F
$PTNLRTF,V,A,333158,05,3,3919.82116,N,08206.08704,W,00230,+000.238,+000.123,-000.008,0,1*56
$PTNLRBA,1,1*57
$GPZDA,203223.00,05,03,2014,,*65
$GPGGA,203223.00,3919.82045,N,08206.08721,W,1,05,2.10,00230,M,-033,M,,*5F
$GPGLL,3919.82045,N,08206.08721,W,203223.00,A,A*70
$GPVTG,187.0,T,194.2,M,000.4,N,000.8,K,A*2F
$GPGSA,A,3,31,32,25,14,20,,,,,,,,3.63,2.10,2.96*09
$GPGSV,2,1,05,31,74,356,31,32,63,263,25,25,28,046,32,14,38,098,27*7C
$GPGSV,2,2,05,20,32,305,32,,,,,,,,,,,,*48
$GPGST,203223.00,,247.65,215.44,089.0,015.74,014.68,014.66*47
$GPRMC,203223.00,A,3919.82045,N,08206.08721,W,000.4,187.0,050314,07.2,W,A*02
$PTNLRTF,V,A,333160,05,3,3919.82045,N,08206.08721,W,00230,-000.028,-000.228,+000.002,0,1*5A
$PTNLRBA,1,1*57
$GPZDA,203224.00,05,03,2014,,*62
$GPGGA,203224.00,3919.82023,N,08206.08742,W,1,05,2.10,00230,M,-033,M,,*5D
$GPVTG,203.7,T,210.9,M,000.8,N,001.5,K,A*23
$GPGSA,A,3,31,32,25,14,20,,,,,,,,3.63,2.10,2.96*09
$GPGSV,2,1,05,31,74,356,31,32,63,263,26,25,28,046,32,14,38,098,25*7D
$GPGSV,2,2,05,20,32,305,31,,,,,,,,,,,,*4B
$GPGST,203224.00,,232.43,200.39,088.9,015.25,014.16,014.14*48
$GPRMC,203224.00,A,3919.82023,N,08206.08742,W,000.8,203.7,050314,07.2,W,A*04
$PTNLRTF,V,A,333161,05,3,3919.82023,N,08206.08742,W,00230,-000.163,-000.370,-000.000,0,1*58
$PTNLRBA,1,1*57
$GPZDA,203226.00,05,03,2014,,*60
$GPGGA,203226.00,3919.82142,N,08206.08746,W,1,05,2.10,00230,M,-033,M,,*5D
$GPGLL,3919.82142,N,08206.08746,W,203226.00,A,A*72
$GPVTG,335.9,T,343.1,M,000.7,N,001.3,K,A*2F
$GPGSA,A,3,31,32,25,14,20,,,,,,,,3.63,2.10,2.96*09
$GPGSV,2,1,05,31,74,356,32,32,63,263,26,25,28,046,32,14,38,098,25*7E
$GPGSV,2,2,05,20,32,305,32,,,,,,,,,,,,*48
$GPGST,203226.00,,213.43,181.97,089.4,014.61,013.49,013.48*49
$GPRMC,203226.00,A,3919.82142,N,08206.08746,W,000.7,335.9,050314,07.2,W,A*01
$PTNLRTF,V,A,333162,05,3,3919.82142,N,08206.08746,W,00230,-000.147,+000.329,+000.008,0,1*5B
$PTNLRBA,1,1*57
$GPZDA,203227.00,05,03,2014,,*61
$GPGGA,203227.00,3919.82136,N,08206.08761,W,1,05,2.10,00230,M,-033,M,,*5A
$GPGLL,3919.82136,N,08206.08761,W,203227.00,A,A*75
$GPVTG,353.7,T,000.9,M,000.6,N,001.1,K,A*2E
$GPGSA,A,3,31,32,25,14,20,,,,,,,,3.63,2.10,2.96*09
$GPGSV,2,1,05,31,74,356,32,32,63,263,26,25,28,046,32,14,38,098,27*7C
$GPGSV,2,2,05,20,32,305,32,,,,,,,,,,,,*48
$GPGST,203227.00,,204.85,174.43,089.4,014.31,013.21,013.20*42
$GPRMC,203227.00,A,3919.82136,N,08206.08761,W,000.6,353.7,050314,07.2,W,A*09
$PTNLRTF,V,A,333163,05,3,3919.82136,N,08206.08761,W,00230,-000.035,+000.312,+000.016,0,1*5F
$PTNLRBA,1,1*57
$GPZDA,203228.00,05,03,2014,,*6E
$GPGGA,203228.00,3919.82199,N,08206.08744,W,1,05,2.10,00230,M,-033,M,,*57
$GPGLL,3919.82199,N,08206.08744,W,203228.00,A,A*78
$GPVTG,017.8,T,025.0,M,000.6,N,001.2,K,A*2F
$GPGSA,A,3,31,32,25,14,20,,,,,,,,3.62,2.10,2.95*0B
$GPGSV,2,1,05,31,74,356,31,32,63,263,26,25,28,046,32,14,38,098,27*7F
$GPGSV,2,2,05,20,32,305,32,,,,,,,,,,,,*48
$GPGST,203228.00,,194.47,164.73,089.4,013.95,012.84,012.83*44
$GPRMC,203228.00,A,3919.82199,N,08206.08744,W,000.6,017.8,050314,07.2,W,A*08
$PTNLRTF,V,A,333165,05,3,3919.82199,N,08206.08744,W,00230,+000.098,+000.305,-000.015,0,1*59
$PTNLRBA,1,1*57
$GPZDA,203229.00,05,03,2014,,*6F
$GPGGA,203229.00,3919.82228,N,08206.08774,W,1,05,2.10,00230,M,-033,M,,*5C
$GPVTG,339.9,T,347.1,M,001.1,N,002.0,K,A*20
$GPGSA,A,3,31,32,25,14,20,,,,,,,,3.62,2.10,2.95*0B
$GPGSV,2,1,05,31,74,356,32,32,63,263,27,25,28,046,32,14,38,098,25*7F
$GPGSV,2,2,05,20,32,305,32,,,,,,,,,,,,*48
$GPGST,203229.00,,185.47,156.49,089.4,013.62,012.51,012.51*42
$GPRMC,203229.00,A,3919.82228,N,08206.08774,W,001.1,339.9,050314,07.2,W,A*0B
$PTNLRTF,V,A,333166,05,3,3919.82228,N,08206.08774,W,00230,-000.195,+000.532,-000.002,0,1*5E
$PTNLRBA,1,1*57
$GPZDA,203231.00,05,03,2014,,*66
$GPGGA,203231.00,3919.82108,N,08206.08730,W,1,05,2.10,00230,M,-033,M,,*54
$GPGLL,3919.82108,N,08206.08730,W,203231.00,A,A*7B
$GPVTG,146.4,T,153.6,M,001.1,N,002.0,K,A*27
$GPGSA,A,3,31,32,25,14,20,,,,,,,,3.62,2.10,2.95*0B
$GPGSV,2,1,05,31,74,356,31,32,63,263,25,25,28,046,31,14,38,098,26*7E
$GPGSV,2,2,05,20,32,305,32,,,,,,,,,,,,*48
$GPGST,203231.00,,172.72,144.10,089.9,013.14,012.00,012.01*47
$GPRMC,203231.00,A,3919.82108,N,08206.08730,W,001.1,146.4,050314,07.2,W,A*04
$PTNLRTF,V,A,333167,05,3,3919.82108,N,08206.08730,W,00230,+000.310,-000.465,+000.011,0,1*56
$PTNLRBA,1,1*57
$GPZDA,203232.00,05,03,2014,,*65
$GPGGA,203232.00,3919.82093,N,08206.08728,W,1,05,2.10,00231,M,-033,M,,*5C
$GPGLL,3919.82093,N,08206.08728,W,203232.00,A,A*72
$GPVTG,148.7,T,155.9,M,000.2,N,000.4,K,A*27
$GPGSA,A,3,31,32,25,14,20,,,,,,,,3.62,2.10,2.95*0B
$GPGSV,2,1,05,31,74,356,32,32,63,263,27,25,28,046,32,14,38,098,27*7D
$GPGSV,2,2,05,20,32,305,32,,,,,,,,,,,,*48
$GPGST,203232.00,,168.60,140.69,089.9,012.98,011.86,011.87*43
$GPRMC,203232.00,A,3919.82093,N,08206.08728,W,000.2,148.7,050314,07.2,W,A*02
$PTNLRTF,V,A,333168,05,3,3919.82093,N,08206.08728,W,00231,+000.055,-000.091,+000.011,0,1*5F
$PTNLRBA,1,1*57
$GPZDA,203233.00,05,03,2014,,*64
$GPGGA,203233.00,3919.82110,N,08206.08730,W,1,05,2.10,00231,M,-033,M,,*5E
$GPGLL,3919.82110,N,08206.08730,W,203233.00,A,A*70
$GPVTG,203.5,T,210.7,M,000.5,N,000.9,K,A*2F
$GPGSA,A,3,31,32,25,14,20,,,,,,,,3.62,2.10,2.95*0B
$GPGSV,2,1,05,31,74,356,32,32,63,263,29,25,28,046,32,14,38,098,26*72
$GPGSV,2,2,05,20,32,305,32,,,,,,,,,,,,*48
$GPGST,203233.00,,162.35,134.95,089.8,012.74,011.62,011.63*4B
$GPRMC,203233.00,A,3919.82110,N,08206.08730,W,000.5,203.5,050314,07.2,W,A*09
$PTNLRTF,V,A,333170,05,3,3919.82110,N,08206.08730,W,00231,-000.098,-000.226,-000.011,0,1*5A
$PTNLRBA,1,1*57
$GPZDA,203234.00,05,03,2014,,*63
$GPGGA,203234.00,3919.82120,N,08206.08719,W,1,05,2.10,00231,M,-033,M,,*51
$GPVTG,010.1,T,017.3,M,000.1,N,000.1,K,A*26
$GPGSA,A,3,31,32,25,14,20,,,,,,,,3.62,2.10,2.95*0B
$GPGSV,2,1,05,31,74,356,32,32,63,263,27,25,28,046,32,14,38,098,27*7D
$GPGSV,2,2,05,20,32,305,32,,,,,,,,,,,,*48
$GPGST,203234.00,,159.09,132.15,089.4,012.61,011.50,011.51*4D
$GPRMC,203234.00,A,3919.82120,N,08206.08719,W,000.1,010.1,050314,07.2,W,A*06
$PTNLRTF,V,A,333171,05,3,3919.82120,N,08206.08719,W,00231,+000.007,+000.038,+000.010,0,1*5F
$PTNLRBA,1,1*57
$GPZDA,203236.00,05,03,2014,,*61
$GPGGA,203236.00,3919.82044,N,08206.08757,W,1,05,2.10,00231,M,-033,M,,*5A
$GPGLL,3919.82044,N,08206.08757,W,203236.00,A,A*74
$GPVTG,193.8,T,201.0,M,001.2,N,002.2,K,A*20
$GPGSA,A,3,31,32,25,14,20,,,,,,,,3.62,2.10,2.95*0B
$GPGSV,2,1,05,31,74,356,32,32,63,263,28,25,28,046,32,14,38,098,26*73
$GPGSV,2,2,05,20,32,305,32,,,,,,,,,,,,*48
$GPGST,203236.00,,146.36,119.97,089.3,012.10,010.95,010.97*4C
$GPRMC,203236.00,A,3919.82044,N,08206.08757,W,001.2,193.8,050314,07.2,W,A*0C
$PTNLRTF,V,A,333172,05,3,3919.82044,N,08206.08757,W,00231,-000.144,-000.587,+000.044,0,1*53
$PTNLRBA,1,1*57
$GPZDA,203237.00,05,03,2014,,*60
$GPGGA,203237.00,3919.82007,N,08206.08765,W,1,05,2.10,00231,M,-033,M,,*5D
$GPGLL,3919.82007,N,08206.08765,W,203237.00,A,A*73
$GPVTG,188.6,T,195.8,M,001.4,N,002.6,K,A*20
$GPGSA,A,3,31,32,25,14,20,,,,,,,,3.62,2.10,2.95*0B
$GPGSV,2,1,05,31,74,356,32,32,63,263,28,25,28,046,31,14,38,098,26*70
$GPGSV,2,2,05,20,32,305,31,,,,,,,,,,,,*4B
$GPGST,203237.00,,144.60,118.57,089.5,012.02,010.89,010.91*4F
$GPRMC,203237.00,A,3919.82007,N,08206.08765,W,001.4,188.6,050314,07.2,W,A*09
$PTNLRTF,V,A,333173,05,3,3919.82007,N,08206.08765,W,00231,-000.106,-000.702,+000.013,0,1*5F
$PTNLRBA,1,1*57
$GPZDA,203238.00,05,03,2014,,*6F
$GPGGA,203238.00,3919.81977,N,08206.08759,W,1,05,2.09,00231,M,-033,M,,*58
$GPGLL,3919.81977,N,08206.08759,W,203238.00,A,A*7E
$GPVTG,173.9,T,181.1,M,001.3,N,002.3,K,A*25
$GPGSA,A,3,31,32,25,20,,,,,,,,,5.86,4.10,4.19*06
$GPGSV,2,1,05,31,74,356,33,32,63,263,28,25,28,046,32,14,38,098,25*71
$GPGSV,2,2,05,20,32,305,31,,,,,,,,,,,,*4B
$GPGST,203238.00,,154.92,129.12,089.4,012.45,011.36,011.38*4A
$GPRMC,203238.00,A,3919.81977,N,08206.08759,W,001.3,173.9,050314,07.2,W,A*08
$PTNLRTF,V,A,333175,04,3,3919.81977,N,08206.08759,W,00231,+000.069,-000.645,-000.021,0,1*51
$PTNLRBA,1,1*57
$GPZDA,203240.00,05,03,2014,,*60
$GPGLL,3919.81938,N,08206.08745,W,203240.00,A,A*77
$GPVTG,159.4,T,166.6,M,000.6,N,001.0,K,A*2A
$GPGSA,A,3,31,32,25,20,,,,,,,,,5.86,4.10,4.19*06
$GPGSV,2,1,05,31,74,356,33,32,63,263,27,25,28,046,32,14,38,098,24*7F
$GPGSV,2,2,05,20,32,305,31,,,,,,,,,,,,*4B
$GPGST,203240.00,,145.11,118.70,087.9,012.04,010.90,010.91*41
$GPRMC,203240.00,A,3919.81938,N,08206.08745,W,000.6,159.4,050314,07.2,W,A*00
$PTNLRTF,V,A,333176,04,3,3919.81938,N,08206.08745,W,00231,+000.102,-000.271,+000.014,0,1*5B
$PTNLRBA,1,1*57
$GPZDA,203241.00,05,03,2014,,*61
$GPGGA,203241.00,3919.81913,N,08206.08741,W,1,05,2.09,00231,M,-033,M,,*5D
$GPVTG,059.1,T,066.3,M,000.3,N,000.6,K,A*28
$GPGSA,A,3,31,32,25,14,20,,,,,,,,3.62,2.09,2.95*03
$GPGSV,2,1,05,31,74,356,33,32,63,263,28,25,28,046,32,14,38,098,26*72
$GPGSV,2,2,05,20,32,305,31,,,,,,,,,,,,*4B
$GPGST,203241.00,,157.42,131.13,087.7,012.54,011.45,011.46*42
$GPRMC,203241.00,A,3919.81913,N,08206.08741,W,000.3,059.1,050314,07.2,W,A*0D
$PTNLRTF,V,A,333177,05,3,3919.81913,N,08206.08741,W,00231,+000.141,+000.084,+000.003,0,1*59
$PTNLRBA,1,1*57
$GPZDA,203242.00,05,03,2014,,*62
$GPGGA,203242.00,3919.81899,N,08206.08745,W,1,05,2.09,00231,M,-033,M,,*59
$GPGLL,3919.81899,N,08206.08745,W,203242.00,A,A*7F
$GPVTG,161.6,T,168.8,M,000.9,N,001.7,K,A*2B
$GPGSA,A,3,31,32,25,14,20,,,,,,,,3.62,2.09,2.95*03
$GPGSV,2,1,05,31,74,356,33,32,63,263,28,25,28,046,32,14,38,098,25*71
$GPGSV,2,2,05,20,32,305,31,,,,,,,,,,,,*4B
$GPGST,203242.00,,148.48,122.31,087.5,012.18,011.06,011.07*4F
$GPRMC,203242.00,A,3919.81899,N,08206.08745,W,000.9,161.6,050314,07.2,W,A*0E
$PTNLRTF,V,A,333179,05,3,3919.81899,N,08206.08745,W,00231,+000.152,-000.459,-000.022,0,1*55
$PTNLRBA,1,1*57
$GPZDA,203243.00,05,03,2014,,*63
$GPGGA,203243.00,3919.81943,N,08206.08751,W,1,05,2.09,00231,M,-033,M,,*5B
$GPGLL,3919.81943,N,08206.08751,W,203243.00,A,A*7D
$GPVTG,024.5,T,031.7,M,000.2,N,000.4,K,A*23
$GPGSA,A,3,31,32,25,14,20,,,,,,,,3.62,2.09,2.95*03
$GPGSV,2,1,05,31,74,356,33,32,63,263,28,25,28,046,32,14,38,098,27*73
$GPGSV,2,2,05,20,32,305,31,,,,,,,,,,,,*4B
$GPGST,203243.00,,141.43,115.79,087.3,011.89,010.76,010.77*49
$GPRMC,203243.00,A,3919.81943,N,08206.08751,W,000.2,024.5,050314,07.2,W,A*04
$PTNLRTF,V,A,333180,05,3,3919.81943,N,08206.08751,W,00231,+000.048,+000.104,-000.018,0,1*58
$PTNLRBA,1,1*57
$GPZDA,203245.00,05,03,2014,,*65
$GPGLL,3919.81908,N,08206.08745,W,203245.00,A,A*71
$GPVTG,357.4,T,004.6,M,000.8,N,001.6,K,A*2B
$GPGSA,A,3,31,32,25,14,20,,,,,,,,3.61,2.09,2.95*00
$GPGSV,2,1,05,31,74,356,33,32,63,263,28,25,28,046,32,14,38,098,25*71
$GPGSV,2,2,05,20,32,305,30,,,,,,,,,,,,*4A
$GPGST,203245.00,,136.77,111.34,087.2,011.69,010.55,010.56*48
$GPRMC,203245.00,A,3919.81908,N,08206.08745,W,000.8,357.4,050314,07.2,W,A*04
$PTNLRTF,V,A,333181,05,3,3919.81908,N,08206.08745,W,00231,-000.020,+000.434,-000.004,0,1*50
$PTNLRBA,1,1*57
$GPZDA,203246.00,05,03,2014,,*66
$GPGGA,203246.00,3919.81923,N,08206.08721,W,1,05,2.09,00231,M,-033,M,,*5F
$GPVTG,025.2,T,032.4,M,000.9,N,001.6,K,A*2D
$GPGSA,A,3,31,32,25,14,20,,,,,,,,3.61,2.09,2.95*00
$GPGSV,2,1,05,31,74,356,33,32,63,263,30,25,28,046,31,14,38,098,25*7B
$GPGSV,2,2,05,20,32,305,30,,,,,,,,,,,,*4A
$GPGST,203246.00,,131.77,106.54,087.1,011.48,010.32,010.33*4E
$GPRMC,203246.00,A,3919.81923,N,08206.08721,W,000.9,025.2,050314,07.2,W,A*0D
$PTNLRTF,V,A,333182,05,3,3919.81923,N,08206.08721,W,00231,+000.188,+000.399,+000.005,0,1*5A
$PTNLRBA,1,1*57
$GPZDA,203247.00,05,03,2014,,*67
$GPGGA,203247.00,3919.81894,N,08206.08716,W,1,05,2.09,00231,M,-033,M,,*57
$GPGLL,3919.81894,N,08206.08716,W,203247.00,A,A*71
$GPVTG,325.3,T,332.5,M,000.4,N,000.8,K,A*2F
$GPGSA,A,3,31,32,25,14,20,,,,,,,,3.61,2.09,2.95*00
$GPGSV,2,1,05,31,74,356,34,32,63,263,30,25,28,046,31,14,38,098,27*7E
$GPGSV,2,2,05,20,32,305,30,,,,,,,,,,,,*4A
$GPGST,203247.00,,137.48,112.49,086.9,011.72,010.61,010.61*4D
$GPRMC,203247.00,A,3919.81894,N,08206.08716,W,000.4,325.3,050314,07.2,W,A*0A
$PTNLRTF,V,A,333184,05,3,3919.81894,N,08206.08716,W,00231,-000.121,+000.174,+000.001,0,1*55
$PTNLRBA,1,1*57
$GPZDA,203248.00,05,03,2014,,*68
$GPGGA,203248.00,3919.81900,N,08206.08722,W,1,05,2.09,00231,M,-033,M,,*53
$GPVTG,294.3,T,301.5,M,000.3,N,000.5,K,A*2E
$GPGSA,A,3,31,32,25,14,20,,,,,,,,3.61,2.09,2.95*00
$GPGSV,2,1,05,31,74,356,34,32,63,263,30,25,28,046,31,14,38,098,26*7F
$GPGSV,2,2,05,20,32,305,30,,,,,,,,,,,,*4A
$GPGST,203248.00,,132.48,107.90,087.2,011.51,010.39,010.39*4C
$GPRMC,203248.00,A,3919.81900,N,08206.08722,W,000.3,294.3,050314,07.2,W,A*02
$PTNLRTF,V,A,333185,05,3,3919.81900,N,08206.08722,W,00231,-000.138,+000.062,+000.000,0,1*50
$PTNLRBA,1,1*57
$GPZDA,203250.00,05,03,2014,,*61
$GPGGA,203250.00,3919.81948,N,08206.08711,W,1,05,2.09,00231,M,-033,M,,*56
$GPGLL,3919.81948,N,08206.08711,W,203250.00,A,A*70
$GPVTG,008.7,T,015.9,M,000.6,N,001.2,K,A*24
$GPGSA,A,3,31,32,25,14,20,,,,,,,,3.61,2.09,2.95*00
$GPGSV,2,1,05,31,74,356,34,32,63,263,30,25,28,046,31,14,38,098,27*7E
$GPGSV,2,2,05,20,32,305,31,,,,,,,,,,,,*4B
$GPGST,203250.00,,124.77,101.06,087.1,011.17,010.06,010.06*46
$GPRMC,203250.00,A,3919.81948,N,08206.08711,W,000.6,008.7,050314,07.2,W,A*01
$PTNLRTF,V,A,333186,05,3,3919.81948,N,08206.08711,W,00231,+000.050,+000.324,-000.002,0,1*53
$PTNLRBA,1,1*57
$GPZDA,203251.00,05,03,2014,,*60
$GPGGA,203251.00,3919.81961,N,08206.08714,W,1,05,2.09,00231,M,-033,M,,*59
$GPGLL,3919.81961,N,08206.08714,W,203251.00,A,A*7F
$GPVTG,273.7,T,280.9,M,000.3,N,000.5,K,A*27
$GPGSA,A,3,31,32,25,14,20,,,,,,,,3.61,2.09,2.95*00
$GPGSV,2,1,05,31,74,356,35,32,63,263,30,25,28,046,31,14,38,098,26*7E
$GPGSV,2,2,05,20,32,305,30,,,,,,,,,,,,*4A
$GPGST,203251.00,,120.06,096.74,087.1,010.95,009.84,009.84*44
$GPRMC,203251.00,A,3919.81961,N,08206.08714,W,000.3,273.7,050314,07.2,W,A*05
$PTNLRTF,V,A,333187,05,3,3919.81961,N,08206.08714,W,00231,-000.139,+000.009,-000.030,0,1*59
$PTNLRBA,1,1*57
$GPZDA,203252.00,05,03,2014,,*63
$GPGGA,203252.00,3919.81976,N,08206.08704,W,1,05,2.09,00231,M,-033,M,,*5D
$GPGLL,3919.81976,N,08206.08704,W,203252.00,A,A*7B
$GPVTG,020.0,T,027.2,M,000.9,N,001.6,K,A*28
$GPGSA,A,3,31,32,25,14,20,,,,,,,,3.61,2.09,2.95*00
$GPGSV,2,1,05,31,74,357,34,32,63,262,31,25,28,046,31,14,38,098,26*7E
$GPGSV,2,2,05,20,32,304,28,,,,,,,,,,,,*42
$GPGST,203252.00,,118.82,095.86,087.2,010.90,009.79,009.79*48
$GPRMC,203252.00,A,3919.81976,N,08206.08704,W,000.9,020.0,050314,07.2,W,A*08
$PTNLRTF,V,A,333189,05,3,3919.81976,N,08206.08704,W,00231,+000.150,+000.412,+000.011,0,1*52
$PTNLRBA,1,1*57
$GPZDA,203253.00,05,03,2014,,*62
$GPGGA,203253.00,3919.81952,N,08206.08722,W,1,05,2.09,00231,M,-033,M,,*5E
$GPVTG,309.0,T,316.2,M,000.5,N,001.0,K,A*2B
$GPGSA,A,3,31,32,25,14,20,,,,,,,,3.61,2.08,2.95*01
$GPGSV,2,1,05,31,74,357,35,32,63,262,30,25,28,046,31,14,38,098,25*7D
$GPGSV,2,2,05,20,32,304,29,,,,,,,,,,,,*43
$GPGST,203253.00,,117.68,094.82,087.0,010.85,009.74,009.74*41
$GPRMC,203253.00,A,3919.81952,N,08206.08722,W,000.5,309.0,050314,07.2,W,A*0F
$PTNLRTF,V,A,333190,05,3,3919.81952,N,08206.08722,W,00231,-000.209,+000.169,+000.010,0,1*59
$PTNLRBA,1,1*57
$GPZDA,203255.00,05,03,2014,,*64
$GPGGA,203255.00,3919.81943,N,08206.08706,W,1,05,2.08,00231,M,-033,M,,*5F
$GPGLL,3919.81943,N,08206.08706,W,203255.00,A,A*78
$GPVTG,343.3,T,350.5,M,000.6,N,001.1,K,A*21
$GPGSA,A,3,31,32,25,14,20,,,,,,,,3.61,2.08,2.95*01
$GPGSV,2,1,05,31,74,357,35,32,63,262,31,25,28,046,31,14,38,098,27*7E
$GPGSV,2,2,05,20,32,304,30,,,,,,,,,,,,*4B
$GPGST,203255.00,,114.38,091.85,086.8,010.69,009.59,009.58*49
$GPRMC,203255.00,A,3919.81943,N,08206.08706,W,000.6,343.3,050314,07.2,W,A*01
$PTNLRTF,V,A,333191,05,3,3919.81943,N,08206.08706,W,00231,-000.089,+000.298,-000.004,0,1*5A
$PTNLRBA,1,1*57
$GPZDA,203256.00,05,03,2014,,*67
$GPGGA,203256.00,3919.81897,N,08206.08662,W,1,05,2.08,00231,M,-033,M,,*57
$GPGLL,3919.81897,N,08206.08662,W,203256.00,A,A*70
$GPVTG,130.8,T,138.0,M,001.0,N,001.9,K,A*2A
$GPGSA,A,3,31,32,25,14,20,,,,,,,,3.61,2.08,2.95*01
$GPGSV,2,1,05,31,74,357,35,32,63,262,31,25,28,046,31,14,38,098,26*7F
$GPGSV,2,2,05,20,32,304,30,,,,,,,,,,,,*4B
$GPGST,203256.00,,110.92,088.50,086.6,010.53,009.41,009.40*49
$GPRMC,203256.00,A,3919.81897,N,08206.08662,W,001.0,130.8,050314,07.2,W,A*03
$PTNLRTF,V,A,333192,05,3,3919.81897,N,08206.08662,W,00231,+000.393,-000.340,+000.023,0,1*5D
$PTNLRBA,1,1*57
$GPZDA,203257.00,05,03,2014,,*66
$GPGGA,203257.00,3919.81866,N,08206.08664,W,1,05,2.08,00231,M,-033,M,,*5E
$GPGLL,3919.81866,N,08206.08664,W,203257.00,A,A*79
$GPVTG,169.4,T,176.6,M,000.7,N,001.3,K,A*2A
$GPGSA,A,3,31,32,25,14,20,,,,,,,,3.61,2.08,2.94*00
$GPGSV,2,1,05,31,74,357,35,32,63,262,31,25,28,046,31,14,38,098,25*7C
$GPGSV,2,2,05,20,32,304,29,,,,,,,,,,,,*43
$GPGST,203257.00,,111.56,089.22,086.4,010.56,009.45,009.43*45
$GPRMC,203257.00,A,3919.81866,N,08206.08664,W,000.7,169.4,050314,07.2,W,A*0C
$PTNLRTF,V,A,333194,05,3,3919.81866,N,08206.08664,W,00231,+000.067,-000.358,-000.009,0,1*5C
$PTNLRBA,1,1*57
$GPZDA,203258.00,05,03,2014,,*69
$GPGGA,203258.00,3919.81877,N,08206.08652,W,1,05,2.08,00232,M,-033,M,,*57
$GPVTG,033.2,T,040.4,M,000.3,N,000.6,K,A*24
$GPGSA,A,3,31,32,25,14,20,,,,,,,,3.61,2.08,2.94*00
$GPGSV,2,1,05,31,74,357,35,32,63,262,31,25,28,046,31,14,38,098,26*7F
$GPGSV,2,2,05,20,32,304,29,,,,,,,,,,,,*43
$GPGST,203258.00,,109.88,087.80,086.5,010.48,009.37,009.36*4F
$GPRMC,203258.00,A,3919.81877,N,08206.08652,W,000.3,033.2,050314,07.2,W,A*0A
$PTNLRTF,V,A,333195,05,3,3919.81877,N,08206.08652,W,00232,+000.096,+000.146,-000.010,0,1*56
$PTNLRBA,1,1*57
$GPZDA,203300.00,05,03,2014,,*65
$GPGGA,203300.00,3919.81830,N,08206.08665,W,1,05,2.08,00232,M,-033,M,,*5C
$GPGLL,3919.81830,N,08206.08665,W,203300.00,A,A*78
$GPVTG,238.4,T,245.6,M,000.1,N,000.2,K,A*28
$GPGSA,A,3,31,32,25,14,20,,,,,,,,3.61,2.08,2.94*00
$GPGSV,2,1,05,31,74,357,35,32,63,262,32,25,28,046,31,14,38,098,26*7C
$GPGSV,2,2,05,20,32,304,28,,,,,,,,,,,,*42
$GPGST,203300.00,,113.62,092.18,085.5,010.65,009.61,009.59*4F
$GPRMC,203300.00,A,3919.81830,N,08206.08665,W,000.1,238.4,050314,07.2,W,A*0C
$PTNLRTF,V,A,333196,05,3,3919.81830,N,08206.08665,W,00232,-000.050,-000.031,-000.038,0,1*53
$PTNLRBA,1,1*57
$GPZDA,203301.00,05,03,2014,,*64
$GPGGA,203301.00,3919.81794,N,08206.08662,W,1,05,2.08,00232,M,-033,M,,*5B
$GPGLL,3919.81794,N,08206.08662,W,203301.00,A,A*7F
$GPVTG,164.1,T,171.3,M,000.8,N,001.4,K,A*28
$GPGSA,A,3,31,32,25,14,20,,,,,,,,3.60,2.08,2.94*01
$GPGSV,2,1,05,31,74,357,35,32,63,262,32,25,28,046,31,14,38,098,26*7C
$GPGSV,2,2,05,20,32,304,28,,,,,,,,,,,,*42
$GPGST,203301.00,,106.06,084.80,085.4,010.29,009.22,009.20*4E
$GPRMC,203301.00,A,3919.81794,N,08206.08662,W,000.8,164.1,050314,07.2,W,A*0D
$PTNLRTF,V,A,333197,05,3,3919.81794,N,08206.08662,W,00232,+000.108,-000.381,-000.009,0,1*54
$PTNLRBA,1,1*57
$GPZDA,203302.00,05,03,2014,,*67
$GPGGA,203302.00,3919.81709,N,08206.08657,W,1,05,2.08,00232,M,-033,M,,*5A
$GPGLL,3919.81709,N,08206.08657,W,203302.00,A,A*7E
$GPVTG,187.4,T,194.6,M,001.3,N,002.4,K,A*27
$GPGSA,A,3,31,32,25,14,20,,,,,,,,3.60,2.08,2.94*01
$GPGSV,2,1,05,31,74,357,34,32,63,262,32,25,28,046,31,14,38,098,26*7D
$GPGSV,2,2,05,20,32,304,27,,,,,,,,,,,,*4D
$GPGST,203302.00,,109.73,088.64,084.9,010.47,009.42,009.41*43
$GPRMC,203302.00,A,3919.81709,N,08206.08657,W,001.3,187.4,050314,07.2,W,A*0E
$PTNLRTF,V,A,333199,05,3,3919.81709,N,08206.08657,W,00232,-000.085,-000.658,+000.021,0,1*57
$PTNLRBA,1,1*57
$GPZDA,203303.00,05,03,2014,,*66
$GPGGA,203303.00,3919.81687,N,08206.08645,W,1,05,2.08,00232,M,-033,M,,*5F
$GPVTG,142.6,T,149.8,M,000.3,N,000.5,K,A*20
$GPGSA,A,3,31,32,25,14,20,,,,,,,,3.60,2.08,2.94*01
$GPGSV,2,1,05,31,74,357,35,32,63,262,32,25,28,046,31,14,38,098,26*7C
$GPGSV,2,2,05,20,32,304,27,,,,,,,,,,,,*4D
$GPGST,203303.00,,109.49,088.60,084.9,010.46,009.42,009.40*4F
$GPRMC,203303.00,A,3919.81687,N,08206.08645,W,000.3,142.6,050314,07.2,W,A*01
$PTNLRTF,V,A,333200,05,3,3919.81687,N,08206.08645,W,00232,+000.082,-000.107,+000.005,0,1*5A
$PTNLRBA,1,1*57
$GPZDA,203305.00,05,03,2014,,*60
$GPGGA,203305.00,3919.81653,N,08206.08590,W,1,05,2.08,00232,M,-033,M,,*5B
$GPGLL,3919.81653,N,08206.08590,W,203305.00,A,A*7F
$GPVTG,100.3,T,107.5,M,001.2,N,002.2,K,A*21
$GPGSA,A,3,31,32,25,14,20,,,,,,,,3.60,2.08,2.94*01
$GPGSV,2,1,05,31,74,357,35,32,63,262,32,25,28,046,32,14,38,098,27*7E
$GPGSV,2,2,05,20,32,304,27,,,,,,,,,,,,*4D
$GPGST,203305.00,,114.30,093.50,083.3,010.68,009.68,009.66*4F
$GPRMC,203305.00,A,3919.81653,N,08206.08590,W,001.2,100.3,050314,07.2,W,A*06
$PTNLRTF,V,A,333201,05,3,3919.81653,N,08206.08590,W,00232,+000.607,-000.110,-000.023,0,1*56
$PTNLRBA,1,1*57
$GPZDA,203306.00,05,03,2014,,*63
$GPGGA,203306.00,3919.81726,N,08206.08631,W,1,05,2.08,00232,M,-033,M,,*53
$GPGLL,3919.81726,N,08206.08631,W,203306.00,A,A*77
$GPVTG,334.1,T,341.3,M,001.5,N,002.9,K,A*2C
$GPGSA,A,3,31,32,25,14,20,,,,,,,,3.60,2.08,2.94*01
$GPGSV,2,1,05,31,74,357,35,32,63,262,32,25,28,046,32,14,38,098,26*7F
$GPGSV,2,2,05,20,32,304,27,,,,,,,,,,,,*4D
$GPGST,203306.00,,115.55,095.01,082.7,010.73,009.76,009.74*4F
$GPRMC,203306.00,A,3919.81726,N,08206.08631,W,001.5,334.1,050314,07.2,W,A*0E
$PTNLRTF,V,A,333202,05,3,3919.81726,N,08206.08631,W,00232,-000.345,+000.713,-000.010,0,1*58
$PTNLRBA,1,1*57
$GPZDA,203307.00,05,03,2014,,*62
$GPGGA,203307.00,3919.81741,N,08206.08627,W,1,05,2.08,00232,M,-033,M,,*54
$GPGLL,3919.81741,N,08206.08627,W,203307.00,A,A*70
$GPVTG,344.2,T,351.4,M,000.7,N,001.3,K,A*24
$GPGSA,A,3,31,32,25,14,20,,,,,,,,3.60,2.08,2.94*01
$GPGSV,2,1,05,31,74,357,35,32,63,262,32,25,28,046,32,14,38,098,26*7F
$GPGSV,2,2,05,20,32,304,27,,,,,,,,,,,,*4D
$GPGST,203307.00,,109.66,089.25,082.1,010.45,009.47,009.43*4D
$GPRMC,203307.00,A,3919.81741,N,08206.08627,W,000.7,344.2,050314,07.2,W,A*0E
$PTNLRTF,V,A,333204,05,3,3919.81741,N,08206.08627,W,00232,-000.099,+000.348,+000.001,0,1*56
$PTNLRBA,1,1*57
$GPZDA,203308.00,05,03,2014,,*6D
$GPGGA,203308.00,3919.81737,N,08206.08667,W,1,05,2.08,00232,M,-033,M,,*5E
$GPVTG,274.6,T,281.8,M,000.6,N,001.1,K,A*21
$GPGSA,A,3,31,32,25,14,20,,,,,,,,3.60,2.08,2.94*01
$GPGSV,2,1,05,31,74,357,35,32,63,262,33,25,28,046,31,14,38,098,26*7D
$GPGSV,2,2,05,20,32,304,28,,,,,,,,,,,,*42
$GPGST,203308.00,,110.12,089.91,081.6,010.47,009.50,009.47*42
$GPRMC,203308.00,A,3919.81737,N,08206.08667,W,000.6,274.6,050314,07.2,W,A*03
$PTNLRTF,V,A,333205,05,3,3919.81737,N,08206.08667,W,00232,-000.293,+000.023,+000.000,0,1*55
$PTNLRBA,1,1*57
$GPZDA,203310.00,05,03,2014,,*64
$GPGGA,203310.00,3919.81682,N,08206.08628,W,1,05,2.07,00232,M,-033,M,,*5C
$GPGLL,3919.81682,N,08206.08628,W,203310.00,A,A*77
$GPVTG,034.9,T,042.1,M,000.4,N,000.7,K,A*29
$GPGSA,A,3,31,32,25,14,20,,,,,,,,3.60,2.07,2.94*0E
$GPGSV,2,1,05,31,74,357,35,32,63,262,33,25,28,046,31,14,38,098,26*7D
$GPGSV,2,2,05,20,32,304,27,,,,,,,,,,,,*4D
$GPGST,203310.00,,120.96,101.06,080.8,010.98,010.08,010.04*4C
$GPRMC,203310.00,A,3919.81682,N,08206.08628,W,000.4,034.9,050314,07.2,W,A*05
$PTNLRTF,V,A,333206,05,3,3919.81682,N,08206.08628,W,00232,+000.118,+000.169,+000.015,0,1*5F
$PTNLRBA,1,1*57
$GPZDA,203311.00,05,03,2014,,*65
$GPGGA,203311.00,3919.81629,N,08206.08654,W,1,05,2.07,00232,M,-033,M,,*57
$GPGLL,3919.81629,N,08206.08654,W,203311.00,A,A*7C
$GPVTG,211.6,T,218.8,M,001.2,N,002.2,K,A*27
$GPGSA,A,3,31,32,25,14,20,,,,,,,,3.60,2.07,2.94*0E
$GPGSV,2,1,05,31,74,357,35,32,63,262,33,25,28,046,31,14,38,098,27*7C
$GPGSV,2,2,05,20,32,304,27,,,,,,,,,,,,*4D
$GPGST,203311.00,,118.04,098.36,080.9,010.84,009.94,009.91*4A
$GPRMC,203311.00,A,3919.81629,N,08206.08654,W,001.2,211.6,050314,07.2,W,A*03
$PTNLRTF,V,A,333207,05,3,3919.81629,N,08206.08654,W,00232,-000.315,-000.512,+000.027,0,1*52
$PTNLRBA,1,1*57
$GPZDA,203312.00,05,03,2014,,*66
$GPGGA,203312.00,3919.81647,N,08206.08656,W,1,05,2.07,00232,M,-033,M,,*5E
$GPGLL,3919.81647,N,08206.08656,W,203312.00,A,A*75
$GPVTG,210.2,T,217.4,M,000.4,N,000.7,K,A*21
$GPGSA,A,3,31,32,25,14,20,,,,,,,,3.60,2.07,2.94*0E
$GPGSV,2,1,05,31,74,357,35,32,63,262,32,25,28,046,31,14,38,098,26*7C
$GPGSV,2,2,05,20,32,304,26,,,,,,,,,,,,*4C
$GPGST,203312.00,,118.49,098.97,080.9,010.86,009.97,009.94*4F
$GPRMC,203312.00,A,3919.81647,N,08206.08656,W,000.4,210.2,050314,07.2,W,A*08
$PTNLRTF,V,A,333209,05,3,3919.81647,N,08206.08656,W,00232,-000.095,-000.163,-000.003,0,1*5F
$PTNLRBA,1,1*57
$GPZDA,203313.00,05,03,2014,,*67
$GPGGA,203313.00,3919.81681,N,08206.08664,W,1,05,2.07,00232,M,-033,M,,*54
$GPGLL,3919.81681,N,08206.08664,W,203313.00,A,A*7F
$GPVTG,345.3,T,352.5,M,000.5,N,001.0,K,A*27
$GPGSA,A,3,31,32,25,14,20,,,,,,,,3.60,2.07,2.94*0E
$GPGSV,2,1,05,31,74,358,35,32,63,262,32,25,28,046,31,14,38,098,27*72
$GPGSV,2,2,05,20,33,304,27,,,,,,,,,,,,*4C
$GPGST,203313.00,,114.65,095.02,080.3,010.68,009.78,009.74*48
$GPRMC,203313.00,A,3919.81681,N,08206.08664,W,000.5,345.3,050314,07.2,W,A*03
$PTNLRTF,V,A,333210,05,3,3919.81681,N,08206.08664,W,00232,-000.068,+000.258,-000.010,0,1*51
$PTNLRBA,1,1*57
$GPZDA,203315.00,05,03,2014,,*61
$GPGLL,3919.81697,N,08206.08629,W,203315.00,A,A*77
$GPVTG,089.9,T,097.1,M,001.1,N,002.0,K,A*26
$GPGSA,A,3,31,32,25,14,20,,,,,,,,3.60,2.07,2.94*0E
$GPGSV,2,1,05,31,74,358,35,32,63,262,32,25,28,046,32,14,38,098,25*73
$GPGSV,2,2,05,20,33,304,25,,,,,,,,,,,,*4E
$GPGST,203315.00,,120.08,100.57,079.4,010.93,010.06,010.02*42
$GPRMC,203315.00,A,3919.81697,N,08206.08629,W,001.1,089.9,050314,07.2,W,A*07
$PTNLRTF,V,A,333211,05,3,3919.81697,N,08206.08629,W,00232,+000.556,+000.001,-000.011,0,1*5F
$PTNLRBA,1,1*57
$GPZDA,203316.00,05,03,2014,,*62
$GPGGA,203316.00,3919.81733,N,08206.08636,W,1,05,2.07,00232,M,-033,M,,*5E
$GPGLL,3919.81733,N,08206.08636,W,203316.00,A,A*75
$GPGSA,A,3,31,32,25,14,20,,,,,,,,3.60,2.07,2.94*0E
$GPGSV,2,1,05,31,74,358,36,32,63,262,32,25,28,046,31,14,38,098,26*70
$GPGSV,2,2,05,20,33,304,25,,,,,,,,,,,,*4E
$GPGST,203316.00,,133.31,114.05,079.3,011.52,010.71,010.67*43
$GPRMC,203316.00,A,3919.81733,N,08206.08636,W,000.5,357.3,050314,07.2,W,A*0A
$PTNLRTF,V,A,333212,05,3,3919.81733,N,08206.08636,W,00232,-000.012,+000.253,+000.006,0,1*5B
$PTNLRBA,1,1*57
$GPZDA,203317.00,05,03,2014,,*63
$GPGGA,203317.00,3919.81746,N,08206.08640,W,1,04,3.29,00232,M,-033,M,,*50
$GPGLL,3919.81746,N,08206.08640,W,203317.00,A,A*77
$GPVTG,059.2,T,066.4,M,000.3,N,000.6,K,A*2C
$GPGSA,A,3,31,32,25,14,20,,,,,,,,3.59,2.07,2.94*04
$GPGSV,2,1,05,31,74,358,36,32,63,262,33,25,28,046,31,14,38,098,27*70
$GPGSV,2,2,05,20,33,304,26,,,,,,,,,,,,*4D
$GPGST,203317.00,,134.78,115.53,078.7,011.58,010.78,010.74*4E
$GPRMC,203317.00,A,3919.81746,N,08206.08640,W,000.3,059.2,050314,07.2,W,A*02
$PTNLRTF,V,A,333214,05,3,3919.81746,N,08206.08640,W,00232,+000.136,+000.081,-000.013,0,1*50
$PTNLRBA,1,1*57
$GPZDA,203319.00,05,03,2014,,*6D
$GPGGA,203319.00,3919.81752,N,08206.08615,W,1,05,2.07,00232,M,-033,M,,*57
$GPGLL,3919.81752,N,08206.08615,W,203319.00,A,A*7C
$GPVTG,080.2,T,087.4,M,000.3,N,000.6,K,A*27
$GPGSA,A,3,31,32,25,14,20,,,,,,,,3.59,2.07,2.94*04
$GPGSV,2,1,05,31,74,358,35,32,63,262,33,25,28,046,31,14,38,098,25*71
$GPGSV,2,2,05,20,33,304,24,,,,,,,,,,,,*4F
$GPGST,203319.00,,147.64,128.88,078.6,012.12,011.38,011.35*4C
$GPRMC,203319.00,A,3919.81752,N,08206.08615,W,000.3,080.2,050314,07.2,W,A*0D
$PTNLRTF,V,A,333215,05,3,3919.81752,N,08206.08615,W,00232,+000.166,+000.029,+000.009,0,1*5E
$PTNLRBA,1,1*57
$GPZDA,203320.00,05,03,2014,,*67
$GPGGA,203320.00,3919.81761,N,08206.08583,W,1,04,2.66,00232,M,-033,M,,*57
$GPGLL,3919.81761,N,08206.08583,W,203320.00,A,A*7A
$GPVTG,093.0,T,100.2,M,000.6,N,001.2,K,A*2F
$GPGSA,A,3,31,32,25,14,,,,,,,,,5.60,2.66,4.92*0D
$GPGSV,2,1,05,31,74,358,36,32,63,262,33,25,28,046,31,14,38,098,27*70
$GPGSV,2,2,05,20,33,304,26,,,,,,,,,,,,*4D
$GPGST,203320.00,,142.90,123.78,077.7,011.92,011.16,011.12*40
$GPRMC,203320.00,A,3919.81761,N,08206.08583,W,000.6,093.0,050314,07.2,W,A*0E
$PTNLRTF,V,A,333216,04,3,3919.81761,N,08206.08583,W,00232,+000.330,-000.017,-000.007,0,1*52
$PTNLRBA,1,1*57
$GPZDA,203321.00,05,03,2014,,*66
$GPGGA,203321.00,3919.81719,N,08206.08572,W,1,05,2.07,00232,M,-033,M,,*51
$GPVTG,155.8,T,163.0,M,000.5,N,000.9,K,A*22
$GPGSA,A,3,31,32,25,14,20,,,,,,,,3.59,2.07,2.94*04
$GPGSV,2,1,05,31,74,358,35,32,63,262,33,25,28,046,32,14,38,098,26*71
$GPGSV,2,2,05,20,33,304,25,,,,,,,,,,,,*4E
$GPGST,203321.00,,135.66,116.59,077.6,011.61,010.84,010.79*46
$GPRMC,203321.00,A,3919.81719,N,08206.08572,W,000.5,155.8,050314,07.2,W,A*0E
$PTNLRTF,V,A,333217,05,3,3919.81719,N,08206.08572,W,00232,+000.102,-000.227,+000.004,0,1*54
$PTNLRBA,1,1*57
$GPZDA,203322.00,05,03,2014,,*65
$GPGGA,203322.00,3919.81710,N,08206.08560,W,1,05,2.07,00232,M,-033,M,,*58
$GPGLL,3919.81710,N,08206.08560,W,203322.00,A,A*73
$GPVTG,116.2,T,123.4,M,000.4,N,000.7,K,A*20
$GPGSA,A,3,31,32,25,14,20,,,,,,,,3.59,2.07,2.94*04
$GPGSV,2,1,05,31,74,358,36,32,63,262,33,25,28,046,31,14,38,098,27*70
$GPGSV,2,2,05,20,33,304,26,,,,,,,,,,,,*4D
$GPGST,203322.00,,136.77,117.42,076.9,011.65,010.88,010.82*4F
$GPRMC,203322.00,A,3919.81710,N,08206.08560,W,000.4,116.2,050314,07.2,W,A*0B
$PTNLRTF,V,A,333219,05,3,3919.81710,N,08206.08560,W,00232,+000.165,-000.081,-000.018,0,1*54
$PTNLRBA,1,1*57
$GPZDA,203324.00,05,03,2014,,*63
$GPGGA,203324.00,3919.81701,N,08206.08544,W,1,04,2.66,00232,M,-033,M,,*5E
$GPGLL,3919.81701,N,08206.08544,W,203324.00,A,A*73
$GPVTG,344.7,T,351.9,M,000.4,N,000.7,K,A*2A
$GPGSA,A,3,31,32,25,14,,,,,,,,,5.59,2.66,4.92*07
$GPGSV,2,1,05,31,74,358,36,32,63,262,33,25,28,046,31,14,38,098,27*70
$GPGSV,2,2,05,20,33,304,25,,,,,,,,,,,,*4E
$GPGST,203324.00,,129.74,110.17,076.5,011.34,010.55,010.48*4D
$GPRMC,203324.00,A,3919.81701,N,08206.08544,W,000.4,344.7,050314,07.2,W,A*0B
$PTNLRTF,V,A,333220,04,3,3919.81701,N,08206.08544,W,00232,-000.048,+000.174,-000.002,0,1*57
$PTNLRBA,1,1*57
$GPZDA,203325.00,05,03,2014,,*62
$GPGGA,203325.00,3919.81755,N,08206.08536,W,1,05,2.07,00232,M,-033,M,,*5D
$GPGLL,3919.81755,N,08206.08536,W,203325.00,A,A*76
$GPVTG,035.2,T,042.4,M,000.8,N,001.4,K,A*28
$GPGSA,A,3,31,32,25,14,20,,,,,,,,3.59,2.07,2.94*04
$GPGSV,2,1,05,31,74,358,36,32,63,262,34,25,28,046,31,14,38,098,26*76
$GPGSV,2,2,05,20,33,304,26,,,,,,,,,,,,*4D
$GPGST,203325.00,,133.96,114.19,076.0,011.52,010.74,010.67*4A
$GPRMC,203325.00,A,3919.81755,N,08206.08536,W,000.8,035.2,050314,07.2,W,A*02
$PTNLRTF,V,A,333221,05,3,3919.81755,N,08206.08536,W,00232,+000.223,+000.316,-000.011,0,1*5E
$PTNLRBA,1,1*57
$GPZDA,203326.00,05,03,2014,,*61
$GPGGA,203326.00,3919.81796,N,08206.08586,W,1,05,2.07,00232,M,-033,M,,*5A
$GPGLL,3919.81796,N,08206.08586,W,203326.00,A,A*71
$GPVTG,309.6,T,316.8,M,000.9,N,001.6,K,A*2D
$GPGSA,A,3,31,32,25,14,20,,,,,,,,3.59,2.06,2.93*02
$GPGSV,2,1,05,31,74,358,36,32,63,262,33,25,28,046,32,14,38,098,25*71
$GPGSV,2,2,05,20,33,304,24,,,,,,,,,,,,*4F
$GPGST,203326.00,,133.89,114.16,075.5,011.52,010.74,010.67*4E
$GPRMC,203326.00,A,3919.81796,N,08206.08586,W,000.9,309.6,050314,07.2,W,A*0C
$PTNLRTF,V,A,333223,05,3,3919.81796,N,08206.08586,W,00232,-000.353,+000.292,-000.015,0,1*51
$PTNLRBA,1,1*57
$GPZDA,203327.00,05,03,2014,,*60
$GPGGA,203327.00,3919.81829,N,08206.08614,W,1,05,2.06,00232,M,-033,M,,*59
$GPGLL,3919.81829,N,08206.08614,W,203327.00,A,A*73
$GPVTG,332.7,T,339.9,M,000.9,N,001.6,K,A*28
$GPGSA,A,3,31,32,25,14,20,,,,,,,,3.59,2.06,2.93*02
$GPGSV,2,1,05,31,74,358,36,32,63,262,34,25,28,046,32,14,38,098,26*75
$GPGSV,2,2,05,20,33,304,25,,,,,,,,,,,,*4E
$GPGST,203327.00,,135.26,115.19,074.8,011.57,010.80,010.71*47
$GPRMC,203327.00,A,3919.81829,N,08206.08614,W,000.9,332.7,050314,07.2,W,A*07
$PTNLRTF,V,A,333224,05,3,3919.81829,N,08206.08614,W,00232,-000.202,+000.392,+000.012,0,1*50
$PTNLRBA,1,1*57
$GPZDA,203329.00,05,03,2014,,*6E
$GPGLL,3919.81868,N,08206.08589,W,203329.00,A,A*7F
$GPVTG,096.8,T,104.0,M,000.3,N,000.6,K,A*24
$GPGSA,A,3,31,32,25,14,20,,,,,,,,3.59,2.06,2.93*02
$GPGSV,2,1,05,31,74,358,36,32,63,262,34,25,28,046,32,14,38,098,25*76
$GPGSV,2,2,05,20,33,304,26,,,,,,,,,,,,*4D
$GPGST,203329.00,,142.05,122.30,074.3,011.86,011.12,011.04*49
$GPRMC,203329.00,A,3919.81868,N,08206.08589,W,000.3,096.8,050314,07.2,W,A*03
$PTNLRTF,V,A,333225,05,3,3919.81868,N,08206.08589,W,00232,+000.169,-000.020,-000.011,0,1*52
$PTNLRBA,1,1*57
$GPZDA,203330.00,05,03,2014,,*66
$GPGGA,203330.00,3919.81871,N,08206.08533,W,1,05,2.06,00233,M,-033,M,,*55
$GPGLL,3919.81871,N,08206.08533,W,203330.00,A,A*7E
$GPGSA,A,3,31,32,25,14,20,,,,,,,,3.59,2.06,2.93*02
$GPGSV,2,1,05,31,74,358,36,32,63,262,34,25,28,046,32,14,38,098,25*76
$GPGSV,2,2,05,20,33,304,25,,,,,,,,,,,,*4E
$GPGST,203330.00,,138.11,118.48,074.1,011.69,010.95,010.87*48
$GPRMC,203330.00,A,3919.81871,N,08206.08533,W,001.2,084.7,050314,07.2,W,A*0E
$PTNLRTF,V,A,333226,05,3,3919.81871,N,08206.08533,W,00233,+000.621,+000.057,-000.009,0,1*5D
$PTNLRBA,1,1*57
$GPZDA,203331.00,05,03,2014,,*67
$GPGGA,203331.00,3919.81865,N,08206.08498,W,1,05,2.06,00233,M,-033,M,,*51
$GPGLL,3919.81865,N,08206.08498,W,203331.00,A,A*7A
$GPVTG,085.1,T,092.3,M,000.7,N,001.2,K,A*23
$GPGSA,A,3,31,32,25,14,20,,,,,,,,3.59,2.06,2.93*02
$GPGSV,2,1,05,31,74,358,36,32,63,262,34,25,28,046,32,14,38,098,25*76
$GPGSV,2,2,05,20,33,304,24,,,,,,,,,,,,*4F
$GPGST,203331.00,,130.45,110.78,073.7,011.35,010.60,010.51*42
$GPRMC,203331.00,A,3919.81865,N,08206.08498,W,000.7,085.1,050314,07.2,W,A*09
$PTNLRTF,V,A,333228,05,3,3919.81865,N,08206.08498,W,00233,+000.335,+000.029,+000.024,0,1*56
$PTNLRBA,1,1*57
$GPZDA,203333.00,05,03,2014,,*65
$GPGGA,203332.00,3919.81876,N,08206.08520,W,1,05,2.06,00233,M,-033,M,,*52
$GPGLL,3919.81876,N,08206.08520,W,203332.00,A,A*79
$GPVTG,278.8,T,286.0,M,000.4,N,000.8,K,A*26
$GPGSA,A,3,31,32,25,14,20,,,,,,,,3.58,2.06,2.93*03
$GPGSV,2,1,05,31,74,358,37,32,63,262,34,25,28,046,32,14,38,098,25*77
$GPGSV,2,2,05,20,33,304,26,,,,,,,,,,,,*4D
$GPGST,203332.00,,129.16,109.57,073.4,011.29,010.54,010.46*45
$GPRMC,203332.00,A,3919.81876,N,08206.08520,W,000.4,278.8,050314,07.2,W,A*00
$PTNLRTF,V,A,333229,05,3,3919.81876,N,08206.08520,W,00233,-000.223,+000.035,+000.005,0,1*59
$PTNLRBA,1,1*57
$GPZDA,203334.00,05,03,2014,,*62
$GPGGA,203334.00,3919.81931,N,08206.08592,W,1,05,2.06,00233,M,-033,M,,*5F
$GPGLL,3919.81931,N,08206.08592,W,203334.00,A,A*74
$GPVTG,297.0,T,304.2,M,000.7,N,001.2,K,A*2E
$GPGSA,A,3,31,32,25,14,20,,,,,,,,3.58,2.06,2.93*03
$GPGSV,2,1,05,31,74,358,37,32,63,262,34,25,28,046,32,14,38,098,25*77
$GPGSV,2,2,05,20,33,304,23,,,,,,,,,,,,*48
$GPGST,203334.00,,141.05,121.32,072.8,011.80,011.09,011.00*42
$GPRMC,203334.00,A,3919.81931,N,08206.08592,W,000.7,297.0,050314,07.2,W,A*07
$PTNLRTF,V,A,333230,05,3,3919.81931,N,08206.08592,W,00233,-000.304,+000.155,+000.007,0,1*5B
$PTNLRBA,1,1*57
$GPZDA,203335.00,05,03,2014,,*63
$GPGLL,3919.81893,N,08206.08573,W,203335.00,A,A*73
$GPVTG,175.1,T,182.3,M,000.4,N,000.7,K,A*2A
$GPGSA,A,3,31,32,25,14,20,,,,,,,,3.58,2.06,2.93*03
$GPGSV,2,1,05,31,74,358,37,32,63,262,34,25,28,046,32,14,38,098,24*76
$GPGSV,2,2,05,20,33,304,25,,,,,,,,,,,,*4E
$GPGST,203335.00,,162.52,142.68,072.5,012.68,012.02,011.93*40
$GPRMC,203335.00,A,3919.81893,N,08206.08573,W,000.4,175.1,050314,07.2,W,A*0D
$PTNLRTF,V,A,333231,05,3,3919.81893,N,08206.08573,W,00232,+000.017,-000.204,-000.006,0,1*5C
$PTNLRBA,1,1*57
$GPZDA,203336.00,05,03,2014,,*60
$GPGGA,203336.00,3919.81882,N,08206.08560,W,1,05,2.06,00232,M,-033,M,,*58
$GPGLL,3919.81882,N,08206.08560,W,203336.00,A,A*72
$GPVTG,181.8,T,189.0,M,000.1,N,000.1,K,A*23
$GPGSA,A,3,31,32,25,14,20,,,,,,,,3.58,2.06,2.93*03
$GPGSV,2,1,05,31,74,358,37,32,63,262,34,25,28,046,32,14,38,098,25*77
$GPGSV,2,2,05,20,33,304,24,,,,,,,,,,,,*4F
$GPGST,203336.00,,170.85,151.17,072.4,013.00,012.37,012.29*4A
$GPRMC,203336.00,A,3919.81882,N,08206.08560,W,000.1,181.8,050314,07.2,W,A*0B
$PTNLRTF,V,A,333233,05,3,3919.81882,N,08206.08560,W,00232,-000.001,-000.041,+000.007,0,1*59
$PTNLRBA,1,1*57
$GPZDA,203337.00,05,03,2014,,*61
$GPGGA,203337.00,3919.81891,N,08206.08555,W,1,05,2.06,00232,M,-033,M,,*5D
$GPGLL,3919.81891,N,08206.08555,W,203337.00,A,A*77
$GPVTG,354.7,T,001.9,M,000.5,N,001.0,K,A*2A
$GPGSA,A,3,31,32,25,14,20,,,,,,,,3.58,2.06,2.93*03
$GPGSV,2,1,05,31,74,358,37,32,63,262,34,25,28,046,32,14,38,098,26*74
$GPGSV,2,2,05,20,33,304,23,,,,,,,,,,,,*48
$GPGST,203337.00,,174.69,155.04,072.1,013.15,012.53,012.45*42
$GPRMC,203337.00,A,3919.81891,N,08206.08555,W,000.5,354.7,050314,07.2,W,A*0F
$PTNLRTF,V,A,333234,05,3,3919.81891,N,08206.08555,W,00232,-000.026,+000.275,-000.012,0,1*5E
$PTNLRBA,1,1*57
$GPZDA,203339.00,05,03,2014,,*6F
$GPGLL,3919.81922,N,08206.08564,W,203339.00,A,A*72
$GPVTG,314.9,T,322.1,M,000.4,N,000.7,K,A*2D
$GPGSA,A,3,31,32,25,14,20,,,,,,,,3.58,2.06,2.93*03
$GPGSV,2,1,05,31,74,358,36,32,63,262,34,25,28,046,32,14,38,098,26*75
$GPGSV,2,2,05,20,33,304,25,,,,,,,,,,,,*4E
$GPGST,203339.00,,182.68,162.78,071.6,013.44,012.84,012.76*41
$GPRMC,203339.00,A,3919.81922,N,08206.08564,W,000.4,314.9,050314,07.2,W,A*01
$PTNLRTF,V,A,333235,05,3,3919.81922,N,08206.08564,W,00232,-000.134,+000.134,+000.008,0,1*5D
$PTNLRBA,1,1*57
$GPZDA,203340.00,05,03,2014,,*61
$GPGGA,203340.00,3919.81891,N,08206.08564,W,1,05,2.06,00232,M,-033,M,,*5F
$GPGLL,3919.81891,N,08206.08564,W,203340.00,A,A*75
$GPGSA,A,3,31,32,25,14,20,,,,,,,,3.58,2.06,2.93*03
$GPGSV,2,1,05,31,74,358,36,32,63,262,33,25,28,046,32,14,38,098,26*72
$GPGSV,2,2,05,20,33,304,22,,,,,,,,,,,,*49
$GPGST,203340.00,,179.17,159.19,071.4,013.31,012.70,012.61*41
$GPRMC,203340.00,A,3919.81891,N,08206.08564,W,000.7,209.0,050314,07.2,W,A*01
$PTNLRTF,V,A,333236,05,3,3919.81891,N,08206.08564,W,00232,-000.173,-000.312,+000.006,0,1*5A
$PTNLRBA,1,1*57
$GPZDA,203341.00,05,03,2014,,*60
$GPGGA,203341.00,3919.81860,N,08206.08534,W,1,05,2.06,00233,M,-033,M,,*54
$GPGLL,3919.81860,N,08206.08534,W,203341.00,A,A*7F
$GPVTG,160.8,T,167.9,M,001.2,N,002.2,K,A*26
$GPGSA,A,3,31,32,25,14,20,,,,,,,,3.58,2.06,2.93*03
$GPGSV,2,1,05,31,74,358,37,32,63,262,34,25,28,046,31,14,38,098,27*76
$GPGSV,2,2,05,20,33,304,23,,,,,,,,,,,,*48
$GPGST,203341.00,,175.34,155.54,071.3,013.16,012.55,012.47*49
$GPRMC,203341.00,A,3919.81860,N,08206.08534,W,001.2,160.8,050314,07.2,W,A*0B
$PTNLRTF,V,A,333238,05,3,3919.81860,N,08206.08534,W,00233,+000.205,-000.588,-000.001,0,1*5E
$PTNLRBA,1,1*57
$GPZDA,203343.00,05,03,2014,,*62
$GPGGA,203343.00,3919.81867,N,08206.08517,W,1,05,2.05,00233,M,-033,M,,*53
$GPGLL,3919.81867,N,08206.08517,W,203343.00,A,A*7B
$GPVTG,079.3,T,086.5,M,000.7,N,001.2,K,A*21
$GPGSA,A,3,31,32,25,14,20,,,,,,,,3.58,2.05,2.93*00
$GPGSV,2,1,05,31,74,358,36,32,63,262,33,25,28,046,32,14,38,098,27*73
$GPGSV,2,2,05,20,33,304,23,,,,,,,,,,,,*48
$GPGST,203343.00,,167.66,148.27,071.3,012.87,012.26,012.17*4F
$GPRMC,203343.00,A,3919.81867,N,08206.08517,W,000.7,079.3,050314,07.2,W,A*09
$PTNLRTF,V,A,333239,05,3,3919.81867,N,08206.08517,W,00233,+000.333,+000.063,+000.004,0,1*58
$PTNLRBA,1,1*57
$GPZDA,203344.00,05,03,2014,,*65
$GPGLL,3919.81876,N,08206.08530,W,203344.00,A,A*79
$GPVTG,214.9,T,222.1,M,000.3,N,000.5,K,A*28
$GPGSA,A,3,31,32,25,14,20,,,,,,,,3.58,2.05,2.93*00
$GPGSV,2,1,05,31,74,358,37,32,63,262,33,25,28,046,32,14,38,098,25*70
$GPGSV,2,2,05,20,33,304,24,,,,,,,,,,,,*4F
$GPGST,203344.00,,160.44,141.11,071.2,012.59,011.96,011.87*43
$GPRMC,203344.00,A,3919.81876,N,08206.08530,W,000.3,214.9,050314,07.2,W,A*0C
$PTNLRTF,V,A,333240,05,3,3919.81876,N,08206.08530,W,00233,-000.074,-000.106,+000.007,0,1*52
$PTNLRBA,1,1*57
$GPZDA,203345.00,05,03,2014,,*64
$GPGGA,203345.00,3919.81906,N,08206.08563,W,1,04,3.99,00233,M,-033,M,,*55
$GPGLL,3919.81906,N,08206.08563,W,203345.00,A,A*78
$GPGSA,A,3,31,32,25,20,,,,,,,,,5.72,3.99,4.10*02
$GPGSV,2,1,05,31,74,358,37,32,63,262,33,25,28,046,32,14,38,098,25*70
$GPGSV,2,2,05,20,33,304,24,,,,,,,,,,,,*4F
$GPGST,203345.00,,177.15,156.84,070.3,013.22,012.61,012.51*44
$GPRMC,203345.00,A,3919.81906,N,08206.08563,W,000.5,310.7,050314,07.2,W,A*00
$PTNLRTF,V,A,333241,04,3,3919.81906,N,08206.08563,W,00233,-000.183,+000.158,+000.002,0,1*53
$PTNLRBA,1,1*57
$GPZDA,203346.00,05,03,2014,,*67
$GPGGA,203346.00,3919.81919,N,08206.08582,W,1,05,2.05,00233,M,-033,M,,*52
$GPGLL,3919.81919,N,08206.08582,W,203346.00,A,A*7A
$GPVTG,294.9,T,302.1,M,000.5,N,000.9,K,A*29
$GPGSA,A,3,31,32,25,14,20,,,,,,,,3.58,2.05,2.93*00
$GPGSV,2,1,05,31,73,358,37,32,63,261,33,25,28,046,32,14,38,099,26*76
$GPGSV,2,2,05,20,33,304,23,,,,,,,,,,,,*48
$GPGST,203346.00,,172.12,151.30,070.1,013.03,012.40,012.29*40
$GPRMC,203346.00,A,3919.81919,N,08206.08582,W,000.5,294.9,050314,07.2,W,A*01
$PTNLRTF,V,A,333243,05,3,3919.81919,N,08206.08582,W,00233,-000.221,+000.102,-000.013,0,1*53
$PTNLRBA,1,1*57
$GPZDA,203348.00,05,03,2014,,*69
$GPGGA,203348.00,3919.81941,N,08206.08535,W,1,05,2.05,00233,M,-033,M,,*5D
$GPGLL,3919.81941,N,08206.08535,W,203348.00,A,A*75
$GPVTG,112.2,T,119.4,M,000.5,N,001.0,K,A*2A
$GPGSA,A,3,31,32,25,14,20,,,,,,,,3.58,2.05,2.93*00
$GPGSV,2,1,05,31,73,358,37,32,63,261,32,25,28,046,32,14,38,099,24*75
$GPGSV,2,2,05,20,33,304,24,,,,,,,,,,,,*4F
$GPGST,203348.00,,171.09,149.80,069.6,012.98,012.34,012.22*41
$GPRMC,203348.00,A,3919.81941,N,08206.08535,W,000.5,112.2,050314,07.2,W,A*08
$PTNLRTF,V,A,333244,05,3,3919.81941,N,08206.08535,W,00233,+000.246,-000.101,+000.017,0,1*55
$PTNLRBA,1,1*57
$GPZDA,203349.00,05,03,2014,,*68
$GPGLL,3919.81969,N,08206.08543,W,203349.00,A,A*7F
$GPVTG,010.7,T,017.9,M,000.9,N,001.6,K,A*24
$GPGSA,A,3,31,32,25,14,20,,,,,,,,3.57,2.05,2.93*0F
$GPGSV,2,1,05,31,73,358,37,32,63,261,32,25,28,046,32,14,38,099,25*74
$GPGSV,2,2,05,20,33,304,23,,,,,,,,,,,,*48
$GPGST,203349.00,,163.21,142.24,069.8,012.68,012.03,011.91*42
$GPRMC,203349.00,A,3919.81969,N,08206.08543,W,000.9,010.7,050314,07.2,W,A*08
$PTNLRTF,V,A,333245,05,3,3919.81969,N,08206.08543,W,00233,+000.082,+000.437,-000.002,0,1*51
$PTNLRBA,1,1*57
$GPZDA,203350.00,05,03,2014,,*60
$GPGGA,203350.00,3919.81931,N,08206.08483,W,1,05,2.05,00233,M,-033,M,,*5F
$GPGLL,3919.81931,N,08206.08483,W,203350.00,A,A*77
$GPVTG,122.5,T,129.7,M,000.8,N,001.5,K,A*26
$GPGSA,A,3,31,32,25,14,20,,,,,,,,3.57,2.05,2.93*0F
$GPGSV,2,1,05,31,73,358,37,32,63,261,32,25,28,046,32,14,38,099,24*75
$GPGSV,2,2,05,20,33,304,23,,,,,,,,,,,,*48
$GPGST,203350.00,,178.00,157.10,069.7,013.25,012.63,012.52*4D
$GPRMC,203350.00,A,3919.81931,N,08206.08483,W,000.8,122.5,050314,07.2,W,A*03
$PTNLRTF,V,A,333247,05,3,3919.81931,N,08206.08483,W,00233,+000.344,-000.220,+000.008,0,1*50
$PTNLRBA,1,1*57
$GPZDA,203351.00,05,03,2014,,*61
$GPGGA,203351.00,3919.81939,N,08206.08462,W,1,05,2.05,00233,M,-033,M,,*59
$GPGLL,3919.81939,N,08206.08462,W,203351.00,A,A*71
$GPVTG,121.6,T,128.8,M,000.6,N,001.2,K,A*21
$GPGSA,A,3,31,32,25,14,20,,,,,,,,3.57,2.05,2.93*0F
$GPGSV,2,1,05,31,73,358,37,32,63,261,31,25,28,046,32,14,38,099,25*77
$GPGSV,2,2,05,20,33,304,21,,,,,,,,,,,,*4A
$GPGST,203351.00,,175.21,154.44,069.7,013.14,012.53,012.41*43
$GPRMC,203351.00,A,3919.81939,N,08206.08462,W,000.6,121.6,050314,07.2,W,A*0B
$PTNLRTF,V,A,333248,05,3,3919.81939,N,08206.08462,W,00233,+000.273,-000.168,+000.001,0,1*5B
$PTNLRBA,1,1*57
$GPZDA,203353.00,05,03,2014,,*63
$GPGLL,3919.81865,N,08206.08377,W,203353.00,A,A*78
$GPVTG,115.4,T,122.6,M,000.9,N,001.6,K,A*2B
$GPGSA,A,3,31,32,25,14,20,,,,,,,,3.57,2.05,2.93*0F
$GPGSV,2,1,05,31,73,358,37,32,63,261,32,25,28,046,32,14,38,099,26*77
$GPGSV,2,2,05,20,33,304,20,,,,,,,,,,,,*4B
$GPGST,203353.00,,188.94,168.25,069.7,013.65,013.07,012.96*49
$GPRMC,203353.00,A,3919.81865,N,08206.08377,W,000.9,115.4,050314,07.2,W,A*08
$PTNLRTF,V,A,333249,05,3,3919.81865,N,08206.08377,W,00233,+000.410,-000.194,+000.036,0,1*55
$PTNLRBA,1,1*57
$GPZDA,203354.00,05,03,2014,,*64
$GPGGA,203354.00,3919.81897,N,08206.08409,W,1,04,2.64,00233,M,-033,M,,*52
$GPVTG,321.6,T,328.8,M,001.4,N,002.6,K,A*25
$GPGSA,A,3,31,32,25,14,,,,,,,,,5.55,2.64,4.88*02
$GPGSV,2,1,05,31,73,358,38,32,63,261,32,25,28,046,32,14,38,099,24*7A
$GPGSV,2,2,05,20,33,304,22,,,,,,,,,,,,*49
$GPGST,203354.00,,189.13,168.23,069.3,013.66,013.07,012.96*41
$GPRMC,203354.00,A,3919.81897,N,08206.08409,W,001.4,321.6,050314,07.2,W,A*07
$PTNLRTF,V,A,333250,04,3,3919.81897,N,08206.08409,W,00233,-000.452,+000.571,-000.011,0,1*55
$PTNLRBA,1,1*57
$GPZDA,203355.00,05,03,2014,,*65
$GPGGA,203355.00,3919.81891,N,08206.08357,W,1,05,2.05,00233,M,-033,M,,*5F
$GPGLL,3919.81891,N,08206.08357,W,203355.00,A,A*77
$GPVTG,078.6,T,085.8,M,001.0,N,001.8,K,A*27
$GPGSA,A,3,31,32,25,14,20,,,,,,,,3.57,2.05,2.93*0F
$GPGSV,2,1,05,31,73,358,38,32,63,261,32,25,28,046,32,14,38,099,26*78
$GPGSV,2,2,05,20,33,304,20,,,,,,,,,,,,*4B
$GPGST,203355.00,,186.24,165.31,068.9,013.55,012.96,012.84*44
$GPRMC,203355.00,A,3919.81891,N,08206.08357,W,001.0,078.6,050314,07.2,W,A*07
$PTNLRTF,V,A,333252,05,3,3919.81891,N,08206.08357,W,00233,+000.503,+000.101,-000.005,0,1*59
$PTNLRBA,1,1*57
$GPZDA,203357.00,05,03,2014,,*67
$GPGGA,203356.00,3919.81879,N,08206.08328,W,1,05,2.05,00233,M,-033,M,,*52
$GPVTG,081.1,T,088.3,M,000.5,N,000.9,K,A*24
$GPGSA,A,3,31,32,25,14,20,,,,,,,,3.57,2.05,2.93*0F
$GPGSV,2,1,05,31,73,358,38,32,63,261,32,25,28,046,32,14,38,099,24*7A
$GPGSV,2,2,05,20,33,304,19,,,,,,,,,,,,*41
$GPGST,203356.00,,188.68,167.66,068.8,013.64,013.05,012.94*48
$GPRMC,203356.00,A,3919.81879,N,08206.08328,W,000.5,081.1,050314,07.2,W,A*0F
$PTNLRTF,V,A,333253,05,3,3919.81879,N,08206.08328,W,00233,+000.242,+000.038,+000.004,0,1*58
$PTNLRBA,1,1*57
$GPZDA,203358.00,05,03,2014,,*68
$GPGGA,203358.00,3919.81812,N,08206.08268,W,1,05,2.05,00233,M,-033,M,,*54
$GPGLL,3919.81812,N,08206.08268,W,203358.00,A,A*7C
$GPVTG,155.0,T,162.2,M,000.5,N,000.9,K,A*29
$GPGSA,A,3,31,32,25,14,20,,,,,,,,3.57,2.05,2.92*0E
$GPGSV,2,1,05,31,73,358,38,32,63,261,32,25,28,046,32,14,38,099,24*7A
$GPGSV,2,2,05,20,33,304,22,,,,,,,,,,,,*49
$GPGST,203358.00,,197.35,176.29,068.7,013.95,013.38,013.27*4D
$GPRMC,203358.00,A,3919.81812,N,08206.08268,W,000.5,155.0,050314,07.2,W,A*00
$PTNLRTF,V,A,333254,05,3,3919.81812,N,08206.08268,W,00233,+000.110,-000.237,+000.018,0,1*55
$PTNLRBA,1,1*57
$GPZDA,203359.00,05,03,2014,,*69
$GPGGA,203359.00,3919.81850,N,08206.08284,W,1,05,2.05,00233,M,-033,M,,*51
$GPGLL,3919.81850,N,08206.08284,W,203359.00,A,A*79
$GPVTG,337.7,T,344.9,M,001.2,N,002.2,K,A*2A
$GPGSA,A,3,31,32,25,14,20,,,,,,,,3.57,2.05,2.92*0E
$GPGSV,2,1,05,31,73,358,38,32,63,261,32,25,28,046,32,14,38,099,25*7B
$GPGSV,2,2,05,20,33,304,20,,,,,,,,,,,,*4B
$GPGST,203359.00,,201.56,180.55,068.7,014.10,013.54,013.43*45
$GPRMC,203359.00,A,3919.81850,N,08206.08284,W,001.2,337.7,050314,07.2,W,A*02
$PTNLRTF,V,A,333255,05,3,3919.81850,N,08206.08284,W,00233,-000.228,+000.554,-000.002,0,1*57
$PTNLRBA,1,1*57
$GPZDA,203400.00,05,03,2014,,*62
$GPGGA,203400.00,3919.81850,N,08206.08251,W,1,05,2.04,00233,M,-033,M,,*53
$GPGLL,3919.81850,N,08206.08251,W,203400.00,A,A*7A
$GPVTG,017.5,T,024.7,M,000.7,N,001.2,K,A*25
$GPGSA,A,3,31,32,25,14,20,,,,,,,,3.57,2.04,2.92*0F
$GPGSV,2,1,05,31,73,358,38,32,63,261,32,25,28,046,32,14,38,099,26*78
$GPGSV,2,2,05,20,33,304,19,,,,,,,,,,,,*41
$GPGST,203400.00,,223.35,202.45,068.6,014.85,014.33,014.22*48
$GPRMC,203400.00,A,3919.81850,N,08206.08251,W,000.7,017.5,050314,07.2,W,A*06
$PTNLRTF,V,A,333257,05,3,3919.81850,N,08206.08251,W,00233,+000.102,+000.323,-000.010,0,1*55
$PTNLRBA,1,1*57
$GPZDA,203401.00,05,03,2014,,*63
$GPGGA,203401.00,3919.81839,N,08206.08270,W,1,05,2.04,00233,M,-033,M,,*5E
$GPVTG,287.8,T,295.0,M,000.7,N,001.2,K,A*2C
$GPGSA,A,3,31,32,25,14,20,,,,,,,,3.57,2.04,2.92*0F
$GPGSV,2,1,05,31,73,358,38,32,63,261,32,25,28,046,32,14,38,099,24*7A
$GPGSV,2,2,05,20,33,304,18,,,,,,,,,,,,*40
$GPGST,203401.00,,223.61,202.73,068.6,014.86,014.34,014.23*48
$GPRMC,203401.00,A,3919.81839,N,08206.08270,W,000.7,287.8,050314,07.2,W,A*0D
$PTNLRTF,V,A,333258,05,3,3919.81839,N,08206.08270,W,00233,-000.327,+000.105,+000.029,0,1*5F
$PTNLRBA,1,1*57
$GPZDA,203403.00,05,03,2014,,*61
$GPGGA,203403.00,3919.81892,N,08206.08269,W,1,05,2.04,00234,M,-033,M,,*52
$GPGLL,3919.81892,N,08206.08269,W,203403.00,A,A*7C
$GPVTG,346.1,T,353.3,M,001.3,N,002.3,K,A*26
$GPGSA,A,3,31,32,25,14,20,,,,,,,,3.57,2.04,2.92*0F
$GPGSV,2,1,05,31,73,358,37,32,63,261,32,25,28,046,32,14,38,099,25*74
$GPGSV,2,2,05,20,33,304,19,,,,,,,,,,,,*41
$GPGST,203403.00,,221.79,200.49,068.5,014.80,014.26,014.15*49
$GPRMC,203403.00,A,3919.81892,N,08206.08269,W,001.3,346.1,050314,07.2,W,A*06
$PTNLRTF,V,A,333259,05,3,3919.81892,N,08206.08269,W,00234,-000.154,+000.626,-000.021,0,1*5E
$PTNLRBA,1,1*57
$GPZDA,203404.00,05,03,2014,,*66
$GPGGA,203404.00,3919.81902,N,08206.08279,W,1,05,2.04,00234,M,-033,M,,*5C
$GPGLL,3919.81902,N,08206.08279,W,203404.00,A,A*72
$GPVTG,325.9,T,333.1,M,000.8,N,001.5,K,A*20
$GPGSA,A,3,31,32,25,14,20,,,,,,,,3.57,2.04,2.92*0F
$GPGSV,2,1,05,31,73,358,38,32,63,261,32,25,28,046,32,14,38,099,26*78
$GPGSV,2,2,05,20,33,304,20,,,,,,,,,,,,*4B
$GPGST,203404.00,,212.98,191.84,068.6,014.50,013.95,013.84*45
$GPRMC,203404.00,A,3919.81902,N,08206.08279,W,000.8,325.9,050314,07.2,W,A*0F
$PTNLRTF,V,A,333260,05,3,3919.81902,N,08206.08279,W,00234,-000.239,+000.354,-000.008,0,1*5E
$PTNLRBA,1,1*57
$GPZDA,203405.00,05,03,2014,,*67
$GPGGA,203405.00,3919.81947,N,08206.08295,W,1,05,2.04,00234,M,-033,M,,*5E
$GPGLL,3919.81947,N,08206.08295,W,203405.00,A,A*70
$GPVTG,335.5,T,342.7,M,001.5,N,002.9,K,A*2E
$GPGSA,A,3,31,32,25,14,20,,,,,,,,3.56,2.04,2.92*0E
$GPGSV,2,1,05,31,73,358,38,32,63,261,32,25,28,046,32,14,38,099,26*78
$GPGSV,2,2,05,20,33,304,21,,,,,,,,,,,,*4A
$GPGST,203405.00,,215.99,195.18,068.6,014.60,014.07,013.97*4E
$GPRMC,203405.00,A,3919.81947,N,08206.08295,W,001.5,335.5,050314,07.2,W,A*0C
$PTNLRTF,V,A,333262,05,3,3919.81947,N,08206.08295,W,00234,-000.329,+000.722,-000.008,0,1*5A
$PTNLRBA,1,1*57
$GPZDA,203406.00,05,03,2014,,*64
$GPGGA,203406.00,3919.81948,N,08206.08303,W,1,05,2.04,00234,M,-033,M,,*5C
$GPVTG,317.0,T,324.2,M,000.6,N,001.1,K,A*27
$GPGSA,A,3,31,32,25,14,20,,,,,,,,3.56,2.04,2.92*0E
$GPGSV,2,1,05,31,73,358,38,32,63,261,32,25,28,046,32,14,38,099,26*78
$GPGSV,2,2,05,20,33,304,19,,,,,,,,,,,,*41
$GPGST,203406.00,,211.21,190.29,068.5,014.44,013.90,013.79*41
$GPRMC,203406.00,A,3919.81948,N,08206.08303,W,000.6,317.0,050314,07.2,W,A*09
$PTNLRTF,V,A,333263,05,3,3919.81948,N,08206.08303,W,00234,-000.207,+000.222,+000.022,0,1*5C
$PTNLRBA,1,1*57
$GPZDA,203408.00,05,03,2014,,*6A
$GPGGA,203408.00,3919.81992,N,08206.08322,W,1,05,2.04,00234,M,-033,M,,*56
$GPGLL,3919.81992,N,08206.08322,W,203408.00,A,A*78
$GPVTG,311.0,T,318.2,M,001.3,N,002.3,K,A*2B
$GPGSA,A,3,31,32,25,14,20,,,,,,,,3.56,2.04,2.92*0E
$GPGSV,2,1,05,31,73,358,38,32,63,261,32,25,28,046,32,14,38,099,28*76
$GPGSV,2,2,05,20,33,304,23,,,,,,,,,,,,*48
$GPGST,203408.00,,200.87,180.04,068.6,014.07,013.52,013.41*4C
$GPRMC,203408.00,A,3919.81992,N,08206.08322,W,001.3,311.0,050314,07.2,W,A*01
$PTNLRTF,V,A,333264,05,3,3919.81992,N,08206.08322,W,00234,-000.486,+000.423,-000.021,0,1*52
$PTNLRBA,1,1*57
$GPZDA,203409.00,05,03,2014,,*6B
$GPGGA,203409.00,3919.82005,N,08206.08329,W,1,05,2.04,00234,M,-033,M,,*58
$GPGLL,3919.82005,N,08206.08329,W,203409.00,A,A*76
$GPVTG,340.1,T,347.3,M,000.9,N,001.7,K,A*29
$GPGSA,A,3,31,32,25,14,20,,,,,,,,3.56,2.04,2.92*0E
$GPGSV,2,1,05,31,73,358,38,32,63,261,32,25,28,046,32,14,38,099,26*78
$GPGSV,2,2,05,20,33,304,22,,,,,,,,,,,,*49
$GPGST,203409.00,,205.26,184.68,069.0,014.23,013.69,013.58*4C
$GPRMC,203409.00,A,3919.82005,N,08206.08329,W,000.9,340.1,050314,07.2,W,A*01
$PTNLRTF,V,A,333265,05,3,3919.82005,N,08206.08329,W,00234,-000.164,+000.453,-000.013,0,1*53
$PTNLRBA,1,1*57
$GPZDA,203410.00,05,03,2014,,*63
$GPGGA,203410.00,3919.81969,N,08206.08289,W,1,05,2.04,00234,M,-033,M,,*5B
$GPGLL,3919.81969,N,08206.08289,W,203410.00,A,A*75
$GPVTG,117.2,T,124.4,M,000.6,N,001.0,K,A*22
