$GPZDA,014450.00,24,12,2013,,*67
$GPGGA,014450.00,4003.48364,N,08254.66606,W,2,09,0.87,00249,M,-033,M,,*5C
$GPGLL,4003.48364,N,08254.66606,W,014450.00,A,D*7B
$GPVTG,000.0,T,006.7,M,000.00,N,000.00,K,D*27
$GPGSA,A,3,25,01,29,31,32,14,20,16,23,,,,1.51,0.87,1.23*07
$GPGSV,3,1,10,25,22,043,33,01,06,257,44,29,12,076,36,31,67,026,38*7D
$GPGSV,3,2,10,32,61,255,34,14,33,105,39,20,35,299,24,16,23,193,45*7D
$GPGSV,3,3,10,46,43,203,43,23,12,302,45,,,,,,,,*79
$GPGST,014450.00,,347.77,347.69,085.1,018.65,018.65,018.66*47
$GPRMC,014450.00,A,4003.48364,N,08254.66606,W,000.00,000.0,241213,06.7,W,D*33$GPZDA,014452.00,24,12,2013,,*65
$GPGGA,014452.00,4003.48365,N,08254.66605,W,2,09,0.87,00249,M,-033,M,,*5C
$GPGLL,4003.48365,N,08254.66605,W,014452.00,A,D*7B
$GPVTG,000.0,T,006.7,M,000.00,N,000.00,K,D*27
$GPGSA,A,3,25,01,29,31,32,14,20,16,23,,,,1.51,0.87,1.23*07
$GPGSV,3,1,10,25,22,043,32,01,06,257,46,29,12,076,36,31,67,026,37*71
$GPGSV,3,2,10,32,61,255,36,14,33,105,39,20,35,299,26,16,23,193,45*7D
$GPGSV,3,3,10,46,43,203,44,23,12,302,45,,,,,,,,*7E
$GPGST,014452.00,,305.82,305.73,085.1,017.49,017.49,017.50*4E
$GPRMC,014452.00,A,4003.48365,N,08254.66605,W,000.00,000.0,241213,06.7,W,D*33
$PTNLRTF,V,A,179108,09,3,4003.48365,N,08254.66605,W,00249,+000.000,+000.000,+000.000,0,1*50
$PTNLRBA,1,1*57
$GPZDA,014454.00,24,12,2013,,*63
$GPGGA,014454.00,4003.48365,N,08254.66603,W,2,08,0.93,00249,M,-033,M,,*58
$GPGLL,4003.48365,N,08254.66603,W,014454.00,A,D*7B
$GPVTG,000.0,T,006.7,M,000.00,N,000.00,K,D*27
$GPGSA,A,3,25,01,29,31,32,14,16,23,,,,,1.56,0.93,1.25*01
$GPGSV,3,1,10,25,22,043,33,01,06,257,45,29,12,076,36,31,67,026,38*7C
$GPGSV,3,2,10,32,61,255,36,14,33,105,39,20,35,299,25,16,23,193,44*7F
$GPGSV,3,3,10,46,43,203,44,23,12,302,44,,,,,,,,*7F
$GPGST,014454.00,,274.17,274.09,085.1,016.56,016.56,016.57*4F
$GPRMC,014454.00,A,4003.48365,N,08254.66603,W,000.00,000.0,241213,06.7,W,D*33
$PTNLRTF,V,A,179110,08,3,4003.48365,N,08254.66603,W,00249,+000.000,+000.000,+000.000,0,1*5E
$PTNLRBA,1,1*57
$GPZDA,014456.00,24,12,2013,,*61
$GPGGA,014456.00,4003.48366,N,08254.66602,W,2,09,0.87,00249,M,-033,M,,*5C
$GPGLL,4003.48366,N,08254.66602,W,014456.00,A,D*7B
$GPVTG,000.0,T,006.7,M,000.00,N,000.00,K,D*27
$GPGSA,A,3,25,01,29,31,32,14,20,16,23,,,,1.51,0.87,1.23*07
$GPGSV,3,1,10,25,22,043,32,01,06,257,45,29,12,076,37,31,67,026,37*73
$GPGSV,3,2,10,32,61,255,35,14,33,105,40,20,35,299,25,16,23,193,44*72
$GPGSV,3,3,10,46,43,203,44,23,12,302,45,,,,,,,,*7E
$GPGST,014456.00,,265.16,265.08,085.1,016.28,016.28,016.30*4C
$GPRMC,014456.00,A,4003.48366,N,08254.66602,W,000.00,000.0,241213,06.7,W,D*33
$PTNLRTF,V,A,179112,09,3,4003.48366,N,08254.66602,W,00249,+000.000,+000.000,+000.000,0,1*5F
$PTNLRBA,1,1*57
$GPZDA,014457.00,24,12,2013,,*60
$GPGGA,014457.00,4003.48368,N,08254.66600,W,2,08,0.94,00249,M,-033,M,,*52
$GPGLL,4003.48368,N,08254.66600,W,014457.00,A,D*76
$GPVTG,000.0,T,006.7,M,000.00,N,000.00,K,D*27
$GPGSA,A,3,25,01,31,32,14,20,16,23,,,,,1.67,0.94,1.38*01
$GPGSV,3,1,10,25,22,043,35,01,06,257,45,29,12,076,37,31,67,026,38*7B
$GPGSV,3,2,10,32,61,255,35,14,33,105,40,20,35,299,26,16,23,193,45*70
$GPGSV,3,3,10,46,43,203,44,23,12,302,43,,,,,,,,*78
$GPGST,014457.00,,256.52,256.44,085.1,016.02,016.01,016.03*46
$GPRMC,014457.00,A,4003.48368,N,08254.66600,W,000.00,000.0,241213,06.7,W,D*3E
$PTNLRTF,V,A,179113,08,3,4003.48368,N,08254.66600,W,00249,+000.000,+000.000,+000.000,0,1*53
$PTNLRBA,1,1*57
$GPZDA,014459.00,24,12,2013,,*6E
$GPGGA,014459.00,4003.48367,N,08254.66598,W,2,08,0.94,00248,M,-033,M,,*50
$GPGLL,4003.48367,N,08254.66598,W,014459.00,A,D*75
$GPVTG,000.0,T,006.7,M,000.00,N,000.00,K,D*27
$GPGSA,A,3,25,01,31,32,14,20,16,23,,,,,1.67,0.94,1.38*01
$GPGSV,3,1,10,25,22,043,31,01,06,257,44,29,12,076,39,31,67,026,38*70
$GPGSV,3,2,10,32,61,255,34,14,33,105,39,20,35,299,27,16,23,193,44*7F
$GPGSV,3,3,10,46,43,203,44,23,12,302,44,,,,,,,,*7F
$GPGST,014459.00,,261.85,261.76,085.2,016.18,016.18,016.19*48
$GPRMC,014459.00,A,4003.48367,N,08254.66598,W,000.00,000.0,241213,06.7,W,D*3D
$PTNLRTF,V,A,179115,08,3,4003.48367,N,08254.66598,W,00248,+000.000,+000.000,+000.000,0,1*59
$PTNLRBA,1,1*57
$GPZDA,014500.00,24,12,2013,,*63
$GPGGA,014500.00,4003.48369,N,08254.66598,W,2,09,0.87,00248,M,-033,M,,*50
$GPGLL,4003.48369,N,08254.66598,W,014500.00,A,D*76
$GPVTG,000.0,T,006.7,M,000.00,N,000.00,K,D*27
$GPGSA,A,3,25,01,29,31,32,14,20,16,23,,,,1.51,0.87,1.23*07
$GPGSV,3,1,10,25,22,043,28,01,06,257,44,29,12,076,38,31,67,026,38*79
$GPGSV,3,2,10,32,61,255,34,14,33,105,40,20,35,299,28,16,23,193,45*7F
$GPGSV,3,3,10,46,43,203,44,23,12,302,43,,,,,,,,*78
$GPGST,014500.00,,278.38,278.30,085.2,016.68,016.68,016.70*4E
$GPRMC,014500.00,A,4003.48369,N,08254.66598,W,000.00,000.0,241213,06.7,W,D*3E
$PTNLRTF,V,A,179116,09,3,4003.48369,N,08254.66598,W,00248,+000.000,+000.000,+000.000,0,1*55
$PTNLRBA,1,1*57
$GPZDA,014502.00,24,12,2013,,*61
$GPGGA,014502.00,4003.48372,N,08254.66599,W,2,09,0.87,00248,M,-033,M,,*59
$GPGLL,4003.48372,N,08254.66599,W,014502.00,A,D*7F
$GPVTG,000.0,T,006.7,M,000.00,N,000.00,K,D*27
$GPGSA,A,3,25,01,29,31,32,14,20,16,23,,,,1.51,0.87,1.23*07
$GPGSV,3,1,10,25,22,043,30,01,06,257,44,29,12,076,38,31,67,026,38*70
$GPGSV,3,2,10,32,61,255,34,14,33,105,41,20,35,299,29,16,23,193,45*7F
$GPGSV,3,3,10,46,43,203,44,23,12,302,42,,,,,,,,*79
$GPGST,014502.00,,279.34,279.25,085.3,016.71,016.71,016.72*47
$GPRMC,014502.00,A,4003.48372,N,08254.66599,W,000.00,000.0,241213,06.7,W,D*37
$PTNLRTF,V,A,179118,09,3,4003.48372,N,08254.66599,W,00248,+000.000,+000.000,+000.000,0,1*50
$PTNLRBA,1,1*57
$GPZDA,014503.00,24,12,2013,,*60
$GPGGA,014503.00,4003.48374,N,08254.66599,W,2,09,0.87,00248,M,-033,M,,*5E
$GPGLL,4003.48374,N,08254.66599,W,014503.00,A,D*78
$GPVTG,000.0,T,006.7,M,000.00,N,000.00,K,D*27
$GPGSA,A,3,25,01,29,31,32,14,20,16,23,,,,1.51,0.87,1.23*07
$GPGSV,3,1,10,25,22,043,28,01,06,257,44,29,12,076,37,31,67,026,38*76
$GPGSV,3,2,10,32,61,255,35,14,33,105,41,20,35,299,28,16,23,193,44*7E
$GPGSV,3,3,10,46,43,203,44,23,12,302,43,,,,,,,,*78
$GPGST,014503.00,,280.94,280.86,085.3,016.76,016.76,016.77*40
$GPRMC,014503.00,A,4003.48374,N,08254.66599,W,000.00,000.0,241213,06.7,W,D*30
$PTNLRTF,V,A,179119,09,3,4003.48374,N,08254.66599,W,00248,+000.000,+000.000,+000.000,0,1*57
$PTNLRBA,1,1*57
$GPZDA,014505.00,24,12,2013,,*66
$GPGGA,014505.00,4003.48378,N,08254.66600,W,2,09,0.87,00248,M,-033,M,,*57
$GPGLL,4003.48378,N,08254.66600,W,014505.00,A,D*71
$GPVTG,000.0,T,006.7,M,000.00,N,000.00,K,D*27
$GPGSA,A,3,25,01,29,31,32,14,20,16,23,,,,1.51,0.87,1.23*07
$GPGSV,3,1,10,25,22,043,30,01,06,257,44,29,12,076,37,31,67,026,38*7F
$GPGSV,3,2,10,32,61,255,35,14,33,105,40,20,35,299,28,16,23,193,45*7E
$GPGSV,3,3,10,46,43,203,45,23,12,302,42,,,,,,,,*78
$GPGST,014505.00,,282.76,282.68,085.3,016.82,016.81,016.83*42
$GPRMC,014505.00,A,4003.48378,N,08254.66600,W,000.00,000.0,241213,06.7,W,D*39
$PTNLRTF,V,A,179121,09,3,4003.48378,N,08254.66600,W,00248,+000.000,+000.000,+000.000,0,1*53
$PTNLRBA,1,1*57
