$GPZDA,015223.00,24,12,2013,,*64
$GPGGA,015223.00,4003.55985,N,08254.65421,W,2,08,0.93,00255,M,-033,M,,*5B
$GPGLL,4003.55985,N,08254.65421,W,015223.00,A,D*75
$GPVTG,004.5,T,011.1,M,002.74,N,005.07,K,D*25
$GPGSA,A,3,25,29,31,32,14,20,16,23,,,,,1.80,0.93,1.54*0F
$GPGSV,3,1,09,25,19,042,45,29,13,073,47,31,64,031,50,32,60,248,49*77
$GPGSV,3,2,09,14,31,108,46,20,37,296,48,16,27,193,47,46,43,203,46*76
$GPGSV,3,3,09,23,15,303,45,,,,,,,,,,,,*44
$GPGST,015223.00,,011.35,011.03,089.1,003.37,003.32,003.44*4D
$GPRMC,015223.00,A,4003.55985,N,08254.65421,W,002.74,004.5,241213,06.7,W,D*3D
$PTNLRTF,V$GPZDA,015226.00,24,12,2013,,*61
$GPGGA,015226.00,4003.56349,N,08254.65387,W,2,08,0.93,00255,M,-033,M,,*5C
$GPGLL,4003.56349,N,08254.65387,W,015226.00,A,D*72
$GPVTG,004.0,T,010.7,M,004.12,N,007.63,K,D*21
$GPGSA,A,3,25,29,31,32,14,20,16,23,,,,,1.80,0.93,1.54*0F
$GPGSV,3,1,09,25,19,042,46,29,13,073,46,31,64,031,49,32,60,248,50*75
$GPGSV,3,2,09,14,31,108,46,20,37,296,49,16,27,193,47,46,43,203,47*76
$GPGSV,3,3,09,23,15,303,46,,,,,,,,,,,,*47
$GPGST,015226.00,,011.06,010.74,088.5,003.33,003.28,003.40*47
$GPRMC,015226.00,A,4003.56349,N,08254.65387,W,004.12,004.0,241213,06.7,W,D*39
$PTNLRTF,V,A,179562,08,3,4003.56349,N,08254.65387,W,00255,+000.150,+002.115,+000.094,0,1*57
$PTNLRBA,1,1*57
$GPZDA,015228.00,24,12,2013,,*6F
$GPGGA,015228.00,4003.56556,N,08254.65366,W,2,08,0.93,00255,M,-033,M,,*55
$GPGLL,4003.56556,N,08254.65366,W,015228.00,A,D*7B
$GPVTG,004.9,T,011.6,M,003.55,N,006.58,K,D*25
$GPGSA,A,3,25,29,31,32,14,20,16,23,,,,,1.80,0.93,1.54*0F
$GPGSV,3,1,09,25,19,042,46,29,13,073,47,31,64,031,49,32,60,248,50*74
$GPGSV,3,2,09,14,31,108,46,20,37,296,48,16,27,193,47,46,43,203,46*76
$GPGSV,3,3,09,23,15,303,46,,,,,,,,,,,,*47
$GPGST,015228.00,,010.07,009.79,088.6,003.17,003.13,003.26*41
$GPRMC,015228.00,A,4003.56556,N,08254.65366,W,003.55,004.9,241213,06.7,W,D*3D
$PTNLRTF,V,A,179564,08,3,4003.56556,N,08254.65366,W,00255,+000.155,+001.821,-000.129,0,1*5F
$PTNLRBA,1,1*57
$GPZDA,015229.00,24,12,2013,,*6E
$GPGGA,015229.00,4003.56647,N,08254.65357,W,2,08,0.93,00255,M,-033,M,,*55
$GPGLL,4003.56647,N,08254.65357,W,015229.00,A,D*7B
$GPVTG,004.5,T,011.2,M,003.26,N,006.04,K,D*20
$GPGSA,A,3,25,29,31,32,14,20,16,23,,,,,1.80,0.93,1.54*0F
$GPGSV,3,1,09,25,19,042,46,29,13,073,45,31,64,031,47,32,60,248,51*79
$GPGSV,3,2,09,14,31,108,47,20,37,296,48,16,27,193,48,46,43,203,46*78
$GPGSV,3,3,09,23,15,303,46,,,,,,,,,,,,*47
$GPGST,015229.00,,009.60,009.33,088.8,003.10,003.05,003.19*45
$GPRMC,015229.00,A,4003.56647,N,08254.65357,W,003.26,004.5,241213,06.7,W,D*35
$PTNLRTF,V,A,179566,08,3,4003.56647,N,08254.65357,W,00255,+000.131,+001.671,-000.083,0,1*54
$PTNLRBA,1,1*57
$GPZDA,015231.00,24,12,2013,,*67
$GPGGA,015231.00,4003.56793,N,08254.65339,W,2,08,0.93,00255,M,-033,M,,*5C
$GPGLL,4003.56793,N,08254.65339,W,015231.00,A,D*72
$GPVTG,005.7,T,012.4,M,002.32,N,004.30,K,D*27
$GPGSA,A,3,25,29,31,32,14,20,16,23,,,,,1.80,0.93,1.54*0F
$GPGSV,3,1,09,25,19,042,44,29,13,073,44,31,64,031,49,32,60,248,50*75
$GPGSV,3,2,09,14,31,108,46,20,37,296,47,16,27,193,48,46,43,203,45*75
$GPGSV,3,3,09,23,15,303,45,,,,,,,,,,,,*44
$GPGST,015231.00,,009.10,008.85,089.0,003.02,002.98,003.12*43
$GPRMC,015231.00,A,4003.56793,N,08254.65339,W,002.32,005.7,241213,06.7,W,D*3B
$PTNLRTF,V,A,179567,08,3,4003.56793,N,08254.65339,W,00255,+000.119,+001.189,-000.028,0,1*5E
$PTNLRBA,1,1*57
$GPZDA,015233.00,24,12,2013,,*65
$GPGGA,015233.00,4003.56971,N,08254.65325,W,2,08,0.93,00255,M,-033,M,,*51
$GPGLL,4003.56971,N,08254.65325,W,015233.00,A,D*7F
$GPVTG,003.8,T,010.5,M,003.71,N,006.86,K,D*24
$GPGSA,A,3,25,29,31,32,14,20,16,23,,,,,1.80,0.93,1.54*0F
$GPGSV,3,1,09,25,19,042,46,29,13,073,45,31,64,031,50,32,60,248,49*76
$GPGSV,3,2,09,14,31,108,47,20,37,296,48,16,27,193,47,46,43,203,46*77
$GPGSV,3,3,09,23,15,303,45,,,,,,,,,,,,*44
$GPGST,015233.00,,008.78,008.52,089.0,002.96,002.92,003.06*47
$GPRMC,015233.00,A,4003.56971,N,08254.65325,W,003.71,003.8,241213,06.7,W,D*39
$PTNLRTF,V,A,179569,08,3,4003.56971,N,08254.65325,W,00255,+000.126,+001.902,-000.028,0,1*58
$PTNLRBA,1,1*57
$GPZDA,015234.00,24,12,2013,,*62
$GPGGA,015234.00,4003.57106,N,08254.65322,W,2,08,0.93,00255,M,-033,M,,*58
$GPGLL,4003.57106,N,08254.65322,W,015234.00,A,D*76
$GPVTG,001.1,T,007.8,M,004.80,N,008.89,K,D*2C
$GPGSA,A,3,25,29,31,32,14,20,16,23,,,,,1.80,0.93,1.54*0F
$GPGSV,3,1,09,25,19,042,46,29,13,073,46,31,64,031,49,32,60,248,50*75
$GPGSV,3,2,09,14,31,108,47,20,37,296,47,16,27,193,47,46,43,203,46*78
$GPGSV,3,3,09,23,15,303,45,,,,,,,,,,,,*44
$GPGST,015234.00,,008.35,008.07,089.8,002.89,002.84,002.99*4F
$GPRMC,015234.00,A,4003.57106,N,08254.65322,W,004.80,001.1,241213,06.7,W,D*32
$PTNLRTF,V,A,179570,08,3,4003.57106,N,08254.65322,W,00255,+000.046,+002.470,+000.058,0,1*53
$PTNLRBA,1,1*57
$GPZDA,015236.00,24,12,2013,,*60
$GPGGA,015236.00,4003.57409,N,08254.65341,W,2,08,0.93,00255,M,-033,M,,*55
$GPGLL,4003.57409,N,08254.65341,W,015236.00,A,D*7B
$GPVTG,355.7,T,002.4,M,005.21,N,009.66,K,D*2B
$GPGSA,A,3,25,29,31,32,14,20,16,23,,,,,1.80,0.93,1.54*0F
$GPGSV,3,1,09,25,19,042,45,29,13,073,46,31,64,031,49,32,60,248,51*77
$GPGSV,3,2,09,14,31,108,45,20,37,296,48,16,27,193,48,46,43,203,45*79
$GPGSV,3,3,09,23,15,303,45,,,,,,,,,,,,*44
$GPGST,015236.00,,008.24,007.97,089.7,002.87,002.82,002.98*4D
$GPRMC,015236.00,A,4003.57409,N,08254.65341,W,005.21,355.7,241213,06.7,W,D*31
$PTNLRTF,V,A,179572,08,3,4003.57409,N,08254.65341,W,00255,-000.203,+002.675,+000.023,0,1*50
$PTNLRBA,1,1*57
$GPZDA,015237.00,24,12,2013,,*61
$GPGGA,015237.00,4003.57533,N,08254.65357,W,2,08,0.93,00255,M,-033,M,,*5B
$GPGLL,4003.57533,N,08254.65357,W,015237.00,A,D*75
$GPVTG,354.2,T,000.9,M,004.50,N,008.33,K,D*26
$GPGSA,A,3,25,29,31,32,14,20,16,23,,,,,1.80,0.93,1.54*0F
$GPGSV,3,1,09,25,19,042,42,29,13,073,45,31,64,031,49,32,60,248,50*72
$GPGSV,3,2,09,14,31,108,45,20,37,296,47,16,27,193,47,46,43,203,45*79
$GPGSV,3,3,09,23,15,303,44,,,,,,,,,,,,*45
$GPGST,015237.00,,007.84,007.57,090.0,002.80,002.75,002.91*4C
$GPRMC,015237.00,A,4003.57533,N,08254.65357,W,004.50,354.2,241213,06.7,W,D*3C
$PTNLRTF,V,A,179573,08,3,4003.57533,N,08254.65357,W,00255,-000.235,+002.302,+000.015,0,1*5B
$PTNLRBA,1,1*57
$GPZDA,015239.00,24,12,2013,,*6F
$GPGGA,015239.00,4003.57721,N,08254.65360,W,2,08,0.93,00256,M,-033,M,,*53
$GPGLL,4003.57721,N,08254.65360,W,015239.00,A,D*7E
$GPVTG,001.8,T,008.5,M,003.00,N,005.56,K,D*27
$GPGSA,A,3,25,29,31,32,14,20,16,23,,,,,1.80,0.93,1.54*0F
$GPGSV,3,1,09,25,19,042,46,29,13,073,47,31,64,031,49,32,60,248,49*7C
$GPGSV,3,2,09,14,31,108,47,20,37,296,47,16,27,193,47,46,43,203,45*7B
$GPGSV,3,3,09,23,15,303,43,,,,,,,,,,,,*42
$GPGST,015239.00,,007.52,007.26,087.9,002.74,002.69,002.86*40
$GPRMC,015239.00,A,4003.57721,N,08254.65360,W,003.00,001.8,241213,06.7,W,D*3C
$PTNLRTF,V,A,179575,08,3,4003.57721,N,08254.65360,W,00256,+000.049,+001.543,-000.111,0,1*57
$PTNLRBA,1,1*57
$GPZDA,015240.00,24,12,2013,,*61
$GPGGA,015240.00,4003.57790,N,08254.65350,W,2,08,0.93,00256,M,-033,M,,*54
$GPGLL,4003.57790,N,08254.65350,W,015240.00,A,D*79
$GPVTG,005.5,T,012.2,M,002.48,N,004.59,K,D*21
$GPGSA,A,3,25,29,31,32,14,20,16,23,,,,,1.80,0.93,1.54*0F
$GPGSV,3,1,09,25,19,042,46,29,13,073,47,31,64,031,50,32,60,248,49*74
$GPGSV,3,2,09,14,31,108,47,20,37,296,47,16,27,193,48,46,43,203,44*75
$GPGSV,3,3,09,23,15,303,45,,,,,,,,,,,,*44
$GPGST,015240.00,,007.50,007.24,087.5,002.74,002.69,002.86*42
$GPRMC,015240.00,A,4003.57790,N,08254.65350,W,002.48,005.5,241213,06.7,W,D*3F
$PTNLRTF,V,A,179576,08,3,4003.57790,N,08254.65350,W,00256,+000.121,+001.268,+000.050,0,1*5E
$PTNLRBA,1,1*57
$GPZDA,015242.00,24,12,2013,,*63
$GPGGA,015242.00,4003.57910,N,08254.65328,W,2,08,0.93,00256,M,-033,M,,*5F
$GPGLL,4003.57910,N,08254.65328,W,015242.00,A,D*72
$GPVTG,009.2,T,015.9,M,002.14,N,003.97,K,D*2A
$GPGSA,A,3,25,29,31,32,14,20,16,23,,,,,1.80,0.93,1.54*0F
$GPGSV,3,1,09,25,19,042,44,29,13,073,46,31,64,031,49,32,60,248,50*77
$GPGSV,3,2,09,14,31,108,47,20,37,296,48,16,27,193,47,46,43,203,45*74
$GPGSV,3,3,09,23,15,303,46,,,,,,,,,,,,*47
$GPGST,015242.00,,007.59,007.35,087.8,002.75,002.71,002.88*42
$GPRMC,015242.00,A,4003.57910,N,08254.65328,W,002.14,009.2,241213,06.7,W,D*36
$PTNLRTF,V,A,179578,08,3,4003.57910,N,08254.65328,W,00256,+000.177,+001.088,-000.185,0,1*59
$PTNLRBA,1,1*57
$GPZDA,015243.00,24,12,2013,,*62
$GPGGA,015243.00,4003.57984,N,08254.65314,W,2,08,0.93,00256,M,-033,M,,*5C
$GPGLL,4003.57984,N,08254.65314,W,015243.00,A,D*71
$GPVTG,007.8,T,014.4,M,002.66,N,004.92,K,D*25
$GPGSA,A,3,25,29,31,32,14,20,16,23,,,,,1.80,0.93,1.54*0F
$GPGSV,3,1,09,25,19,042,45,29,13,073,44,31,64,031,49,32,60,248,50*74
$GPGSV,3,2,09,14,31,108,47,20,37,296,48,16,27,193,49,46,43,203,45*7A
$GPGSV,3,3,09,23,15,303,46,,,,,,,,,,,,*47
$GPGST,015243.00,,007.62,007.39,088.2,002.76,002.72,002.89*43
$GPRMC,015243.00,A,4003.57984,N,08254.65314,W,002.66,007.8,241213,06.7,W,D*34
$PTNLRTF,V,A,179579,08,3,4003.57984,N,08254.65314,W,00256,+000.184,+001.355,-000.073,0,1*5D
$PTNLRBA,1,1*57
$GPZDA,015245.00,24,12,2013,,*64
$GPGGA,015245.00,4003.58060,N,08254.65308,W,2,08,0.93,00256,M,-033,M,,*5B
$GPGLL,4003.58060,N,08254.65308,W,015245.00,A,D*76
$GPVTG,002.2,T,008.9,M,000.50,N,000.92,K,D*29
$GPGSA,A,3,25,29,31,32,14,20,16,23,,,,,1.80,0.93,1.54*0F
$GPGSV,3,1,09,25,19,042,46,29,13,073,46,31,64,031,48,32,60,248,48*7D
$GPGSV,3,2,09,14,31,108,47,20,37,296,48,16,27,193,49,46,43,203,45*7A
$GPGSV,3,3,09,23,15,303,46,,,,,,,,,,,,*47
$GPGST,015245.00,,008.69,008.40,088.1,002.95,002.90,003.06*44
$GPRMC,015245.00,A,4003.58060,N,08254.65308,W,000.50,002.2,241213,06.7,W,D*3B
$PTNLRTF,V,A,179581,08,3,4003.58060,N,08254.65308,W,00256,+000.010,+000.255,-000.044,0,1*53
$PTNLRBA,1,1*57
$GPZDA,015246.00,24,12,2013,,*67
$GPGGA,015246.00,4003.58057,N,08254.65310,W,2,08,0.93,00256,M,-033,M,,*55
$GPGLL,4003.58057,N,08254.65310,W,015246.00,A,D*78
$GPVTG,186.1,T,192.8,M,000.13,N,000.24,K,D*2E
$GPGSA,A,3,25,29,31,32,14,20,16,23,,,,,1.80,0.93,1.54*0F
$GPGSV,3,1,09,25,19,042,45,29,13,073,45,31,64,031,49,32,60,248,50*75
$GPGSV,3,2,09,14,31,108,46,20,37,296,48,16,27,193,49,46,43,203,43*7D
$GPGSV,3,3,09,23,15,303,45,,,,,,,,,,,,*44
$GPGST,015246.00,,008.79,008.51,088.0,002.96,002.92,003.08*48
$GPRMC,015246.00,A,4003.58057,N,08254.65310,W,000.13,186.1,241213,06.7,W,D*3C
$PTNLRTF,V,A,179582,08,3,4003.58057,N,08254.65310,W,00256,-000.007,-000.067,+000.014,0,1*5B
$PTNLRBA,1,1*57
$GPZDA,015248.00,24,12,2013,,*69
$GPGGA,015248.00,4003.58062,N,08254.65314,W,2,08,0.93,00256,M,-033,M,,*59
$GPGLL,4003.58062,N,08254.65314,W,015248.00,A,D*74
$GPVTG,000.0,T,006.7,M,000.00,N,000.00,K,D*27
$GPGSA,A,3,25,29,31,32,14,20,16,23,,,,,1.80,0.93,1.54*0F
$GPGSV,3,1,09,25,19,042,46,29,13,073,45,31,64,031,50,32,60,248,50*7E
$GPGSV,3,2,09,14,31,108,47,20,37,296,47,16,27,193,50,46,43,203,43*7B
$GPGSV,3,3,09,23,15,303,44,,,,,,,,,,,,*45
$GPGST,015248.00,,009.21,008.96,088.2,003.03,