$GPZDA,004917.00,08,03,2014,,*61
$GPGGA,,3919.80689,N,08206.09355,W,7,01,,,,,,,*42
$GPGLL,3919.80689,N,08206.09355,W,,V,M*45
$GPVTG,,,,,,,,,M*33
$GPGSA,A,1,03,,,,,,,,,,,,,,*1D
$GPGSV,3,1,09,03,73,104,41,27,59,072,43,19,59,155,41,11,11,167,34*79
$GPGSV,3,2,09,23,41,193,40,07,43,312,32,08,13,302,30,13,62,243,28*7A
$GPGSV,3,3,09,16,40,051,31,,,,,,,,,,,,*45
$GPRMC,004917.00,V,3919.80689,N,08206.09355,W,,,,,,M*57
$PTNLRTF,V,A,521373,01,0,,,,,,,,,,*4D
$PTNLRBA,1,1*57
$GPZDA,004918.00,08,03,2014,,*6E
$GPGGA,,3919.80689,N,08206.09355,W,7,01,,,,,,,*42
$GPGLL,3919.80689,N,08206.09355,W,,V,M*$GPZDA,004919.00,08,03,2014,,*6F
$GPGGA,,3919.80689,N,08206.09355,W,7,01,,,,,,,*42
$GPGLL,3919.80689,N,08206.09355,W,,V,M*45
$GPVTG,,,,,,,,,M*33
$GPGSA,A,1,03,,,,,,,,,,,,,,*1D
$GPGSV,3,1,09,03,73,104,41,27,59,072,43,19,59,155,40,11,11,167,35*79
$GPGSV,3,2,09,23,41,193,39,07,43,312,32,08,13,302,28,13,62,243,30*74
$GPGSV,3,3,09,16,40,051,31,,,,,,,,,,,,*45
$GPRMC,004919.00,V,3919.80689,N,08206.09355,W,,,,,,M*59
$PTNLRTF,V,A,521375,01,0,,,,,,,,,,*4B
$PTNLRBA,1,1*57
$GPZDA,004920.00,08,03,2014,,*65
$GPGGA,,3919.80689,N,08206.09355,W,7,01,,,,,,,*42
$GPGLL,3919.80689,N,08206.09355,W,,V,M*45
$GPVTG,,,,,,,,,M*33
$GPGSA,A,1,03,,,,,,,,,,,,,,*1D
$GPGSV,3,1,09,03,73,104,41,27,59,072,43,19,59,155,40,11,11,167,35*79
$GPGSV,3,2,09,23,41,193,39,07,43,312,32,08,13,302,27,13,62,243,30*7B
$GPGSV,3,3,09,16,40,051,31,,,,,,,,,,,,*45
$GPRMC,004920.00,V,3919.80689,N,08206.09355,W,,,,,,M*53
$PTNLRTF,V,A,521376,01,0,,,,,,,,,,*48
$PTNLRBA,1,1*57
$GPZDA,004921.00,08,03,2014,,*64
$GPGGA,004921.00,3919.55910,N,08206.44955,W,1,05,5.45,00180,M,-033,M,,*5A
$GPGLL,3919.55910,N,08206.44955,W,004921.00,A,A*7A
$GPVTG,268.6,T,275.8,M,000.5,N,000.8,K,A*2C
$GPGSA,A,3,03,27,19,11,23,,,,,,,,6.79,5.45,4.05*00
$GPGSV,3,1,09,03,73,104,41,27,59,072,43,19,59,155,41,11,11,167,35*78
$GPGSV,3,2,09,23,41,193,39,07,43,312,33,08,13,302,28,13,62,243,30*75
$GPGSV,3,3,09,16,40,051,32,,,,,,,,,,,,*46
$GPGST,004921.00,,706.70,112.27,038.7,027.15,032.90,031.13*43
$GPRMC,004921.00,A,3919.55910,N,08206.44955,W,000.5,268.6,080314,07.2,W,A*00
$PTNLRTF,V,A,521377,05,3,3919.55910,N,08206.44955,W,00180,-000.236,-000.006,-000.008,0,1*5A
$PTNLRBA,1,1*57
$GPZDA,004922.00,08,03,2014,,*67
$GPGGA,004921.00,3919.55207,N,08206.44051,W,1,05,5.45,00192,M,-033,M,,*59
$GPGLL,3919.55207,N,08206.44051,W,004921.00,A,A*7A
$GPVTG,124.1,T,131.3,M,000.4,N,000.7,K,A*26
$GPGSA,A,3,03,27,19,11,23,,,,,,,,6.79,5.45,4.05*00
$GPGSV,3,1,09,03,73,104,41,27,58,072,43,19,59,155,40,11,11,167,35*78
$GPGSV,3,2,09,23,41,193,38,07,43,312,33,08,13,302,28,13,62,243,31*75
$GPGSV,3,3,09,16,40,051,32,,,,,,,,,,,,*46
$GPGST,004921.00,,037.99,061.38,039.6,021.41,025.31,023.91*49
$GPRMC,004921.00,A,3919.55207,N,08206.44051,W,000.4,124.1,080314,07.2,W,A*0D
$PTNLRTF,V,A,521378,05,3,3919.55207,N,08206.44051,W,00192,+000.163,-000.110,+000.011,0,1*5B
$PTNLRBA,1,1*57
$GPZDA,004923.00,08,03,2014,,*66
$GPGGA,004923.00,3919.55212,N,08206.43900,W,1,05,5.45,00192,M,-033,M,,*55
$GPGLL,3919.55212,N,08206.43900,W,004923.00,A,A*76
$GPVTG,104.2,T,111.4,M,000.4,N,000.7,K,A*22
$GPGSA,A,3,03,27,19,11,23,,,,,,,,6.79,5.45,4.05*00
$GPGSV,3,1,09,03,73,104,41,27,58,072,44,19,59,155,41,11,11,167,35*7E
$GPGSV,3,2,09,23,41,193,39,07,43,312,33,08,13,302,28,13,62,243,31*74
$GPGSV,3,3,09,16,40,051,32,,,,,,,,,,,,*46
$GPGST,004923.00,,692.42,043.55,039.6,017.53,020.70,019.54*49
$GPRMC,004923.00,A,3919.55212,N,08206.43900,W,000.4,104.2,080314,07.2,W,A*00
$PTNLRTF,V,A,521379,05,3,3919.55212,N,08206.43900,W,00192,+000.198,-000.050,-000.022,0,1*53
$PTNLRBA,1,1*57
$GPZDA,004925.00,08,03,2014,,*60
$GPGGA,004925.00,3919.55038,N,08206.43254,W,1,05,5.45,00195,M,-033,M,,*54
$GPGLL,3919.55038,N,08206.43254,W,004925.00,A,A*70
$GPVTG,109.5,T,116.7,M,000.5,N,000.9,K,A*23
$GPGSA,A,3,03,27,19,11,23,,,,,,,,6.79,5.45,4.05*00
$GPGSV,3,1,09,03,73,104,42,27,58,072,44,19,59,155,40,11,11,167,37*7E
$GPGSV,3,2,09,23,41,193,39,07,43,312,32,08,13,302,27,13,62,243,32*79
$GPGSV,3,3,09,16,40,051,32,,,,,,,,,,,,*46
$GPGST,004925.00,,414.75,032.62,038.7,013.50,016.28,015.00*47
$GPRMC,004925.00,A,3919.55038,N,08206.43254,W,000.5,109.5,080314,07.2,W,A*0D
$PTNLRTF,V,A,521381,05,3,3919.55038,N,08206.43254,W,00195,+000.224,-000.079,+000.010,0,1*5B
$PTNLRBA,1,1*57
$GPZDA,004926.00,08,03,2014,,*63
$GPGGA,004926.00,3919.54925,N,08206.43096,W,1,05,5.45,00199,M,-033,M,,*53
$GPGLL,3919.54925,N,08206.43096,W,004926.00,A,A*7B
$GPVTG,068.9,T,076.1,M,000.2,N,000.3,K,A*25
$GPGSA,A,3,03,27,19,11,23,,,,,,,,6.79,5.45,4.05*00
$GPGSV,3,1,09,03,73,104,41,27,58,072,44,19,59,155,40,11,11,167,37*7D
$GPGSV,3,2,09,23,41,193,39,07,43,312,33,08,13,302,28,13,62,243,32*77
$GPGSV,3,3,09,16,40,051,32,,,,,,,,,,,,*46
$GPGST,004926.00,,349.79,028.15,038.8,012.43,014.95,013.82*48
$GPRMC,004926.00,A,3919.54925,N,08206.43096,W,000.2,068.9,080314,07.2,W,A*0B
$PTNLRTF,V,A,521382,05,3,3919.54925,N,08206.43096,W,00199,+000.082,+000.032,+000.020,0,1*58
$PTNLRBA,1,1*57
$GPZDA,004928.00,08,03,2014,,*6D
$GPGGA,004928.00,3919.53129,N,08206.40418,W,1,09,1.02,00236,M,-033,M,,*52
$GPGLL,3919.53129,N,08206.40418,W,004928.00,A,A*77
$GPVTG,305.5,T,312.7,M,000.7,N,001.3,K,A*22
$GPGSA,A,3,03,27,19,11,23,07,08,13,16,,,,1.71,1.02,1.37*06
$GPGSV,3,1,09,03,73,104,42,27,58,072,43,19,59,155,38,11,11,167,36*77
$GPGSV,3,2,09,23,41,193,38,07,43,312,32,08,13,302,27,13,62,243,32*78
$GPGSV,3,3,09,16,40,051,31,,,,,,,,,,,,*45
$GPGST,004928.00,,449.83,110.62,039.8,015.80,017.63,016.96*4D
$GPRMC,004928.00,A,3919.53129,N,08206.40418,W,000.7,305.5,080314,07.2,W,A*06
$PTNLRTF,V,A,521384,09,3,3919.53129,N,08206.40418,W,00236,-000.285,+000.204,+000.019,0,1*58
$PTNLRBA,1,1*57
$GPZDA,004929.00,08,03,2014,,*6C
$GPGGA,004929.00,3919.53047,N,08206.40304,W,1,09,1.02,00240,M,-033,M,,*51
$GPGLL,3919.53047,N,08206.40304,W,004929.00,A,A*75
$GPVTG,316.8,T,324.0,M,000.5,N,000.9,K,A*26
$GPGSA,A,3,03,27,19,11,23,07,08,13,16,,,,1.71,1.02,1.37*06
$GPGSV,3,1,09,03,73,104,42,27,58,072,43,19,59,155,38,11,11,167,35*74
$GPGSV,3,2,09,23,41,193,39,07,43,312,32,08,13,302,26,13,62,243,33*79
$GPGSV,3,3,09,16,40,051,32,,,,,,,,,,,,*46
$GPGST,004929.00,,454.49,157.89,039.8,016.72,018.24,017.72*49
$GPRMC,004929.00,A,3919.53047,N,08206.40304,W,000.5,316.8,080314,07.2,W,A*09
$PTNLRTF,V,A,521385,09,3,3919.53047,N,08206.40304,W,00240,-000.176,+000.188,+000.028,0,1*51
$PTNLRBA,1,1*57
$GPZDA,004930.00,08,03,2014,,*64
$GPGGA,004930.00,3919.53026,N,08206.40317,W,1,09,1.02,00241,M,-033,M,,*5D
$GPGLL,3919.53026,N,08206.40317,W,004930.00,A,A*78
$GPVTG,000.0,T,007.2,M,000.0,N,000.0,K,A*26
$GPGSA,A,3,03,27,19,11,23,07,08,13,16,,,,1.71,1.02,1.37*06
$GPGSV,3,1,09,03,73,104,42,27,58,072,44,19,59,155,38,11,11,167,36*70
$GPGSV,3,2,09,23,41,193,39,07,43,312,32,08,13,302,27,13,62,243,32*79
$GPGSV,3,3,09,16,40,051,32,,,,,,,,,,,,*46
$GPGST,004930.00,,436.53,171.71,039.9,016.75,018.10,017.64*4B
$GPRMC,004930.00,A,3919.53026,N,08206.40317,W,000.0,000.0,080314,07.2,W,A*0D
$PTNLRTF,V,A,521387,09,3,3919.53026,N,08206.40317,W,00241,+000.000,+000.000,+000.000,0,1*5A
$PTNLRBA,1,1*57
$GPZDA,004932.00,08,03,2014,,*66
$GPGGA,004932.00,3919.52968,N,08206.40265,W,1,09,1.02,00245,M,-033,M,,*5D
$GPGLL,3919.52968,N,08206.40265,W,004932.00,A,A*7C
$GPVTG,000.0,T,007.2,M,000.0,N,000.0,K,A*26
$GPGSA,A,3,03,27,19,11,23,07,08,13,16,,,,1.71,1.02,1.37*06
$GPGSV,3,1,09,03,73,104,41,27,58,072,43,19,59,155,39,11,11,167,36*75
$GPGSV,3,2,09,23,41,193,38,07,43,312,31,08,13,302,27,13,62,243,33*7A
$GPGSV,3,3,09,16,40,051,31,,,,,,,,,,,,*45
$GPGST,004932.00,,426.73,214.30,039.9,017.37,018.42,018.08*4A
$GPRMC,004932.00,A,3919.52968,N,08206.40265,W,000.0,000.0,080314,07.2,W,A*09
$PTNLRTF,V,A,521388,09,3,3919.52968,N,08206.40265,W,00245,+000.000,+000.000,+000.000,0,1*57
$PTNLRBA,1,1*57
$GPZDA,004933.00,08,03,2014,,*67
$GPGGA,004933.00,3919.52940,N,08206.40270,W,1,09,1.02,00247,M,-033,M,,*50
$GPGLL,3919.52940,N,08206.40270,W,004933.00,A,A*73
$GPVTG,000.0,T,007.2,M,000.0,N,000.0,K,A*26
$GPGSA,A,3,03,27,19,11,23,07,08,13,16,,,,1.71,1.02,1.37*06
$GPGSV,3,1,09,03,73,104,41,27,58,072,44,19,59,155,38,11,11,167,37*72
$GPGSV,3,2,09,23,41,193,38,07,43,312,31,08,13,302,25,13,62,243,32*79
$GPGSV,3,3,09,16,40,051,30,,,,,,,,,,,,*44
$GPGST,004933.00,,425.82,234.85,039.9,017.70,018.64,018.35*43
$GPRMC,004933.00,A,3919.52940,N,08206.40270,W,000.0,000.0,080314,07.2,W,A*06
$PTNLRTF,V,A,521389,09,3,3919.52940,N,08206.40270,W,00247,+000.000,+000.000,+000.000,0,1*5A
$PTNLRBA,1,1*57
