$GPZDA,,,,,,*48
$GPGGA,,3917.26080,N,08203.79546,W,7,00,,,,,,,*48
$GPGLL,3917.26080,N,08203.79546,W,,V,M*4E
$GPVTG,,,,,,,,,M*33
$GPGSA,A,1,,,,,,,,,,,,,,,*1E
$GPGSV,1,1,03,12,05,033,36,32,59,286,43,14,46,088,36,,,,*4D
$GPRMC,,V,3917.26080,N,08203.79546,W,,,,,,M*79
$PTNLRTF,V,A,337053,00,0,,,,,,,,,,*4C
$PTNLRBA,1,1*57
$GPZDA,,,,,,*48
$GPGGA,,3917.26080,N,08203.79546,W,7,00,,,,,,,*48
$GPGLL,3917.26080,N,08203.79546,W,,V,M*4E
$GPVTG,,,,,,,,,M*33
$GPGSA,A,1,,,,,,,,,,,,,,,*1E
$GPGSV,2,1,05,12,05,033,36,32,59,286,44,14,46,088,36,01,14,273,31*7F
$GPGSV,2,2,05,20,25,312,33,,,,,,,,,,,,*49
$GPRMC,,V,3917.26080,N,08203.79546,W,,,,,,M*79
$PTNLRTF,V,A,337055,00,0,,,,,,,,,,*4A
$PTNLRBA,1,1*57
$GPZDA,,,,,,*48
$GPGGA,,3917.26080,N,08203.79546,W,7,00,,,,,,,*48
$GPGLL,3917.26080,N,08203.79546,W,,V,M*4E
$GPVTG,,,,,,,,,M*33
$GPGSA,A,1,,,,,,,,,,,,,,,*1E
$GPGSV,2,1,07,12,05,033,36,32,59,286,43,14,46,088,36,01,14,272,33*79
$GPGSV,2,2,07,20,25,312,34,22,16,160,33,25,35,053,36,,,,*4E
$GPRMC,,V,3917.26080,N,08203.79546,W,,,,,,M*79
$PTNLRTF,V,A,337056,00,0,,,,,,,,,,*49
$PTNLRBA,1,1*57
$GPZDA,,,,,,*48
$GPGGA,,3917.26080,N,08203.79546,W,7,00,,,,,,,*48
$GPGLL,3917.26080,N,08203.79546,W,,V,M*4E
$GPVTG,,,,,,,,,M*33
$GPGSA,A,1,,,,,,,,,,,,,,,*1E
$GPGSV,2,1,07,12,05,033,37,32,59,286,43,14,46,088,36,01,14,272,33*78
$GPGSV,2,2,07,20,25,312,33,22,16,160,36,25,35,053,36,,,,*4C
$GPRMC,,V,3917.26080,N,08203.79546,W,,,,,,M*79
$PTNLRTF,V,A,337057,00,0,,,,,,,,,,*48
$PTNLRBA,1,1*57
$GPZDA,,,,,,*48
$GPGGA,,3917.26080,N,08203.79546,W,7,00,,,,,,,*48
$GPGLL,3917.26080,N,08203.79546,W,,V,M*4E
$GPVTG,,,,,,,,,M*33
$GPGSA,A,1,,,,,,,,,,,,,,,*1E
$GPGSV,2,1,07,12,05,033,37,32,59,286,43,14,46,088,36,01,14,272,34*7F
$GPGSV,2,2,07,20,25,312,33,22,16,160,36,25,35,053,37,,,,*4D
$GPRMC,,V,3917.26080,N,08203.79546,W,,,,,,M*79
$PTNLRTF,V,A,337058,00,0,,,,,,,,,,*47
$PTNLRBA,1,1*57
$GPZDA,,,,,,*48
$GPGGA,,3917.26080,N,08203.79546,W,7,00,,,,,,,*48
$GPGLL,3917.26080,N,08203.79546,W,,V,M*4E
$GPVTG,,,,,,,,,M*33
$GPGSA,A,1,,,,,,,,,,,,,,,*1E
$GPGSV,2,1,07,12,05,033,35,32,59,286,43,14,46,088,38,01,14,272,34*73
$GPGSV,2,2,07,20,25,312,33,22,16,160,36,25,35,053,36,,,,*4C
$GPRMC,,V,3917.26080,N,08203.79546,W,,,,,,M*79
$PTNLRTF,V,A,337059,00,0,,,,,,,,,,*46
$PTNLRBA,1,1*57
$GPZDA,,,,,,*48
$GPGGA,,3917.26080,N,08203.79546,W,7,00,,,,,,,*48
$GPGLL,3917.26080,N,08203.79546,W,,V,M*4E
$GPVTG,,,,,,,,,M*33
$GPGSA,A,1,,,,,,,,,,,,,,,*1E
$GPGSV,2,1,07,12,05,033,35,32,59,286,44,14,46,088,38,01,14,272,35*75
$GPGSV,2,2,07,20,25,312,33,22,16,160,34,25,35,053,35,,,,*4D
$GPRMC,,V,3917.26080,N,08203.79546,W,,,,,,M*79
$PTNLRTF,V,A,337060,00,0,,,,,,,,,,*4C
$PTNLRBA,1,1*57
$GPZDA,,,,,,*48
$GPGGA,,3917.26080,N,08203.79546,W,7,00,,,,,,,*48
$GPGLL,3917.26080,N,08203.79546,W,,V,M*4E
$GPVTG,,,,,,,,,M*33
$GPGSA,A,1,,,,,,,,,,,,,,,*1E
$GPGSV,2,1,07,12,05,033,36,32,59,286,43,14,46,088,38,01,14,272,36*72
$GPGSV,2,2,07,20,25,312,33,22,16,160,35,25,35,053,33,,,,*4A
$GPRMC,,V,3917.26080,N,08203.79546,W,,,,,,M*79
$PTNLRTF,V,A,337061,00,0,,,,,,,,,,*4D
$PTNLRBA,1,1*57
$GPZDA,,,,,,*48
$GPGGA,,3917.26080,N,08203.79546,W,7,00,,,,,,,*48
$GPGLL,3917.26080,N,08203.79546,W,,V,M*4E
$GPVTG,,,,,,,,,M*33
$GPGSA,A,1,,,,,,,,,,,,,,,*1E
$GPGSV,2,1,07,12,05,033,36,32,59,286,44,14,46,088,37,01,14,272,37*7B
$GPGSV,2,2,07,20,25,312,32,22,16,160,35,25,35,053,34,,,,*4C
$GPRMC,,V,3917.26080,N,08203.79546,W,,,,,,M*79
$PTNLRTF,V,A,337062,00,0,,,,,,,,,,*4E
$PTNLRBA,1,1*57
$GPZDA,,,,,,*48
$GPGGA,,3917.26080,N,08203.79546,W,7,00,,,,,,,*48
$GPGLL,3917.26080,N,08203.79546,W,,V,M*4E
$GPVTG,,,,,,,,,M*33
$GPGSA,A,1,,,,,,,,,,,,,,,*1E
$GPGSV,2,1,07,12,05,033,34,32,59,286,44,14,46,088,35,01,14,272,37*7B
$GPGSV,2,2,07,20,25,312,31,22,16,160,35,25,35,053,36,,,,*4D
$GPRMC,,V,3917.26080,N,08203.79546,W,,,,,,M*79
$PTNLRTF,V,A,337063,00,0,,,,,,,,,,*4F
$PTNLRBA,1,1*57
$GPZDA,,,,,,*48
$GPGGA,,3917.26080,N,08203.79546,W,7,00,,,,,,,*48
$GPGLL,3917.26080,N,08203.79546,W,,V,M*4E
$GPVTG,,,,,,,,,M*33
$GPGSA,A,1,,,,,,,,,,,,,,,*1E
$GPGSV,2,1,07,12,05,033,34,32,59,286,44,14,46,088,35,01,14,272,36*7A
$GPGSV,2,2,07,20,25,312,31,22,16,160,35,25,35,053,36,,,,*4D
$GPRMC,,V,3917.26080,N,08203.79546,W,,,,,,M*79
$PTNLRTF,V,A,337064,00,0,,,,,,,,,,*48
$PTNLRBA,1,1*57
$GPZDA,,,,,,*48
$GPGGA,,3917.26080,N,08203.79546,W,7,00,,,,,,,*48
$GPGLL,3917.26080,N,08203.79546,W,,V,M*4E
$GPVTG,,,,,,,,,M*33
$GPGSA,A,1,,,,,,,,,,,,,,,*1E
$GPGSV,2,1,07,12,05,033,35,32,59,286,44,14,46,088,35,01,14,272,37*7A
$GPGSV,2,2,07,20,25,312,30,22,16,160,36,25,35,053,34,,,,*4D
$GPRMC,,V,3917.26080,N,08203.79546,W,,,,,,M*79
$PTNLRTF,V,A,337065,00,0,,,,,,,,,,*49
$PTNLRBA,1,1*57
$GPZDA,,,,,,*48
$GPGGA,,3917.26080,N,08203.79546,W,7,00,,,,,,,*48
$GPGLL,3917.26080,N,08203.79546,W,,V,M*4E
$GPVTG,,,,,,,,,M*33
$GPGSA,A,1,,,,,,,,,,,,,,,*1E
$GPGSV,2,1,07,12,05,033,34,32,59,286,44,14,46,088,36,01,14,272,36*79
$GPGSV,2,2,07,20,25,312,30,22,16,160,33,25,35,053,36,,,,*4A
$GPRMC,,V,3917.26080,N,08203.79546,W,,,,,,M*79
$PTNLRTF,V,A,337066,00,0,,,,,,,,,,*4A
$PTNLRBA,1,1*57
$GPZDA,,,,,,*48
$GPGGA,,3917.26080,N,08203.79546,W,7,00,,,,,,,*48
$GPGLL,3917.26080,N,08203.79546,W,,V,M*4E
$GPVTG,,,,,,,,,M*33
$GPGSA,A,1,,,,,,,,,,,,,,,*1E
$GPGSV,2,1,07,12,05,033,35,32,59,286,44,14,46,088,38,01,14,272,33*73
$GPGSV,2,2,07,20,25,312,29,22,16,160,32,25,35,053,35,,,,*40
$GPRMC,,V,3917.26080,N,08203.79546,W,,,,,,M*79
$PTNLRTF,V,A,337067,00,0,,,,,,,,,,*4B
$PTNLRBA,1,1*57
$GPZDA,,,,,,*48
$GPGGA,,3917.26080,N,08203.79546,W,7,00,,,,,,,*48
$GPGLL,3917.26080,N,08203.79546,W,,V,M*4E
$GPVTG,,,,,,,,,M*33
$GPGSA,A,1,,,,,,,,,,,,,,,*1E
$GPGSV,2,1,08,12,05,033,31,32,59,286,43,14,46,088,39,01,14,272,35*78
$GPGSV,2,2,08,20,25,312,22,22,16,160,37,25,35,053,29,31,77,324,35*7D
$GPRMC,,V,3917.26080,N,08203.79546,W,,,,,,M*79
$PTNLRTF,V,A,337068,00,0,,,,,,,,,,*44
$PTNLRBA,1,1*57
$GPZDA,,,,,,*48
$GPGGA,,3917.26080,N,08203.79546,W,7,00,,,,,,,*48
$GPGLL,3917.26080,N,08203.79546,W,,V,M*4E
$GPVTG,,,,,,,,,M*33
$GPGSA,A,1,,,,,,,,,,,,,,,*1E
$GPGSV,2,1,08,12,05,033,34,32,59,286,39,14,46,088,39,01,14,272,34*71
$GPGSV,2,2,08,20,25,312,26,22,16,160,36,25,35,053,29,31,77,324,40*7A
$GPRMC,,V,3917.26080,N,08203.79546,W,,,,,,M*79
$PTNLRTF,V,A,337069,00,0,,,,,,,,,,*45
$PTNLRBA,1,1*57
$GPZDA,,,,,,*48
$GPGGA,,3917.26080,N,08203.79546,W,7,00,,,,,,,*48
$GPGLL,3917.26080,N,08203.79546,W,,V,M*4E
$GPVTG,,,,,,,,,M*33
$GPGSA,A,1,,,,,,,,,,,,,,,*1E
$GPGSV,2,1,08,12,05,033,29,32,59,286,36,14,46,088,41,01,14,272,26*7E
$GPGSV,2,2,08,20,25,312,32,22,16,160,30,25,35,053,29,31,77,324,27*78
$GPRMC,,V,3917.26080,N,08203.79546,W,,,,,,M*79
$PTNLRTF,V,A,337070,00,0,,,,,,,,,,*4D
$PTNLRBA,1,1*57
$GPZDA,,,,,,*48
$GPGGA,,3917.26080,N,08203.79546,W,7,00,,,,,,,*48
$GPGLL,3917.26080,N,08203.79546,W,,V,M*4E
$GPVTG,,,,,,,,,M*33
$GPGSA,A,1,,,,,,,,,,,,,,,*1E
$GPGSV,2,1,08,12,05,033,38,32,59,286,37,14,46,088,37,01,14,272,30*79
$GPGSV,2,2,08,20,25,312,35,22,16,160,34,25,35,053,35,31,77,324,38*78
$GPRMC,,V,3917.26080,N,08203.79546,W,,,,,,M*79
$PTNLRTF,V,A,337071,00,0,,,,,,,,,,*4C
$PTNLRBA,1,1*57
$GPZDA,,,,,,*48
$GPGGA,,3917.26080,N,08203.79546,W,7,00,,,,,,,*48
$GPGLL,3917.26080,N,08203.79546,W,,V,M*4E
$GPVTG,,,,,,,,,M*33
$GPGSA,A,1,,,,,,,,,,,,,,,*1E
$GPGSV,2,1,08,12,05,033,40,32,59,286,34,14,46,088,33,01,14,272,30*71
$GPGSV,2,2,08,20,25,312,37,22,16,160,35,25,35,053,30,31,77,324,34*72
$GPRMC,,V,3917.26080,N,08203.79546,W,,,,,,M*79
$PTNLRTF,V,A,337072,00,0,,,,,,,,,,*4F
$PTNLRBA,1,1*57
$GPZDA,,,,,,*48
$GPGGA,,3917.26080,N,08203.79546,W,7,00,,,,,,,*48
$GPGLL,3917.26080,N,08203.79546,W,,V,M*4E
$GPVTG,,,,,,,,,M*33
$GPGSA,A,1,,,,,,,,,,,,,,,*1E
$GPGSV,2,1,08,12,05,033,38,32,59,286,41,14,46,088,33,01,14,272,32*7E
$GPGSV,2,2,08,20,25,312,38,22,16,160,33,25,35,053,37,31,77,324,42*7D
$GPRMC,,V,3917.26080,N,08203.79546,W,,,,,,M*79
$PTNLRTF,V,A,337073,00,0,,,,,,,,,,*4E
$PTNLRBA,1,1*57
$GPZDA,,,,,,*48
$GPGGA,,3917.26080,N,08203.79546,W,7,00,,,,,,,*48
$GPGLL,3917.26080,N,08203.79546,W,,V,M*4E
$GPVTG,,,,,,,,,M*33
$GPGSA,A,1,,,,,,,,,,,,,,,*1E
$GPGSV,2,1,08,12,05,033,32,32,59,286,31,14,46,088,29,01,14,272,20*7B
$GPGSV,2,2,08,20,25,312,27,22,16,160,33,25,35,053,30,31,77,324,28*78
$GPRMC,,V,3917.26080,N,08203.79546,W,,,,,,M*79
$PTNLRTF,V,A,337074,00,0,,,,,,,,,,*49
$PTNLRBA,1,1*57
$GPZDA,,,,,,*48
$GPGGA,,3917.26080,N,08203.79546,W,7,00,,,,,,,*48
$GPGLL,3917.26080,N,08203.79546,W,,V,M*4E
$GPVTG,,,,,,,,,M*33
$GPGSA,A,1,,,,,,,,,,,,,,,*1E
$GPGSV,2,1,08,12,05,033,27,32,59,286,29,14,46,088,27,01,14,272,15*7E
$GPGSV,2,2,08,20,25,312,30,22,16,160,29,25,35,053,31,31,77,324,30*7D
$GPRMC,,V,3917.26080,N,08203.79546,W,,,,,,M*79
$PTNLRTF,V,A,337075,00,0,,,,,,,,,,*48
$PTNLRBA,1,1*57
$GPZDA,,,,,,*48
$GPGGA,,3917.26080,N,08203.79546,W,7,00,,,,,,,*48
$GPGLL,3917.26080,N,08203.79546,W,,V,M*4E
$GPVTG,,,,,,,,,M*33
$GPGSA,A,1,,,,,,,,,,,,,,,*1E
$GPGSV,2,1,08,12,05,033,32,32,59,286,24,14,46,088,22,01,14,272,12*75
$GPGSV,2,2,08,20,25,312,32,22,16,160,24,25,35,053,31,31,77,324,26*75
$GPRMC,,V,3917.26080,N,08203.79546,W,,,,,,M*79
$PTNLRTF,V,A,337076,00,0,,,,,,,,,,*4B
$PTNLRBA,1,1*57
$GPZDA,,,,,,*48
$GPGGA,,3917.26080,N,08203.79546,W,7,00,,,,,,,*48
$GPGLL,3917.26080,N,08203.79546,W,,V,M*4E
$GPVTG,,,,,,,,,M*33
$GPGSA,A,1,,,,,,,,,,,,,,,*1E
$GPGSV,2,1,08,12,05,033,28,32,59,286,25,14,46,088,27,01,14,272,11*79
$GPGSV,2,2,08,20,25,312,29,22,16,160,28,25,35,053,29,31,77,324,32*7F
$GPRMC,,V,3917.26080,N,08203.79546,W,,,,,,M*79
$PTNLRTF,V,A,337077,00,0,,,,,,,,,,*4A
$PTNLRBA,1,1*57
$GPZDA,,,,,,*48
$GPGGA,,3917.26080,N,08203.79546,W,7,00,,,,,,,*48
$GPGLL,3917.26080,N,08203.79546,W,,V,M*4E
$GPVTG,,,,,,,,,M*33
$GPGSA,A,1,,,,,,,,,,,,,,,*1E
$GPGSV,2,1,08,12,05,033,30,32,59,286,29,14,46,088,26,01,14,272,06*7B
$GPGSV,2,2,08,20,25,312,26,22,16,160,29,25,35,053,34,31,77,324,33*7C
$GPRMC,,V,3917.26080,N,08203.79546,W,,,,,,M*79
$PTNLRTF,V,A,337078,00,0,,,,,,,,,,*45
$PTNLRBA,1,1*57
$GPZDA,,,,,,*48
$GPGGA,,3917.26080,N,08203.79546,W,7,00,,,,,,,*48
$GPGLL,3917.26080,N,08203.79546,W,,V,M*4E
$GPVTG,,,,,,,,,M*33
$GPGSA,A,1,,,,,,,,,,,,,,,*1E
$GPGSV,2,1,08,12,05,033,26,32,59,286,25,14,46,088,25,01,14,272,18*7C
$GPGSV,2,2,08,20,25,312,25,22,16,160,26,25,35,053,31,31,77,324,30*76
$GPRMC,,V,3917.26080,N,08203.79546,W,,,,,,M*79
$PTNLRTF,V,A,337079,00,0,,,,,,,,,,*44
$PTNLRBA,1,1*57
$GPZDA,,,,,,*48
$GPGGA,,3917.26080,N,08203.79546,W,7,00,,,,,,,*48
$GPGLL,3917.26080,N,08203.79546,W,,V,M*4E
$GPVTG,,,,,,,,,M*33
$GPGSA,A,1,,,,,,,,,,,,,,,*1E
$GPGSV,2,1,08,12,05,033,28,32,59,286,33,14,46,088,19,01,14,272,21*70
$GPGSV,2,2,08,20,25,312,26,22,16,160,28,25,35,053,34,31,77,324,34*7A
$GPRMC,,V,3917.26080,N,08203.79546,W,,,,,,M*79
$PTNLRTF,V,A,337080,00,0,,,,,,,,,,*42
$PTNLRBA,1,1*57
$GPZDA,,,,,,*48
$GPGGA,,3917.26080,N,08203.79546,W,7,00,,,,,,,*48
$GPGLL,3917.26080,N,08203.79546,W,,V,M*4E
$GPVTG,,,,,,,,,M*33
$GPGSA,A,1,,,,,,,,,,,,,,,*1E
$GPGSV,2,1,08,12,05,033,31,32,59,286,37,14,46,088,18,01,14,272,22*7E
$GPGSV,2,2,08,20,25,312,28,22,16,160,23,25,35,053,37,31,77,324,38*70
$GPRMC,,V,3917.26080,N,08203.79546,W,,,,,,M*79
$PTNLRTF,V,A,337081,00,0,,,,,,,,,,*43
$PTNLRBA,1,1*57
$GPZDA,,,,,,*48
$GPGGA,,3917.26080,N,08203.79546,W,7,00,,,,,,,*48
$GPGLL,3917.26080,N,08203.79546,W,,V,M*4E
$GPVTG,,,,,,,,,M*33
$GPGSA,A,1,,,,,,,,,,,,,,,*1E
$GPGSV,2,1,08,12,05,033,24,32,59,286,37,14,46,088,25,01,14,272,19*7C
$GPGSV,2,2,08,20,25,312,34,22,16,160,26,25,35,053,31,31,77,324,38*7E
$GPRMC,,V,3917.26080,N,08203.79546,W,,,,,,M*79
$PTNLRTF,V,A,337082,00,0,,,,,,,,,,*40
$PTNLRBA,1,1*57
$GPZDA,,,,,,*48
$GPGGA,,3917.26080,N,08203.79546,W,7,00,,,,,,,*48
$GPGLL,3917.26080,N,08203.79546,W,,V,M*4E
$GPVTG,,,,,,,,,M*33
$GPGSA,A,1,,,,,,,,,,,,,,,*1E
$GPGSV,2,1,08,12,05,033,35,32,59,286,44,14,46,088,30,01,14,272,20*76
$GPGSV,2,2,08,20,25,312,37,22,16,160,34,25,35,053,34,31,77,324,48*7C
$GPRMC,,V,3917.26080,N,08203.79546,W,,,,,,M*79
$PTNLRTF,V,A,337083,00,0,,,,,,,,,,*41
$PTNLRBA,1,1*57
$GPZDA,,,,,,*48
$GPGGA,,3917.26080,N,08203.79546,W,7,00,,,,,,,*48
$GPGLL,3917.26080,N,08203.79546,W,,V,M*4E
$GPVTG,,,,,,,,,M*33
$GPGSA,A,1,,,,,,,,,,,,,,,*1E
$GPGSV,2,1,08,12,05,033,30,32,59,286,43,14,46,088,32,01,14,272,18*7D
$GPGSV,2,2,08,20,25,312,32,22,16,160,33,25,35,053,33,31,77,324,46*77
$GPRMC,,V,3917.26080,N,08203.79546,W,,,,,,M*79
$PTNLRTF,V,A,337084,00,0,,,,,,,,,,*46
$PTNLRBA,1,1*57
$GPZDA,,,,,,*48
$GPGGA,,3917.26080,N,08203.79546,W,7,00,,,,,,,*48
$GPGLL,3917.26080,N,08203.79546,W,,V,M*4E
$GPVTG,,,,,,,,,M*33
$GPGSA,A,1,,,,,,,,,,,,,,,*1E
$GPGSV,2,1,08,12,04,033,24,32,60,286,34,14,45,088,27,01,14,272,13*7F
$GPGSV,2,2,08,20,25,312,28,22,16,160,24,25,35,053,27,31,77,325,38*77
$GPRMC,,V,3917.26080,N,08203.79546,W,,,,,,M*79
$PTNLRTF,V,A,337085,00,0,,,,,,,,,,*47
$PTNLRBA,1,1*57
$GPZDA,,,,,,*48
$GPGGA,,3917.26080,N,08203.79546,W,7,00,,,,,,,*48
$GPGLL,3917.26080,N,08203.79546,W,,V,M*4E
$GPVTG,,,,,,,,,M*33
$GPGSA,A,1,,,,,,,,,,,,,,,*1E
$GPGSV,2,1,08,12,04,033,28,32,60,286,38,14,45,088,31,01,14,272,19*72
$GPGSV,2,2,08,20,25,312,29,22,16,160,31,25,35,053,34,31,77,325,40*7F
$GPRMC,,V,3917.26080,N,08203.79546,W,,,,,,M*79
$PTNLRTF,V,A,337086,00,0,,,,,,,,,,*44
$PTNLRBA,1,1*57
$GPZDA,213751.00,12,02,2014,,*63
$GPGGA,,3917.26080,N,08203.79546,W,7,01,,,,,,,*49
$GPGLL,3917.26080,N,08203.79546,W,,V,M*4E
$GPVTG,,,,,,,,,M*33
$GPGSA,A,1,32,,,,,,,,,,,,,,*1F
$GPGSV,2,1,08,12,04,033,32,32,60,286,41,14,45,088,24,01,14,272,22*7B
$GPGSV,2,2,08,20,25,312,36,22,16,160,33,25,35,053,38,31,77,325,44*7B
$GPRMC,213751.00,V,3917.26080,N,08203.79546,W,,,,,,M*54
$PTNLRTF,V,A,337087,01,0,,,,,,,,,,*44
$PTNLRBA,1,1*57
$GPZDA,213752.00,12,02,2014,,*60
$GPGGA,,3917.26080,N,08203.79546,W,7,01,,,,,,,*49
$GPGLL,3917.26080,N,08203.79546,W,,V,M*4E
$GPVTG,,,,,,,,,M*33
$GPGSA,A,1,32,,,,,,,,,,,,,,*1F
$GPGSV,2,1,08,12,04,033,32,32,60,286,39,14,45,088,29,01,14,272,20*7B
$GPGSV,2,2,08,20,25,312,36,22,16,160,32,25,35,053,42,31,77,325,44*77
$GPRMC,213752.00,V,3917.26080,N,08203.79546,W,,,,,,M*57
$PTNLRTF,V,A,337088,01,0,,,,,,,,,,*4B
$PTNLRBA,1,1*57
$GPZDA,213753.00,12,02,2014,,*61
$GPGGA,,3917.26080,N,08203.79546,W,7,01,,,,,,,*49
$GPGLL,3917.26080,N,08203.79546,W,,V,M*4E
$GPVTG,,,,,,,,,M*33
$GPGSA,A,1,32,,,,,,,,,,,,,,*1F
$GPGSV,2,1,08,12,04,033,29,32,60,286,40,14,45,088,26,01,14,272,25*75
$GPGSV,2,2,08,20,25,312,37,22,16,160,35,25,35,053,39,31,77,325,46*7F
$GPRMC,213753.00,V,3917.26080,N,08203.79546,W,,,,,,M*56
$PTNLRTF,V,A,337089,01,0,,,,,,,,,,*4A
$PTNLRBA,1,1*57
$GPZDA,213754.00,12,02,2014,,*66
$GPGGA,,3917.26080,N,08203.79546,W,7,01,,,,,,,*49
$GPGLL,3917.26080,N,08203.79546,W,,V,M*4E
$GPVTG,,,,,,,,,M*33
$GPGSA,A,1,32,,,,,,,,,,,,,,*1F
$GPGSV,2,1,08,12,04,033,27,32,60,286,41,14,45,088,29,01,14,272,25*75
$GPGSV,2,2,08,20,25,312,35,22,16,160,30,25,35,053,37,31,77,325,43*73
$GPRMC,213754.00,V,3917.26080,N,08203.79546,W,,,,,,M*51
$PTNLRTF,V,A,337090,01,0,,,,,,,,,,*42
$PTNLRBA,1,1*57
$GPZDA,213755.00,12,02,2014,,*67
$GPGGA,,3917.26080,N,08203.79546,W,7,01,,,,,,,*49
$GPGLL,3917.26080,N,08203.79546,W,,V,M*4E
$GPVTG,,,,,,,,,M*33
$GPGSA,A,1,32,,,,,,,,,,,,,,*1F
$GPGSV,2,1,08,12,04,033,18,32,60,286,39,14,45,088,26,01,14,272,15*7A
$GPGSV,2,2,08,20,25,312,31,22,16,160,27,25,35,053,34,31,77,325,38*7E
$GPRMC,213755.00,V,3917.26080,N,08203.79546,W,,,,,,M*50
$PTNLRTF,V,A,337091,01,0,,,,,,,,,,*43
$PTNLRBA,1,1*57
$GPZDA,213756.00,12,02,2014,,*64
$GPGGA,,3917.26080,N,08203.79546,W,7,01,,,,,,,*49
$GPGLL,3917.26080,N,08203.79546,W,,V,M*4E
$GPVTG,,,,,,,,,M*33
$GPGSA,A,1,32,,,,,,,,,,,,,,*1F
$GPGSV,2,1,08,12,04,033,22,32,60,286,39,14,45,088,28,01,14,272,21*7A
$GPGSV,2,2,08,20,25,312,32,22,16,160,23,25,35,053,32,31,77,325,42*72
$GPRMC,213756.00,V,3917.26080,N,08203.79546,W,,,,,,M*53
$PTNLRTF,V,A,337092,01,0,,,,,,,,,,*40
$PTNLRBA,1,1*57
$GPZDA,213757.00,12,02,2014,,*65
$GPGGA,,3917.26080,N,08203.79546,W,7,01,,,,,,,*49
$GPGLL,3917.26080,N,08203.79546,W,,V,M*4E
$GPVTG,,,,,,,,,M*33
$GPGSA,A,1,32,,,,,,,,,,,,,,*1F
$GPGSV,2,1,08,12,04,033,25,32,60,286,43,14,45,088,28,01,14,272,26*77
$GPGSV,2,2,08,20,25,312,26,22,16,160,24,25,35,053,31,31,77,325,44*75
$GPRMC,213757.00,V,3917.26080,N,08203.79546,W,,,,,,M*52
$PTNLRTF,V,A,337093,01,0,,,,,,,,,,*41
$PTNLRBA,1,1*57
$GPZDA,213758.00,12,02,2014,,*6A
$GPGGA,,3917.26080,N,08203.79546,W,7,01,,,,,,,*49
$GPGLL,3917.26080,N,08203.79546,W,,V,M*4E
$GPVTG,,,,,,,,,M*33
$GPGSA,A,1,32,,,,,,,,,,,,,,*1F
$GPGSV,2,1,08,12,04,033,30,32,60,286,40,14,45,088,25,01,14,272,29*72
$GPGSV,2,2,08,20,25,312,29,22,16,160,29,25,35,053,38,31,77,325,43*79
$GPRMC,213758.00,V,3917.26080,N,08203.79546,W,,,,,,M*5D
$PTNLRTF,V,A,337094,01,0,,,,,,,,,,*46
$PTNLRBA,1,1*57
$GPZDA,213759.00,12,02,2014,,*6B
$GPGGA,,3917.26080,N,08203.79546,W,7,01,,,,,,,*49
$GPGLL,3917.26080,N,08203.79546,W,,V,M*4E
$GPVTG,,,,,,,,,M*33
$GPGSA,A,1,32,,,,,,,,,,,,,,*1F
$GPGSV,2,1,08,12,04,033,31,32,60,286,45,14,45,088,33,01,14,272,25*7D
$GPGSV,2,2,08,20,25,312,35,22,16,160,37,25,35,053,35,31,77,325,46*73
$GPRMC,213759.00,V,3917.26080,N,08203.79546,W,,,,,,M*5C
$PTNLRTF,V,A,337095,01,0,,,,,,,,,,*47
$PTNLRBA,1,1*57
$GPZDA,213800.00,12,02,2014,,*68
$GPGGA,,3917.26080,N,08203.79546,W,7,01,,,,,,,*49
$GPGLL,3917.26080,N,08203.79546,W,,V,M*4E
$GPVTG,,,,,,,,,M*33
$GPGSA,A,1,32,,,,,,,,,,,,,,*1F
$GPGSV,2,1,08,12,04,033,35,32,60,286,47,14,45,088,34,01,14,272,18*72
$GPGSV,2,2,08,20,25,312,39,22,16,160,38,25,35,053,39,31,77,325,46*7C
$GPRMC,213800.00,V,3917.26080,N,08203.79546,W,,,,,,M*5F
$PTNLRTF,V,A,337096,01,0,,,,,,,,,,*44
$PTNLRBA,1,1*57
$GPZDA,213801.00,12,02,2014,,*69
$GPGGA,,3917.26080,N,08203.79546,W,7,01,,,,,,,*49
$GPGLL,3917.26080,N,08203.79546,W,,V,M*4E
$GPVTG,,,,,,,,,M*33
$GPGSA,A,1,32,,,,,,,,,,,,,,*1F
$GPGSV,2,1,08,12,04,033,33,32,60,286,46,14,45,088,35,01,14,272,26*79
$GPGSV,2,2,08,20,25,312,35,22,16,160,36,25,35,053,33,31,77,325,46*74
$GPRMC,213801.00,V,3917.26080,N,08203.79546,W,,,,,,M*5E
$PTNLRTF,V,A,337097,01,0,,,,,,,,,,*45
$PTNLRBA,1,1*57
$GPZDA,213802.00,12,02,2014,,*6A
$GPGGA,,3917.26080,N,08203.79546,W,7,01,,,,,,,*49
$GPGLL,3917.26080,N,08203.79546,W,,V,M*4E
$GPVTG,,,,,,,,,M*33
$GPGSA,A,1,32,,,,,,,,,,,,,,*1F
$GPGSV,2,1,08,12,04,033,37,32,60,286,47,14,45,088,34,01,14,272,27*7C
$GPGSV,2,2,08,20,25,312,36,22,16,160,34,25,35,053,34,31,77,325,46*72
$GPRMC,213802.00,V,3917.26080,N,08203.79546,W,,,,,,M*5D
$PTNLRTF,V,A,337098,01,0,,,,,,,,,,*4A
$PTNLRBA,1,1*57
$GPZDA,213803.00,12,02,2014,,*6B
$GPGGA,,3917.26080,N,08203.79546,W,7,01,,,,,,,*49
$GPGLL,3917.26080,N,08203.79546,W,,V,M*4E
$GPVTG,,,,,,,,,M*33
$GPGSA,A,1,32,,,,,,,,,,,,,,*1F
$GPGSV,2,1,08,12,04,033,33,32,60,286,43,14,45,088,35,01,14,272,28*72
$GPGSV,2,2,08,20,25,312,35,22,16,160,41,25,35,053,35,31,77,325,43*77
$GPRMC,213803.00,V,3917.26080,N,08203.79546,W,,,,,,M*5C
$PTNLRTF,V,A,337099,01,0,,,,,,,,,,*4B
$PTNLRBA,1,1*57
$GPZDA,213804.00,12,02,2014,,*6C
$GPGGA,,3917.26080,N,08203.79546,W,7,01,,,,,,,*49
$GPGLL,3917.26080,N,08203.79546,W,,V,M*4E
$GPVTG,,,,,,,,,M*33
$GPGSA,A,1,32,,,,,,,,,,,,,,*1F
$GPGSV,2,1,08,12,04,033,28,32,60,286,45,14,45,088,40,01,14,272,28*7C
$GPGSV,2,2,08,20,25,312,32,22,16,160,42,25,35,053,35,31,77,325,39*7E
$GPRMC,213804.00,V,3917.26080,N,08203.79546,W,,,,,,M*5B
$PTNLRTF,V,A,337100,01,0,,,,,,,,,,*4A
$PTNLRBA,1,1*57
$GPZDA,213805.00,12,02,2014,,*6D
$GPGGA,,3917.26080,N,08203.79546,W,7,01,,,,,,,*49
$GPGLL,3917.26080,N,08203.79546,W,,V,M*4E
$GPVTG,,,,,,,,,M*33
$GPGSA,A,1,32,,,,,,,,,,,,,,*1F
$GPGSV,2,1,08,12,04,033,29,32,60,286,45,14,45,088,30,01,14,272,27*75
$GPGSV,2,2,08,20,25,312,33,22,16,160,32,25,35,053,36,31,77,325,35*77
$GPRMC,213805.00,V,3917.26080,N,08203.79546,W,,,,,,M*5A
$PTNLRTF,V,A,337101,01,0,,,,,,,,,,*4B
$PTNLRBA,1,1*57
$GPZDA,213806.00,12,02,2014,,*6E
$GPGGA,,3917.26080,N,08203.79546,W,7,01,,,,,,,*49
$GPGLL,3917.26080,N,08203.79546,W,,V,M*4E
$GPVTG,,,,,,,,,M*33
$GPGSA,A,1,32,,,,,,,,,,,,,,*1F
$GPGSV,2,1,08,12,04,033,33,32,60,286,43,14,45,088,32,01,14,272,21*7C
$GPGSV,2,2,08,20,25,312,36,22,16,160,28,25,35,053,38,31,77,325,35*77
$GPRMC,213806.00,V,3917.26080,N,08203.79546,W,,,,,,M*59
$PTNLRTF,V,A,337102,01,0,,,,,,,,,,*48
$PTNLRBA,1,1*57
$GPZDA,213807.00,12,02,2014,,*6F
$GPGGA,,3917.26080,N,08203.79546,W,7,01,,,,,,,*49
$GPGLL,3917.26080,N,08203.79546,W,,V,M*4E
$GPVTG,,,,,,,,,M*33
$GPGSA,A,1,32,,,,,,,,,,,,,,*1F
$GPGSV,2,1,08,12,04,033,31,32,60,286,43,14,45,088,33,01,14,272,22*7C
$GPGSV,2,2,08,20,25,312,35,22,16,160,25,25,35,053,39,31,77,325,34*79
$GPRMC,213807.00,V,3917.26080,N,08203.79546,W,,,,,,M*58
$PTNLRTF,V,A,337103,01,0,,,,,,,,,,*49
$PTNLRBA,1,1*57
$GPZDA,213808.00,12,02,2014,,*60
$GPGGA,,3917.26080,N,08203.79546,W,7,01,,,,,,,*49
$GPGLL,3917.26080,N,08203.79546,W,,V,M*4E
$GPVTG,,,,,,,,,M*33
$GPGSA,A,1,32,,,,,,,,,,,,,,*1F
$GPGSV,2,1,08,12,04,033,32,32,60,286,42,14,45,088,37,01,14,272,20*78
$GPGSV,2,2,08,20,25,312,33,22,16,160,32,25,35,053,38,31,77,325,31*7D
$GPRMC,213808.00,V,3917.26080,N,08203.79546,W,,,,,,M*57
$PTNLRTF,V,A,337104,01,0,,,,,,,,,,*4E
$PTNLRBA,1,1*57
$GPZDA,213809.00,12,02,2014,,*61
$GPGGA,,3917.26080,N,08203.79546,W,7,01,,,,,,,*49
$GPGLL,3917.26080,N,08203.79546,W,,V,M*4E
$GPVTG,,,,,,,,,M*33
$GPGSA,A,1,32,,,,,,,,,,,,,,*1F
$GPGSV,2,1,08,12,04,033,34,32,60,286,40,14,45,088,34,01,14,272,17*7B
$GPGSV,2,2,08,20,25,312,32,22,16,160,31,25,35,053,32,31,77,325,32*76
$GPRMC,213809.00,V,3917.26080,N,08203.79546,W,,,,,,M*56
$PTNLRTF,V,A,337105,01,0,,,,,,,,,,*4F
$PTNLRBA,1,1*57
$GPZDA,213810.00,12,02,2014,,*69
$GPGGA,,3917.26080,N,08203.79546,W,7,01,,,,,,,*49
$GPGLL,3917.26080,N,08203.79546,W,,V,M*4E
$GPVTG,,,,,,,,,M*33
$GPGSA,A,1,32,,,,,,,,,,,,,,*1F
$GPGSV,2,1,08,12,04,033,32,32,60,286,41,14,45,088,36,01,14,272,16*7F
$GPGSV,2,2,08,20,25,312,31,22,16,160,33,25,35,053,35,31,77,325,32*70
$GPRMC,213810.00,V,3917.26080,N,08203.79546,W,,,,,,M*5E
$PTNLRTF,V,A,337106,01,0,,,,,,,,,,*4C
$PTNLRBA,1,1*57
$GPZDA,213811.00,12,02,2014,,*68
$GPGGA,,3917.26080,N,08203.79546,W,7,01,,,,,,,*49
$GPGLL,3917.26080,N,08203.79546,W,,V,M*4E
$GPVTG,,,,,,,,,M*33
$GPGSA,A,1,32,,,,,,,,,,,,,,*1F
$GPGSV,2,1,08,12,04,033,27,32,60,286,41,14,45,088,37,01,14,272,27*78
$GPGSV,2,2,08,20,25,312,35,22,16,160,39,25,35,053,32,31,77,325,33*78
$GPRMC,213811.00,V,3917.26080,N,08203.79546,W,,,,,,M*5F
$PTNLRTF,V,A,337107,01,0,,,,,,,,,,*4D
$PTNLRBA,1,1*57
$GPZDA,213812.00,12,02,2014,,*6B
$GPGGA,,3917.26080,N,08203.79546,W,7,01,,,,,,,*49
$GPGLL,3917.26080,N,08203.79546,W,,V,M*4E
$GPVTG,,,,,,,,,M*33
$GPGSA,A,1,32,,,,,,,,,,,,,,*1F
$GPGSV,2,1,08,12,04,033,32,32,60,286,44,14,45,088,38,01,14,272,22*73
$GPGSV,2,2,08,20,25,312,28,22,16,160,37,25,35,053,35,31,77,325,38*76
$GPRMC,213812.00,V,3917.26080,N,08203.79546,W,,,,,,M*5C
$PTNLRTF,V,A,337108,01,0,,,,,,,,,,*42
$PTNLRBA,1,1*57
$GPZDA,213813.00,12,02,2014,,*6A
$GPGGA,,3917.26080,N,08203.79546,W,7,01,,,,,,,*49
$GPGLL,3917.26080,N,08203.79546,W,,V,M*4E
$GPVTG,,,,,,,,,M*33
$GPGSA,A,1,32,,,,,,,,,,,,,,*1F
$GPGSV,2,1,08,12,04,033,33,32,60,286,42,14,45,088,38,01,14,272,17*72
$GPGSV,2,2,08,20,25,312,31,22,16,160,33,25,35,053,35,31,77,325,36*74
$GPRMC,213813.00,V,3917.26080,N,08203.79546,W,,,,,,M*5D
$PTNLRTF,V,A,337109,01,0,,,,,,,,,,*43
$PTNLRBA,1,1*57
$GPZDA,213814.00,12,02,2014,,*6D
$GPGGA,,3917.26080,N,08203.79546,W,7,01,,,,,,,*49
$GPGLL,3917.26080,N,08203.79546,W,,V,M*4E
$GPVTG,,,,,,,,,M*33
$GPGSA,A,1,32,,,,,,,,,,,,,,*1F
$GPGSV,2,1,08,12,04,033,27,32,60,286,40,14,45,088,45,01,14,272,22*79
$GPGSV,2,2,08,20,25,312,21,22,16,160,36,25,35,053,32,31,77,325,30*71
$GPRMC,213814.00,V,3917.26080,N,08203.79546,W,,,,,,M*5A
$PTNLRTF,V,A,337110,01,0,,,,,,,,,,*4B
$PTNLRBA,1,1*57
$GPZDA,213815.00,12,02,2014,,*6C
$GPGGA,,3917.26080,N,08203.79546,W,7,01,,,,,,,*49
$GPGLL,3917.26080,N,08203.79546,W,,V,M*4E
$GPVTG,,,,,,,,,M*33
$GPGSA,A,1,32,,,,,,,,,,,,,,*1F
$GPGSV,2,1,08,12,04,033,25,32,60,286,41,14,45,088,45,01,14,272,09*73
$GPGSV,2,2,08,20,25,312,26,22,16,160,34,25,35,053,36,31,77,325,29*78
$GPRMC,213815.00,V,3917.26080,N,08203.79546,W,,,,,,M*5B
$PTNLRTF,V,A,337111,01,0,,,,,,,,,,*4A
$PTNLRBA,1,1*57
$GPZDA,213816.00,12,02,2014,,*6F
$GPGGA,,3917.26080,N,08203.79546,W,7,01,,,,,,,*49
$GPGLL,3917.26080,N,08203.79546,W,,V,M*4E
$GPVTG,,,,,,,,,M*33
$GPGSA,A,1,32,,,,,,,,,,,,,,*1F
$GPGSV,2,1,08,12,04,033,26,32,60,286,44,14,45,088,40,01,14,272,07*7E
$GPGSV,2,2,08,20,25,312,31,22,16,160,33,25,35,053,37,31,77,325,34*74
$GPRMC,213816.00,V,3917.26080,N,08203.79546,W,,,,,,M*58
$PTNLRTF,V,A,337112,01,0,,,,,,,,,,*49
$PTNLRBA,1,1*57
$GPZDA,213817.00,12,02,2014,,*6E
$GPGGA,,3917.26080,N,08203.79546,W,7,01,,,,,,,*49
$GPGLL,3917.26080,N,08203.79546,W,,V,M*4E
$GPVTG,,,,,,,,,M*33
$GPGSA,A,1,32,,,,,,,,,,,,,,*1F
$GPGSV,2,1,08,12,04,033,29,32,60,286,48,14,45,088,36,01,14,272,30*78
$GPGSV,2,2,08,20,25,312,33,22,16,160,28,25,35,053,30,31,77,325,42*7A
$GPRMC,213817.00,V,3917.26080,N,08203.79546,W,,,,,,M*59
$PTNLRTF,V,A,337113,01,0,,,,,,,,,,*48
$PTNLRBA,1,1*57
$GPZDA,213818.00,12,02,2014,,*61
$GPGGA,,3917.26080,N,08203.79546,W,7,01,,,,,,,*49
$GPGLL,3917.26080,N,08203.79546,W,,V,M*4E
$GPVTG,,,,,,,,,M*33
$GPGSA,A,1,32,,,,,,,,,,,,,,*1F
$GPGSV,2,1,08,12,04,033,30,32,60,286,49,14,45,088,41,01,14,272,34*75
$GPGSV,2,2,08,20,25,312,31,22,16,160,32,25,35,053,29,31,77,325,43*7A
$GPRMC,213818.00,V,3917.26080,N,08203.79546,W,,,,,,M*56
$PTNLRTF,V,A,337114,01,0,,,,,,,,,,*4F
$PTNLRBA,1,1*57
$GPZDA,213819.00,12,02,2014,,*60
$GPGGA,,3917.26080,N,08203.79546,W,7,01,,,,,,,*49
$GPGLL,3917.26080,N,08203.79546,W,,V,M*4E
$GPVTG,,,,,,,,,M*33
$GPGSA,A,1,32,,,,,,,,,,,,,,*1F
$GPGSV,2,1,08,12,04,033,30,32,60,286,47,14,45,088,37,01,14,272,34*7A
$GPGSV,2,2,08,20,25,312,39,22,16,160,32,25,35,053,29,31,77,325,43*72
$GPRMC,213819.00,V,3917.26080,N,08203.79546,W,,,,,,M*57
$PTNLRTF,V,A,337115,01,0,,,,,,,,,,*4E
$PTNLRBA,1,1*57
$GPZDA,213820.00,12,02,2014,,*6A
$GPGGA,,3917.26080,N,08203.79546,W,7,01,,,,,,,*49
$GPGLL,3917.26080,N,08203.79546,W,,V,M*4E
$GPVTG,,,,,,,,,M*33
$GPGSA,A,1,32,,,,,,,,,,,,,,*1F
$GPGSV,2,1,08,12,04,033,35,32,60,286,47,14,45,088,37,01,14,272,30*7B
$GPGSV,2,2,08,20,25,312,37,22,16,160,33,25,35,053,36,31,77,325,47*77
$GPRMC,213820.00,V,3917.26080,N,08203.79546,W,,,,,,M*5D
$PTNLRTF,V,A,337116,01,0,,,,,,,,,,*4D
$PTNLRBA,1,1*57
$GPZDA,213821.00,12,02,2014,,*6B
$GPGGA,,3917.26080,N,08203.79546,W,7,02,,,,,,,*4A
$GPGLL,3917.26080,N,08203.79546,W,,V,M*4E
$GPVTG,,,,,,,,,M*33
$GPGSA,A,1,32,31,,,,,,,,,,,,,*1D
$GPGSV,2,1,08,12,04,033,36,32,60,286,44,14,45,088,40,01,14,272,30*7B
$GPGSV,2,2,08,20,25,312,38,22,16,160,35,25,35,053,40,31,77,325,50*79
$GPRMC,213821.00,V,3917.26080,N,08203.79546,W,,,,,,M*5C
$PTNLRTF,V,A,337117,02,0,,,,,,,,,,*4F
$PTNLRBA,1,1*57
$GPZDA,213822.00,12,02,2014,,*68
$GPGGA,,3917.26080,N,08203.79546,W,7,02,,,,,,,*4A
$GPGLL,3917.26080,N,08203.79546,W,,V,M*4E
$GPVTG,,,,,,,,,M*33
$GPGSA,A,1,32,31,,,,,,,,,,,,,*1D
$GPGSV,2,1,08,12,04,033,37,32,60,286,42,14,45,088,43,01,14,272,33*7C
$GPGSV,2,2,08,20,25,311,36,22,16,160,31,25,35,053,44,31,77,326,50*77
$GPRMC,213822.00,V,3917.26080,N,08203.79546,W,,,,,,M*5F
$PTNLRTF,V,A,337118,02,0,,,,,,,,,,*40
$PTNLRBA,1,1*57
$GPZDA,213823.00,12,02,2014,,*69
$GPGGA,,3917.26080,N,08203.79546,W,7,02,,,,,,,*4A
$GPGLL,3917.26080,N,08203.79546,W,,V,M*4E
$GPVTG,,,,,,,,,M*33
$GPGSA,A,1,32,31,,,,,,,,,,,,,*1D
$GPGSV,2,1,08,12,04,033,37,32,60,286,45,14,45,088,40,01,14,272,30*7B
$GPGSV,2,2,08,20,25,311,37,22,16,160,38,25,35,053,41,31,77,326,44*7F
$GPRMC,213823.00,V,3917.26080,N,08203.79546,W,,,,,,M*5E
$PTNLRTF,V,A,337119,02,0,,,,,,,,,,*41
$PTNLRBA,1,1*57
$GPZDA,213824.00,12,02,2014,,*6E
$GPGGA,,3917.26080,N,08203.79546,W,7,02,,,,,,,*4A
$GPGLL,3917.26080,N,08203.79546,W,,V,M*4E
$GPVTG,,,,,,,,,M*33
$GPGSA,A,1,32,31,,,,,,,,,,,,,*1D
$GPGSV,2,1,08,12,04,033,32,32,60,286,48,14,45,088,45,01,14,272,30*76
$GPGSV,2,2,08,20,25,311,37,22,16,160,34,25,35,053,43,31,77,326,43*76
$GPRMC,213824.00,V,3917.26080,N,08203.79546,W,,,,,,M*59
$PTNLRTF,V,A,337120,02,0,,,,,,,,,,*4B
$PTNLRBA,1,1*57
$GPZDA,213825.00,12,02,2014,,*6F
$GPGGA,,3917.26080,N,08203.79546,W,7,02,,,,,,,*4A
$GPGLL,3917.26080,N,08203.79546,W,,V,M*4E
$GPVTG,,,,,,,,,M*33
$GPGSA,A,1,32,31,,,,,,,,,,,,,*1D
$GPGSV,2,1,08,12,04,033,32,32,60,286,48,14,45,088,39,01,14,272,33*7E
$GPGSV,2,2,08,20,25,311,38,22,16,160,34,25,35,053,38,31,77,326,47*71
$GPRMC,213825.00,V,3917.26080,N,08203.79546,W,,,,,,M*58
$PTNLRTF,V,A,337121,02,0,,,,,,,,,,*4A
$PTNLRBA,1,1*57
$GPZDA,213826.00,12,02,2014,,*6C
$GPGGA,,3917.26080,N,08203.79546,W,7,02,,,,,,,*4A
$GPGLL,3917.26080,N,08203.79546,W,,V,M*4E
$GPVTG,,,,,,,,,M*33
$GPGSA,A,1,32,31,,,,,,,,,,,,,*1D
$GPGSV,2,1,08,12,04,033,30,32,60,286,49,14,45,088,41,01,14,272,31*70
$GPGSV,2,2,08,20,25,311,38,22,16,160,33,25,35,053,42,31,77,326,42*7E
$GPRMC,213826.00,V,3917.26080,N,08203.79546,W,,,,,,M*5B
$PTNLRTF,V,A,337122,02,0,,,,,,,,,,*49
$PTNLRBA,1,1*57
$GPZDA,213827.00,12,02,2014,,*6D
$GPGGA,,3917.26080,N,08203.79546,W,7,02,,,,,,,*4A
$GPGLL,3917.26080,N,08203.79546,W,,V,M*4E
$GPVTG,,,,,,,,,M*33
$GPGSA,A,1,32,31,,,,,,,,,,,,,*1D
$GPGSV,2,1,08,12,04,033,28,32,60,286,43,14,45,088,42,01,14,272,28*78
$GPGSV,2,2,08,20,25,311,38,22,16,160,35,25,35,053,40,31,77,326,45*7D
$GPRMC,213827.00,V,3917.26080,N,08203.79546,W,,,,,,M*5A
$PTNLRTF,V,A,337123,02,0,,,,,,,,,,*48
$PTNLRBA,1,1*57
$GPZDA,213828.00,12,02,2014,,*62
$GPGGA,,3917.26080,N,08203.79546,W,7,02,,,,,,,*4A
$GPGLL,3917.26080,N,08203.79546,W,,V,M*4E
$GPVTG,,,,,,,,,M*33
$GPGSA,A,1,32,31,,,,,,,,,,,,,*1D
$GPGSV,2,1,08,12,04,033,30,32,60,286,41,14,45,088,42,01,14,272,28*73
$GPGSV,2,2,08,20,25,311,35,22,16,160,37,25,35,053,37,31,77,326,45*72
$GPRMC,213828.00,V,3917.26080,N,08203.79546,W,,,,,,M*55
$PTNLRTF,V,A,337124,02,0,,,,,,,,,,*4F
$PTNLRBA,1,1*57
$GPZDA,213829.00,12,02,2014,,*63
$GPGGA,,3917.26080,N,08203.79546,W,7,02,,,,,,,*4A
$GPGLL,3917.26080,N,08203.79546,W,,V,M*4E
$GPVTG,,,,,,,,,M*33
$GPGSA,A,1,32,31,,,,,,,,,,,,,*1D
$GPGSV,2,1,08,12,04,033,29,32,60,286,44,14,45,088,43,01,14,272,28*7F
$GPGSV,2,2,08,20,25,311,34,22,16,160,35,25,35,053,38,31,77,326,49*72
$GPRMC,213829.00,V,3917.26080,N,08203.79546,W,,,,,,M*54
$PTNLRTF,V,A,337125,02,0,,,,,,,,,,*4E
$PTNLRBA,1,1*57
$GPZDA,213830.00,12,02,2014,,*6B
$GPGGA,,3917.26080,N,08203.79546,W,7,02,,,,,,,*4A
$GPGLL,3917.26080,N,08203.79546,W,,V,M*4E
$GPVTG,,,,,,,,,M*33
$GPGSA,A,1,32,31,,,,,,,,,,,,,*1D
$GPGSV,2,1,08,12,04,033,26,32,60,286,42,14,45,088,46,01,14,272,23*78
$GPGSV,2,2,08,20,25,311,22,22,16,160,39,25,35,053,39,31,77,326,41*70
$GPRMC,213830.00,V,3917.26080,N,08203.79546,W,,,,,,M*5C
$PTNLRTF,V,A,337126,02,0,,,,,,,,,,*4D
$PTNLRBA,1,1*57
$GPZDA,213831.00,12,02,2014,,*6A
$GPGGA,,3917.26080,N,08203.79546,W,7,02,,,,,,,*4A
$GPGLL,3917.26080,N,08203.79546,W,,V,M*4E
$GPVTG,,,,,,,,,M*33
$GPGSA,A,1,32,31,,,,,,,,,,,,,*1D
$GPGSV,2,1,08,12,04,033,28,32,60,286,42,14,45,088,46,01,14,272,28*7D
$GPGSV,2,2,08,20,25,311,22,22,16,160,41,25,35,053,39,31,77,326,40*7E
$GPRMC,213831.00,V,3917.26080,N,08203.79546,W,,,,,,M*5D
$PTNLRTF,V,A,337127,02,0,,,,,,,,,,*4C
$PTNLRBA,1,1*57
$GPZDA,213832.00,12,02,2014,,*69
$GPGGA,,3917.26080,N,08203.79546,W,7,02,,,,,,,*4A
$GPGLL,3917.26080,N,08203.79546,W,,V,M*4E
$GPVTG,,,,,,,,,M*33
$GPGSA,A,1,32,31,,,,,,,,,,,,,*1D
$GPGSV,2,1,08,12,04,033,26,32,60,286,42,14,45,088,46,01,14,272,28*73
$GPGSV,2,2,08,20,25,311,23,22,16,160,41,25,35,053,39,31,77,326,40*7F
$GPRMC,213832.00,V,3917.26080,N,08203.79546,W,,,,,,M*5E
$PTNLRTF,V,A,337128,02,0,,,,,,,,,,*43
$PTNLRBA,1,1*57
$GPZDA,213833.00,12,02,2014,,*68
$GPGGA,,3917.26080,N,08203.79546,W,7,02,,,,,,,*4A
$GPGLL,3917.26080,N,08203.79546,W,,V,M*4E
$GPVTG,,,,,,,,,M*33
$GPGSA,A,1,32,31,,,,,,,,,,,,,*1D
$GPGSV,2,1,08,12,04,033,27,32,60,286,41,14,45,088,46,01,14,272,27*7E
$GPGSV,2,2,08,20,25,311,24,22,16,160,41,25,35,053,40,31,77,326,41*77
$GPRMC,213833.00,V,3917.26080,N,08203.79546,W,,,,,,M*5F
$PTNLRTF,V,A,337129,02,0,,,,,,,,,,*42
$PTNLRBA,1,1*57
$GPZDA,213834.00,12,02,2014,,*6F
$GPGGA,,3917.26080,N,08203.79546,W,7,02,,,,,,,*4A
$GPGLL,3917.26080,N,08203.79546,W,,V,M*4E
$GPVTG,,,,,,,,,M*33
$GPGSA,A,1,32,31,,,,,,,,,,,,,*1D
$GPGSV,2,1,08,12,04,033,24,32,60,286,42,14,45,088,46,01,14,272,25*7C
$GPGSV,2,2,08,20,25,311,21,22,16,160,41,25,35,053,40,31,77,326,41*72
$GPRMC,213834.00,V,3917.26080,N,08203.79546,W,,,,,,M*58
$PTNLRTF,V,A,337130,02,0,,,,,,,,,,*4A
$PTNLRBA,1,1*57
$GPZDA,213835.00,12,02,2014,,*6E
$GPGGA,,3917.26080,N,08203.79546,W,7,02,,,,,,,*4A
$GPGLL,3917.26080,N,08203.79546,W,,V,M*4E
$GPVTG,,,,,,,,,M*33
$GPGSA,A,1,32,31,,,,,,,,,,,,,*1D
$GPGSV,2,1,08,12,04,033,26,32,60,286,41,14,45,088,46,01,14,272,27*7F
$GPGSV,2,2,08,20,25,311,08,22,16,160,40,25,35,053,39,31,77,326,41*76
$GPRMC,213835.00,V,3917.26080,N,08203.79546,W,,,,,,M*59
$PTNLRTF,V,A,337131,02,0,,,,,,,,,,*4B
$PTNLRBA,1,1*57
$GPZDA,213836.00,12,02,2014,,*6D
$GPGGA,,3917.26080,N,08203.79546,W,7,02,,,,,,,*4A
$GPGLL,3917.26080,N,08203.79546,W,,V,M*4E
$GPVTG,,,,,,,,,M*33
$GPGSA,A,1,32,31,,,,,,,,,,,,,*1D
$GPGSV,2,1,08,12,04,033,24,32,60,286,41,14,45,088,45,01,14,272,26*7F
$GPGSV,2,2,08,20,25,311,19,22,16,160,41,25,35,053,41,31,77,326,41*78
$GPRMC,213836.00,V,3917.26080,N,08203.79546,W,,,,,,M*5A
$PTNLRTF,V,A,337132,02,0,,,,,,,,,,*48
$PTNLRBA,1,1*57
$GPZDA,213837.00,12,02,2014,,*6C
$GPGGA,,3917.26080,N,08203.79546,W,7,02,,,,,,,*4A
$GPGLL,3917.26080,N,08203.79546,W,,V,M*4E
$GPVTG,,,,,,,,,M*33
$GPGSA,A,1,32,31,,,,,,,,,,,,,*1D
$GPGSV,2,1,08,12,04,033,25,32,60,286,41,14,45,088,43,01,14,272,27*79
$GPGSV,2,2,08,20,25,311,21,22,16,160,40,25,35,053,41,31,77,326,42*71
$GPRMC,213837.00,V,3917.26080,N,08203.79546,W,,,,,,M*5B
$PTNLRTF,V,A,337133,02,0,,,,,,,,,,*49
$PTNLRBA,1,1*57
$GPZDA,213838.00,12,02,2014,,*63
$GPGGA,,3917.26080,N,08203.79546,W,7,02,,,,,,,*4A
$GPGLL,3917.26080,N,08203.79546,W,,V,M*4E
$GPVTG,,,,,,,,,M*33
$GPGSA,A,1,32,31,,,,,,,,,,,,,*1D
$GPGSV,2,1,08,12,04,033,24,32,60,285,40,14,45,088,44,01,14,272,29*73
$GPGSV,2,2,08,20,25,311,21,22,16,160,41,25,35,053,41,31,77,326,41*73
$GPRMC,213838.00,V,3917.26080,N,08203.79546,W,,,,,,M*54
$PTNLRTF,V,A,337134,02,0,,,,,,,,,,*4E
$PTNLRBA,1,1*57
$GPZDA,213839.00,12,02,2014,,*62
$GPGGA,,3917.26080,N,08203.79546,W,7,02,,,,,,,*4A
$GPGLL,3917.26080,N,08203.79546,W,,V,M*4E
$GPVTG,,,,,,,,,M*33
$GPGSA,A,1,32,31,,,,,,,,,,,,,*1D
$GPGSV,3,1,09,12,04,033,25,32,60,285,42,14,45,088,45,01,14,272,28*70
$GPGSV,3,2,09,20,25,311,19,22,16,160,40,25,35,053,40,31,77,326,41*78
$GPGSV,3,3,09,29,05,093,35,,,,,,,,,,,,*42
$GPRMC,213839.00,V,3917.26080,N,08203.79546,W,,,,,,M*55
$PTNLRTF,V,A,337135,02,0,,,,,,,,,,*4F
$PTNLRBA,1,1*57
$GPZDA,213840.00,12,02,2014,,*6C
$GPGGA,,3917.26080,N,08203.79546,W,7,02,,,,,,,*4A
$GPGLL,3917.26080,N,08203.79546,W,,V,M*4E
$GPVTG,,,,,,,,,M*33
$GPGSA,A,1,32,31,,,,,,,,,,,,,*1D
$GPGSV,3,1,09,12,04,033,23,32,60,285,41,14,45,088,44,01,14,272,27*7B
$GPGSV,3,2,09,20,25,311,19,22,16,160,38,25,35,053,39,31,77,326,41*79
$GPGSV,3,3,09,29,05,093,34,,,,,,,,,,,,*43
$GPRMC,213840.00,V,3917.26080,N,08203.79546,W,,,,,,M*5B
$PTNLRTF,V,A,337136,02,0,,,,,,,,,,*4C
$PTNLRBA,1,1*57
$GPZDA,213841.00,12,02,2014,,*6D
$GPGGA,,3917.26080,N,08203.79546,W,7,02,,,,,,,*4A
$GPGLL,3917.26080,N,08203.79546,W,,V,M*4E
$GPVTG,,,,,,,,,M*33
$GPGSA,A,1,32,31,,,,,,,,,,,,,*1D
$GPGSV,3,1,09,12,04,033,16,32,60,285,42,14,45,088,45,01,14,272,26*7E
$GPGSV,3,2,09,20,25,311,19,22,16,160,39,25,35,053,38,31,77,326,42*7A
$GPGSV,3,3,09,29,05,093,34,,,,,,,,,,,,*43
$GPRMC,213841.00,V,3917.26080,N,08203.79546,W,,,,,,M*5A
$PTNLRTF,V,A,337137,02,0,,,,,,,,,,*4D
$PTNLRBA,1,1*57
$GPZDA,213842.00,12,02,2014,,*6E
$GPGGA,,3917.26080,N,08203.79546,W,7,02,,,,,,,*4A
$GPGLL,3917.26080,N,08203.79546,W,,V,M*4E
$GPVTG,,,,,,,,,M*33
$GPGSA,A,1,32,31,,,,,,,,,,,,,*1D
$GPGSV,3,1,09,12,04,033,20,32,60,285,42,14,45,088,45,01,14,272,25*78
$GPGSV,3,2,09,20,25,311,21,22,16,160,39,25,35,053,38,31,77,326,41*72
$GPGSV,3,3,09,29,05,093,35,,,,,,,,,,,,*42
$GPRMC,213842.00,V,3917.26080,N,08203.79546,W,,,,,,M*59
$PTNLRTF,V,A,337138,02,0,,,,,,,,,,*42
$PTNLRBA,1,1*57
$GPZDA,213843.00,12,02,2014,,*6F
$GPGGA,,3917.26080,N,08203.79546,W,7,01,,,,,,,*49
$GPGLL,3917.26080,N,08203.79546,W,,V,M*4E
$GPVTG,,,,,,,,,M*33
$GPGSA,A,1,32,,,,,,,,,,,,,,*1F
$GPGSV,3,1,09,12,04,033,21,32,60,285,42,14,45,088,46,01,14,272,21*7E
$GPGSV,3,2,09,20,25,311,20,22,16,160,37,25,35,053,36,31,77,326,41*73
$GPGSV,3,3,09,29,05,093,37,,,,,,,,,,,,*40
$GPRMC,213843.00,V,3917.26080,N,08203.79546,W,,,,,,M*58
$PTNLRTF,V,A,337139,01,0,,,,,,,,,,*40
$PTNLRBA,1,1*57
$GPZDA,213844.00,12,02,2014,,*68
$GPGGA,,3917.26080,N,08203.79546,W,7,02,,,,,,,*4A
$GPGLL,3917.26080,N,08203.79546,W,,V,M*4E
$GPVTG,,,,,,,,,M*33
$GPGSA,A,1,32,31,,,,,,,,,,,,,*1D
$GPGSV,3,1,09,12,04,033,20,32,60,285,43,14,45,088,46,01,14,272,25*7A
$GPGSV,3,2,09,20,25,311,15,22,16,160,38,25,35,053,39,31,77,326,39*7A
$GPGSV,3,3,09,29,05,093,35,,,,,,,,,,,,*42
$GPRMC,213844.00,V,3917.26080,N,08203.79546,W,,,,,,M*5F
$PTNLRTF,V,A,337140,02,0,,,,,,,,,,*4D
$PTNLRBA,1,1*57
$GPZDA,213845.00,12,02,2014,,*69
$GPGGA,,3917.26080,N,08203.79546,W,7,02,,,,,,,*4A
$GPGLL,3917.26080,N,08203.79546,W,,V,M*4E
$GPVTG,,,,,,,,,M*33
$GPGSA,A,1,32,31,,,,,,,,,,,,,*1D
$GPGSV,3,1,09,12,04,033,18,32,60,285,42,14,45,088,47,01,14,272,25*71
$GPGSV,3,2,09,20,25,311,21,22,16,160,37,25,35,053,41,31,77,326,39*7D
$GPGSV,3,3,09,29,05,093,34,,,,,,,,,,,,*43
$GPRMC,213845.00,V,3917.26080,N,08203.79546,W,,,,,,M*5E
$PTNLRTF,V,A,337141,02,0,,,,,,,,,,*4C
$PTNLRBA,1,1*57
$GPZDA,213846.00,12,02,2014,,*6A
$GPGGA,,3917.26080,N,08203.79546,W,7,02,,,,,,,*4A
$GPGLL,3917.26080,N,08203.79546,W,,V,M*4E
$GPVTG,,,,,,,,,M*33
$GPGSA,A,1,32,31,,,,,,,,,,,,,*1D
$GPGSV,3,1,09,12,04,033,23,32,60,285,41,14,45,088,45,01,14,272,24*79
$GPGSV,3,2,09,20,25,311,24,22,16,160,35,25,35,053,39,31,77,326,40*7B
$GPGSV,3,3,09,29,05,093,34,,,,,,,,,,,,*43
$GPRMC,213846.00,V,3917.26080,N,08203.79546,W,,,,,,M*5D
$PTNLRTF,V,A,337142,02,0,,,,,,,,,,*4F
$PTNLRBA,1,1*57
$GPZDA,213847.00,12,02,2014,,*6B
$GPGGA,,3917.26080,N,08203.79546,W,7,02,,,,,,,*4A
$GPGLL,3917.26080,N,08203.79546,W,,V,M*4E
$GPVTG,,,,,,,,,M*33
$GPGSA,A,1,32,31,,,,,,,,,,,,,*1D
$GPGSV,3,1,09,12,04,033,29,32,60,285,43,14,45,088,42,01,14,272,20*72
$GPGSV,3,2,09,20,25,311,24,22,16,160,37,25,35,053,36,31,77,326,39*78
$GPGSV,3,3,09,29,05,093,28,,,,,,,,,,,,*4E
$GPRMC,213847.00,V,3917.26080,N,08203.79546,W,,,,,,M*5C
$PTNLRTF,V,A,337143,02,0,,,,,,,,,,*4E
$PTNLRBA,1,1*57
$GPZDA,213848.00,12,02,2014,,*64
$GPGGA,,3917.26080,N,08203.79546,W,7,02,,,,,,,*4A
$GPGLL,3917.26080,N,08203.79546,W,,V,M*4E
$GPVTG,,,,,,,,,M*33
$GPGSA,A,1,32,31,,,,,,,,,,,,,*1D
$GPGSV,3,1,09,12,04,033,29,32,60,285,44,14,45,088,43,01,14,272,23*77
$GPGSV,3,2,09,20,25,311,30,22,16,160,38,25,35,053,38,31,77,326,40*72
$GPGSV,3,3,09,29,05,093,30,,,,,,,,,,,,*47
$GPRMC,213848.00,V,3917.26080,N,08203.79546,W,,,,,,M*53
$PTNLRTF,V,A,337144,02,0,,,,,,,,,,*49
$PTNLRBA,1,1*57
$GPZDA,213849.00,12,02,2014,,*65
$GPGGA,,3917.26080,N,08203.79546,W,7,02,,,,,,,*4A
$GPGLL,3917.26080,N,08203.79546,W,,V,M*4E
$GPVTG,,,,,,,,,M*33
$GPGSA,A,1,32,31,,,,,,,,,,,,,*1D
$GPGSV,3,1,09,12,04,033,27,32,60,285,44,14,45,088,45,01,14,272,24*78
$GPGSV,3,2,09,20,25,311,30,22,16,160,38,25,35,053,38,31,77,326,39*7C
$GPGSV,3,3,09,29,05,093,31,,,,,,,,,,,,*46
$GPRMC,213849.00,V,3917.26080,N,08203.79546,W,,,,,,M*52
$PTNLRTF,V,A,337145,02,0,,,,,,,,,,*48
$PTNLRBA,1,1*57
$GPZDA,213850.00,12,02,2014,,*6D
$GPGGA,,3917.26080,N,08203.79546,W,7,02,,,,,,,*4A
$GPGLL,3917.26080,N,08203.79546,W,,V,M*4E
$GPVTG,,,,,,,,,M*33
$GPGSA,A,1,32,31,,,,,,,,,,,,,*1D
$GPGSV,3,1,09,12,04,033,29,32,60,285,43,14,45,088,46,01,14,272,23*75
$GPGSV,3,2,09,20,25,311,29,22,16,160,38,25,35,053,38,31,77,326,40*7A
$GPGSV,3,3,09,29,05,093,30,,,,,,,,,,,,*47
$GPRMC,213850.00,V,3917.26080,N,08203.79546,W,,,,,,M*5A
$PTNLRTF,V,A,337146,02,0,,,,,,,,,,*4B
$PTNLRBA,1,1*57
$GPZDA,213851.00,12,02,2014,,*6C
$GPGGA,213851.00,3917.26165,N,08203.79433,W,1,04,3.92,00306,M,-033,M,,*5F
$GPGLL,3917.26165,N,08203.79433,W,213851.00,A,A*7E
$GPVTG,247.2,T,254.4,M,000.3,N,000.5,K,A*21
$GPGSA,A,3,32,14,25,31,,,,,,,,,7.72,3.92,6.65*0C
$GPGSV,3,1,09,12,04,033,25,32,60,285,44,14,45,088,45,01,14,272,23*7D
$GPGSV,3,2,09,20,25,311,26,22,16,160,35,25,35,053,39,31,77,326,42*7B
$GPGSV,3,3,09,29,05,093,29,,,,,,,,,,,,*4F
$GPGST,213851.00,,602.10,114.57,079.6,024.21,011.42,043.43*4D
$GPRMC,213851.00,A,3917.26165,N,08203.79433,W,000.3,247.2,120214,07.2,W,A*01
$PTNLRTF,V,A,337147,04,3,3917.26165,N,08203.79433,W,00306,-000.133,-000.056,-000.007,0,1*5D
$PTNLRBA,1,1*57
$GPZDA,213852.00,12,02,2014,,*6F
$GPGGA,213852.00,3917.26445,N,08203.79390,W,1,04,3.91,00311,M,-033,M,,*50
$GPGLL,3917.26445,N,08203.79390,W,213852.00,A,A*74
$GPVTG,142.9,T,150.1,M,000.2,N,000.3,K,A*29
$GPGSA,A,3,32,14,25,31,,,,,,,,,7.71,3.91,6.64*0D
$GPGSV,3,1,09,12,04,033,23,32,60,285,41,14,45,088,35,01,14,272,15*7C
$GPGSV,3,2,09,20,25,311,23,22,16,160,28,25,35,052,36,31,77,327,40*7F
$GPGSV,3,3,09,29,05,093,24,,,,,,,,,,,,*42
$GPGST,213852.00,,347.95,063.13,080.5,018.45,008.42,032.90*4E
$GPRMC,213852.00,A,3917.26445,N,08203.79390,W,000.2,142.9,120214,07.2,W,A*07
$PTNLRTF,V,A,337148,04,3,3917.26445,N,08203.79390,W,00311,+000.057,-000.076,+000.007,0,1*5C
$PTNLRBA,1,1*57
$GPZDA,213853.00,12,02,2014,,*6E
$GPGGA,213853.00,3917.26410,N,08203.79326,W,1,04,3.91,00314,M,-033,M,,*59
$GPGLL,3917.26410,N,08203.79326,W,213853.00,A,A*78
$GPVTG,164.5,T,171.7,M,001.2,N,002.2,K,A*26
$GPGSA,A,3,32,14,25,31,,,,,,,,,7.71,3.91,6.64*0D
$GPGSV,2,1,08,32,60,285,26,14,45,088,34,01,14,272,17,20,25,311,23*7F
$GPGSV,2,2,08,22,16,160,16,25,35,052,24,31,77,327,34,29,05,093,16*76
$GPGST,213853.00,,315.68,060.40,080.1,017.55,008.25,031.21*4D
$GPRMC,213853.00,A,3917.26410,N,08203.79326,W,001.2,164.5,120214,07.2,W,A*02
$PTNLRTF,V,A,337149,04,3,3917.26410,N,08203.79326,W,00314,+000.162,-000.583,+000.005,0,1*5F
$PTNLRBA,1,1*57
$GPZDA,213854.00,12,02,2014,,*69
$GPGGA,213854.00,3917.26438,N,08203.79309,W,1,03,3.33,00314,M,-033,M,,*56
$GPGLL,3917.26438,N,08203.79309,W,213854.00,A,A*78
$GPVTG,121.6,T,128.8,M,000.1,N,000.1,K,A*24
$GPGSA,A,2,14,25,31,,,,,,,,,,3.47,3.33,1.00*01
$GPGSV,2,1,08,32,60,285,33,14,45,088,37,01,14,272,13,20,25,311,23*7C
$GPGSV,2,2,08,22,16,160,17,25,35,052,25,31,77,327,37,29,05,093,21*71
$GPGST,213854.00,,279.65,057.42,078.0,016.43,008.19,029.53*49
$GPRMC,213854.00,A,3917.26438,N,08203.79309,W,000.1,121.6,120214,07.2,W,A*02
$PTNLRTF,V,A,337150,03,2,3917.26438,N,08203.79309,W,00314,+000.026,-000.016,+000.006,0,1*5D
$PTNLRBA,1,1*57
$GPZDA,213856.00,12,02,2014,,*6B
$GPGGA,213856.00,3917.26129,N,08203.79480,W,1,04,3.91,00308,M,-033,M,,*55
$GPGLL,3917.26129,N,08203.79480,W,213856.00,A,A*79
$GPVTG,181.6,T,188.8,M,000.9,N,001.7,K,A*2B
$GPGSA,A,3,32,14,25,31,,,,,,,,,7.70,3.91,6.64*0C
$GPGSV,3,1,09,32,60,285,46,14,45,088,45,01,14,272,24,20,25,311,29*75
$GPGSV,3,2,09,22,16,160,34,25,35,052,30,31,77,327,51,29,05,093,33*77
$GPGSV,3,3,09,46,39,203,44,,,,,,,,,,,,*49
$GPGST,213856.00,,209.23,046.91,079.7,014.28,007.22,023.35*44
$GPRMC,213856.00,A,3917.26129,N,08203.79480,W,000.9,181.6,120214,07.2,W,A*01
$PTNLRTF,V,A,337152,04,3,3917.26129,N,08203.79480,W,00308,-000.013,-000.459,-000.083,0,1*53
$PTNLRBA,1,1*57
