$GPZDA,015345.00,24,12,2013,,*65
$GPGGA,015345.00,4003.56579,N,08254.66284,W,2,08,0.93,00256,M,-033,M,,*5F
$GPGLL,4003.56579,N,08254.66284,W,015345.00,A,D*72
$GPVTG,000.0,T,006.7,M,000.00,N,000.00,K,D*27
$GPGSA,A,3,25,29,31,32,14,20,16,23,,,,,1.82,0.93,1.56*0F
$GPGSV,3,1,09,25,19,042,45,29,13,073,44,31,63,032,50,32,60,247,49*7F
$GPGSV,3,2,09,14,30,108,46,20,37,295,47,16,27,193,48,46,43,203,47*75
$GPGSV,3,3,09,23,15,303,47,,,,,,,,,,,,*46
$GPGST,015345.00,,012.73,012.60,088.2,003.57,003.55,003.67*4F
$GPRMC,015345.00,A,4003.56579,N,08254.66284,W,000.00,000.0,241213,06.7,W,D*3A
$PTNLRTF,V$GPZDA,015348.00,24,12,2013,,*68
$GPGGA,015348.00,4003.56578,N,08254.66282,W,2,08,0.93,00256,M,-033,M,,*55
$GPGLL,4003.56578,N,08254.66282,W,015348.00,A,D*78
$GPVTG,000.0,T,006.7,M,000.00,N,000.00,K,D*27
$GPGSA,A,3,25,29,31,32,14,20,16,23,,,,,1.82,0.93,1.56*0F
$GPGSV,3,1,09,25,19,042,45,29,13,073,44,31,63,032,50,32,60,247,50*77
$GPGSV,3,2,09,14,30,108,45,20,37,295,47,16,27,193,48,46,43,203,45*74
$GPGSV,3,3,09,23,15,303,47,,,,,,,,,,,,*46
$GPGST,015348.00,,012.49,012.36,088.4,003.53,003.52,003.63*49
$GPRMC,015348.00,A,4003.56578,N,08254.66282,W,000.00,000.0,241213,06.7,W,D*30
$PTNLRTF,V,A,179644,08,3,4003.56578,N,08254.66282,W,00256,+000.000,+000.000,+000.000,0,1*5E
$PTNLRBA,1,1*57
$GPZDA,015349.00,24,12,2013,,*69
$GPGGA,015349.00,4003.56577,N,08254.66281,W,2,08,0.94,00256,M,-033,M,,*5F
$GPGLL,4003.56577,N,08254.66281,W,015349.00,A,D*75
$GPVTG,000.0,T,006.7,M,000.00,N,000.00,K,D*27
$GPGSA,A,3,25,29,31,32,14,20,16,23,,,,,1.82,0.94,1.56*08
$GPGSV,3,1,09,25,19,042,45,29,13,073,45,31,63,032,50,32,60,247,50*76
$GPGSV,3,2,09,14,30,108,45,20,37,295,47,16,27,193,48,46,43,203,45*74
$GPGSV,3,3,09,23,15,303,47,,,,,,,,,,,,*46
$GPGST,015349.00,,012.51,012.39,088.5,003.54,003.52,003.64*4F
$GPRMC,015349.00,A,4003.56577,N,08254.66281,W,000.00,000.0,241213,06.7,W,D*3D
$PTNLRTF,V,A,179645,08,3,4003.56577,N,08254.66281,W,00256,+000.000,+000.000,+000.000,0,1*53
$PTNLRBA,1,1*57
$GPZDA,015351.00,24,12,2013,,*60
$GPGGA,015351.00,4003.56575,N,08254.66281,W,2,08,0.94,00256,M,-033,M,,*54
$GPGLL,4003.56575,N,08254.66281,W,015351.00,A,D*7E
$GPVTG,000.0,T,006.7,M,000.00,N,000.00,K,D*27
$GPGSA,A,3,25,29,31,32,14,20,16,23,,,,,1.82,0.94,1.56*08
$GPGSV,3,1,09,25,19,042,45,29,13,073,43,31,63,032,50,32,60,247,50*70
$GPGSV,3,2,09,14,30,108,45,20,37,295,48,16,27,193,49,46,43,203,45*7A
$GPGSV,3,3,09,23,15,303,48,,,,,,,,,,,,*49
$GPGST,015351.00,,012.34,012.23,088.6,003.51,003.50,003.61*4F
$GPRMC,015351.00,A,4003.56575,N,08254.66281,W,000.00,000.0,241213,06.7,W,D*36
$PTNLRTF,V,A,179647,08,3,4003.56575,N,08254.66281,W,00256,+000.000,+000.000,+000.000,0,1*53
$PTNLRBA,1,1*57
$GPZDA,015353.00,24,12,2013,,*62
$GPGGA,015352.00,4003.56575,N,08254.66280,W,2,08,0.94,00256,M,-033,M,,*56
$GPGLL,4003.56575,N,08254.66280,W,015352.00,A,D*7C
$GPVTG,000.0,T,006.7,M,000.00,N,000.00,K,D*27
$GPGSA,A,3,25,29,31,32,14,20,16,23,,,,,1.82,0.94,1.56*08
$GPGSV,3,1,09,25,19,042,45,29,13,073,44,31,63,032,51,32,60,247,51*77
$GPGSV,3,2,09,14,30,108,45,20,37,295,47,16,27,193,48,46,43,203,46*77
$GPGSV,3,3,09,23,15,303,46,,,,,,,,,,,,*47
$GPGST,015352.00,,011.83,011.71,088.7,003.44,003.42,003.54*47
$GPRMC,015352.00,A,4003.56575,N,08254.66280,W,000.00,000.0,241213,06.7,W,D*34
$PTNLRTF,V,A,179649,08,3,4003.56575,N,08254.66280,W,00256,+000.000,+000.000,+000.000,0,1*5C
$PTNLRBA,1,1*57
$GPZDA,015354.00,24,12,2013,,*65
$GPGGA,015354.00,4003.56575,N,08254.66280,W,2,08,0.94,00256,M,-033,M,,*50
$GPGLL,4003.56575,N,08254.66280,W,015354.00,A,D*7A
$GPVTG,000.0,T,006.7,M,000.00,N,000.00,K,D*27
$GPGSA,A,3,25,29,31,32,14,20,16,23,,,,,1.82,0.94,1.56*08
$GPGSV,3,1,09,25,19,042,44,29,13,073,44,31,63,032,50,32,60,247,50*76
$GPGSV,3,2,09,14,30,108,44,20,37,295,47,16,27,193,49,46,43,203,46*77
$GPGSV,3,3,09,23,15,303,46,,,,,,,,,,,,*47
$GPGST,015354.00,,011.39,011.27,088.8,003.37,003.36,003.47*49
$GPRMC,015354.00,A,4003.56575,N,08254.66280,W,000.00,000.0,241213,06.7,W,D*32
$PTNLRTF,V,A,179650,08,3,4003.56575,N,08254.66280,W,00256,+000.000,+000.000,+000.000,0,1*54
$PTNLRBA,1,1*57
$GPZDA,015356.00,24,12,2013,,*67
$GPGGA,015356.00,4003.56574,N,08254.66279,W,2,08,0.94,00256,M,-033,M,,*55
$GPGLL,4003.56574,N,08254.66279,W,015356.00,A,D*7F
$GPVTG,000.0,T,006.7,M,000.00,N,000.00,K,D*27
$GPGSA,A,3,25,29,31,32,14,20,16,23,,,,,1.82,0.94,1.56*08
$GPGSV,3,1,09,25,19,042,46,29,13,073,45,31,63,032,50,32,60,247,51*74
$GPGSV,3,2,09,14,30,108,46,20,37,295,47,16,27,193,48,46,43,203,46*74
$GPGSV,3,3,09,23,15,303,48,,,,,,,,,,,,*49
$GPGST,015356.00,,011.54,011.42,088.8,003.40,003.38,003.50*4B
$GPRMC,015356.00,A,4003.56574,N,08254.66279,W,000.00,000.0,241213,06.7,W,D*37
$PTNLRTF,V,A,179652,08,3,4003.56574,N,08254.66279,W,00256,+000.000,+000.000,+000.000,0,1*51
$PTNLRBA,1,1*57
$GPZDA,015357.00,24,12,2013,,*66
$GPGGA,015357.00,4003.56574,N,08254.66278,W,2,08,0.94,00256,M,-033,M,,*55
$GPGLL,4003.56574,N,08254.66278,W,015357.00,A,D*7F
$GPVTG,000.0,T,006.7,M,000.00,N,000.00,K,D*27
$GPGSA,A,3,25,29,31,32,14,20,16,23,,,,,1.82,0.94,1.56*08
$GPGSV,3,1,09,25,19,042,46,29,13,073,44,31,63,032,50,32,60,247,51*75
$GPGSV,3,2,09,14,30,108,45,20,37,295,47,16,27,193,48,46,43,203,46*77
$GPGSV,3,3,09,23,15,303,47,,,,,,,,,,,,*46
$GPGST,015357.00,,011.64,011.53,088.9,003.41,003.40,003.51*47
$GPRMC,015357.00,A,4003.56574,N,08254.66278,W,000.00,000.0,241213,06.7,W,D*37
$PTNLRTF,V,A,179653,08,3,4003.56574,N,08254.66278,W,00256,+000.000,+000.000,+000.000,0,1*51
$PTNLRBA,1,1*57
$GPZDA,015359.00,24,12,2013,,*68
$GPGGA,015359.00,4003.56575,N,08254.66278,W,2,08,0.94,00256,M,-033,M,,*5A
$GPGLL,4003.56575,N,08254.66278,W,015359.00,A,D*70
$GPVTG,000.0,T,006.7,M,000.00,N,000.00,K,D*27
$GPGSA,A,3,25,29,31,32,14,20,16,23,,,,,1.82,0.94,1.57*09
$GPGSV,3,1,09,25,19,042,45,29,13,073,43,31,63,032,50,32,60,247,51*71
$GPGSV,3,2,09,14,30,108,45,20,37,295,47,16,27,193,49,46,43,203,45*75
$GPGSV,3,3,09,23,15,303,46,,,,,,,,,,,,*47
$GPGST,015359.00,,012.82,012.71,089.0,003.58,003.57,003.67*42
$GPRMC,015359.00,A,4003.56575,N,08254.66278,W,000.00,000.0,241213,06.7,W,D*38
$PTNLRTF,V,A,179655,08,3,4003.56575,N,08254.66278,W,00256,+000.000,+000.000,+000.000,0,1*56
$PTNLRBA,1,1*57
$GPZDA,015400.00,24,12,2013,,*63
$GPGGA,015400.00,4003.56575,N,08254.66277,W,2,08,0.94,00256,M,-033,M,,*5E
$GPGLL,4003.56575,N,08254.66277,W,015400.00,A,D*74
$GPVTG,000.0,T,006.7,M,000.00,N,000.00,K,D*27
$GPGSA,A,3,25,29,31,32,14,20,16,23,,,,,1.82,0.94,1.57*09
$GPGSV,3,1,09,25,19,042,46,29,13,073,44,31,63,032,50,32,60,247,50*74
$GPGSV,3,2,09,14,30,108,46,20,37,295,48,16,27,193,49,46,43,203,45*79
$GPGSV,3,3,09,23,15,303,47,,,,,,,,,,,,*46
$GPGST,015400.00,,013.24,013.13,089.0,003.64,003.62,003.73*4D
$GPRMC,015400.00,A,4003.56575,N,08254.66277,W,000.00,000.0,241213,06.7,W,D*3C
$PTNLRTF,V,A,179656,08,3,4003.56575,N,08254.66277,W,00256,+000.000,+000.000,+000.000,0,1*5A
$PTNLRBA,1,1*57
$GPZDA,015402.00,24,12,2013,,*61
$GPGGA,015402.00,4003.56574,N,08254.66277,W,2,08,0.94,00256,M,-033,M,,*5D
$GPGLL,4003.56574,N,08254.66277,W,015402.00,A,D*77
$GPVTG,000.0,T,006.7,M,000.00,N,000.00,K,D*27
$GPGSA,A,3,25,29,31,32,14,20,16,23,,,,,1.82,0.94,1.57*09
$GPGSV,3,1,09,25,19,042,45,29,13,073,45,31,63,032,50,32,60,247,51*77
$GPGSV,3,2,09,14,30,108,45,20,37,295,47,16,27,193,48,46,43,203,46*77
$GPGSV,3,3,09,23,15,303,47,,,,,,,,,,,,*46
$GPGST,015402.00,,016.14,016.03,089.0,004.02,004.00,004.10*4B
$GPRMC,015402.00,A,4003.56574,N,08254.66277,W,000.00,000.0,241213,06.7,W,D*3F
$PTNLRTF,V,A,179658,08,3,4003.56574,N,08254.66277,W,00256,+000.000,+000.000,+000.000,0,1*55
$PTNLRBA,1,1*57
$GPZDA,015403.00,24,12,2013,,*60
$GPGGA,015403.00,4003.56573,N,08254.66278,W,2,08,0.94,00256,M,-033,M,,*54
$GPGLL,4003.56573,N,08254.66278,W,015403.00,A,D*7E
$GPVTG,000.0,T,006.7,M,000.00,N,000.00,K,D*27
$GPGSA,A,3,25,29,31,32,14,20,16,23,,,,,1.82,0.94,1.57*09
$GPGSV,3,1,09,25,19,042,45,29,13,073,45,31,63,032,50,32,60,247,51*77
$GPGSV,3,2,09,14,30,108,45,20,37,295,47,16,27,193,48,46,43,203,46*77
$GPGSV,3,3,09,23,15,303,48,,,,,,,,,,,,*49
$GPGST,015403.00,,017.18,017.08,089.1,004.15,004.13,004.22*49
$GPRMC,015403.00,A,4003.56573,N,08254.66278,W,000.00,000.0,241213,06.7,W,D*36
$PTNLRTF,V,A,179659,08,3,4003.56573,N,08254.66278,W,00256,+000.000,+000.000,+000.000,0,1*5C
$PTNLRBA,1,1*57
$GPZDA,015405.00,24,12,2013,,*66
$GPGGA,015405.00,4003.56573,N,08254.66279,W,2,08,0.94,00256,M,-033,M,,*53
$GPGLL,4003.56573,N,08254.66279,W,015405.00,A,D*79
$GPVTG,000.0,T,006.7,M,000.00,N,000.00,K,D*27
$GPGSA,A,3,25,29,31,32,14,20,16,23,,,,,1.82,0.94,1.57*09
$GPGSV,3,1,09,25,19,042,46,29,13,073,45,31,63,032,50,32,60,247,50*75
$GPGSV,3,2,09,14,30,108,45,20,37,295,47,16,27,193,48,46,43,203,45*74
$GPGSV,3,3,09,23,15,303,47,,,,,,,,,,,,*46
$GPGST,015405.00,,019.51,019.41,089.1,004.42,004.41,004.49*47
$GPRMC,015405.00,A,4003.56573,N,08254.66279,W,000.00,000.0,241213,06.7,W,D*31
$PTNLRTF,V,A,179661,08,3,4003.56573,N,08254.66279,W,00256,+000.000,+000.000,+000.000,0,1*56
$PTNLRBA,1,1*57
$GPZDA,015406.00,24,12,2013,,*65
$GPGGA,015406.00,4003.56572,N,08254.66280,W,2,08,0.94,00256,M,-033,M,,*57
$GPGLL,4003.56572,N,08254.66280,W,015406.00,A,D*7D
$GPVTG,000.0,T,006.7,M,000.00,N,000.00,K,D*27
$GPGSA,A,3,25,29,31,32,14,20,16,23,,,,,1.83,0.94,1.57*08
$GPGSV,3,1,09,25,19,042,46,29,13,073,45,31,63,032,50,32,60,247,48*7C
$GPGSV,3,2,09,14,30,108,45,20,37,295,47,16,27,193,48,46,43,203,45*74
$GPGSV,3,3,09,23,15,303,47,,,,,,,,,,,,*46
$GPGST,015406.00,,020.41,020.30,089.2,004.52,004.51,004.59*41
$GPRMC,015406.00,A,4003.56572,N,08254.66280,W,000.00,000.0,241213,06.7,W,D*35
$PTNLRTF,V,A,179662,08,3,4003.56572,N,08254.66280,W,00256,+000.000,+000.000,+000.000,0,1*52
$PTNLRBA,1,1*57
$GPZDA,015408.00,24,12,2013,,*6B
$GPGGA,015408.00,4003.56571,N,08254.66280,W,2,08,0.94,00256,M,-033,M,,*5A
$GPGLL,4003.56571,N,08254.66280,W,015408.00,A,D*70
$GPVTG,000.0,T,006.7,M,000.00,N,000.00,K,D*27
$GPGSA,A,3,25,29,31,32,14,20,16,23,,,,,1.83,0.94,1.57*08
$GPGSV,3,1,09,25,19,042,46,29,13,073,45,31,63,032,50,32,60,247,50*75
$GPGSV,3,2,09,14,30,108,45,20,37,295,47,16,27,193,48,46,43,203,47*76
$GPGSV,3,3,09,23,15,303,48,,,,,,,,,,,,*49
$GPGST,015408.00,,023.58,023.48,089.2,004.86,004.85,004.92*4F
$GPRMC,015408.00,A,4003.56571,N,08254.66280,W,000.00,000.0,241213,06.7,W,D*38
$PTNLRTF,V,A,179664,08,3,4003.56571,N,08254.66280,W,00256,+000.000,+000.000,+000.000,0,1*57
$PTNLRBA,1,1*57
$GPZDA,015409.00,24,12,2013,,*6A
$GPGGA,015409.00,4003.56570,N,08254.66279,W,2,08,0.94,00256,M,-033,M,,*5C
$GPGLL,4003.56570,N,08254.66279,W,015409.00,A,D*76
$GPVTG,000.0,T,006.7,M,000.00,N,000.00,K,D*27
$GPGSA,A,3,25,29,31,32,14,20,16,23,,,,,1.83,0.94,1.57*08
$GPGSV,3,1,09,25,19,042,46,29,13,073,45,31,63,032,50,32,60,247,51*74
$GPGSV,3,2,09,14,30,108,45,20,37,295,47,16,27,193,49,46,43,203,47*77
$GPGSV,3,3,09,23,15,303,47,,,,,,,,,,,,*46
$GPGST,015409.00,,025.82,025.72,089.2,005.08,005.07,005.14*43
$GPRMC,015409.00,A,4003.56570,N,08254.66279,W,000.00,000.0,241213,06.7,W,D*3E
$PTNLRTF,V,A,179665,08,3,4003.56570,N,08254.66279,W,00256,+000.000,+000.000,+000.000,0,1*51
$PTNLRBA,1,1*57
