$GPZDA,201126.00,05,03,2014,,*61
$GPGGA,201126.00,3919.81584,N,08206.09031,W,1,05,3.73,00233,M,-033,M,,*50
$GPGLL,3919.81584,N,08206.09031,W,201126.00,A,A*78
$GPVTG,269.9,T,277.1,M,000.2,N,000.3,K,A*25
$GPGSA,A,3,31,32,25,14,20,,,,,,,,5.48,3.73,4.01*0A
$GPGSV,2,1,05,31,77,317,30,32,61,284,37,25,35,053,27,14,45,088,31*73
$GPGSV,2,2,05,20,26,311,32,,,,,,,,,,,,*48
$GPGST,201126.00,,154.56,130.45,079.0,012.40,011.46,011.65*47
$GPRMC,201126.00,A,3919.81584,N,08206.09031,W,000.2,269.9,050314,07.2,W,A*06
$PTNLRTF,V,A,331903,05,3,3919.81584,N,08206.09031,W,00233,-000.094,-000.000,+000.014,0,1*52
$PTNLR$GPZDA,201128.00,05,03,2014,,*6F
$GPGGA,201128.00,3919.81605,N,08206.09004,W,1,05,3.72,00233,M,-033,M,,*53
$GPVTG,034.9,T,042.1,M,000.9,N,001.6,K,A*24
$GPGSA,A,3,31,32,25,14,20,,,,,,,,5.47,3.72,4.01*04
$GPGSV,2,1,05,31,77,317,30,32,61,284,37,25,35,053,28,14,45,088,32*7F
$GPGSV,2,2,05,20,26,311,33,,,,,,,,,,,,*49
$GPGST,201128.00,,161.41,137.09,079.7,012.67,011.74,011.93*4C
$GPRMC,201128.00,A,3919.81605,N,08206.09004,W,000.9,034.9,050314,07.2,W,A*05
$PTNLRTF,V,A,331904,05,3,3919.81605,N,08206.09004,W,00233,+000.256,+000.366,+000.004,0,1*57
$PTNLRBA,1,1*57
$GPZDA,201129.00,05,03,2014,,*6E
$GPGGA,201129.00,3919.81644,N,08206.09018,W,1,05,3.72,00233,M,-033,M,,*5A
$GPGLL,3919.81644,N,08206.09018,W,201129.00,A,A*73
$GPVTG,354.3,T,001.5,M,001.3,N,002.4,K,A*22
$GPGSA,A,3,31,32,25,14,20,,,,,,,,5.47,3.72,4.01*04
$GPGSV,2,1,05,31,77,317,30,32,61,284,36,25,35,053,26,14,45,088,32*70
$GPGSV,2,2,05,20,26,311,33,,,,,,,,,,,,*49
$GPGST,201129.00,,158.56,134.27,079.6,012.56,011.62,011.81*49
$GPRMC,201129.00,A,3919.81644,N,08206.09018,W,001.3,354.3,050314,07.2,W,A*08
$PTNLRTF,V,A,331905,05,3,3919.81644,N,08206.09018,W,00233,-000.065,+000.657,-000.010,0,1*5E
$PTNLRBA,1,1*57
$GPZDA,201130.00,05,03,2014,,*66
$GPGGA,201130.00,3919.81598,N,08206.09044,W,1,05,3.72,00233,M,-033,M,,*59
$GPGLL,3919.81598,N,08206.09044,W,201130.00,A,A*70
$GPVTG,216.4,T,223.6,M,000.9,N,001.7,K,A*28
$GPGSA,A,3,31,32,25,14,20,,,,,,,,5.47,3.72,4.01*04
$GPGSV,2,1,05,31,77,317,31,32,61,284,37,25,35,053,27,14,45,088,32*71
$GPGSV,2,2,05,20,26,311,32,,,,,,,,,,,,*48
$GPGST,201130.00,,163.15,138.49,079.9,012.74,011.80,011.98*41
$GPRMC,201130.00,A,3919.81598,N,08206.09044,W,000.9,216.4,050314,07.2,W,A*00
$PTNLRTF,V,A,331906,05,3,3919.81598,N,08206.09044,W,00233,-000.275,-000.372,-000.002,0,1*52
$PTNLRBA,1,1*57
$GPZDA,201131.00,05,03,2014,,*67
$GPGGA,201131.00,3919.81661,N,08206.09026,W,1,05,3.72,00233,M,-033,M,,*59
$GPGLL,3919.81661,N,08206.09026,W,201131.00,A,A*70
$GPVTG,042.0,T,049.2,M,000.8,N,001.4,K,A*27
$GPGSA,A,3,31,32,25,14,20,,,,,,,,5.46,3.71,4.00*07
$GPGSV,2,1,05,31,77,317,31,32,61,284,37,25,35,053,27,14,45,088,31*72
$GPGSV,2,2,05,20,26,311,32,,,,,,,,,,,,*48
$GPGST,201131.00,,161.60,136.77,079.7,012.68,011.73,011.91*45
$GPRMC,201131.00,A,3919.81661,N,08206.09026,W,000.8,042.0,050314,07.2,W,A*06
$PTNLRTF,V,A,331908,05,3,3919.81661,N,08206.09026,W,00233,+000.265,+000.295,-000.014,0,1*53
$PTNLRBA,1,1*57
$GPZDA,201133.00,05,03,2014,,*65
$GPGGA,201133.00,3919.81585,N,08206.09058,W,1,05,3.71,00233,M,-033,M,,*58
$GPVTG,235.7,T,242.9,M,000.8,N,001.5,K,A*21
$GPGSA,A,3,31,32,25,14,20,,,,,,,,5.46,3.71,4.00*07
$GPGSV,2,1,05,31,77,317,30,32,61,284,37,25,35,053,27,14,45,088,31*73
$GPGSV,2,2,05,20,26,311,32,,,,,,,,,,,,*48
$GPGST,201133.00,,157.90,132.71,080.2,012.54,011.55,011.73*4B
$GPRMC,201133.00,A,3919.81585,N,08206.09058,W,000.8,235.7,050314,07.2,W,A*01
$PTNLRTF,V,A,331909,05,3,3919.81585,N,08206.09058,W,00233,-000.335,-000.229,-000.006,0,1*52
$PTNLRBA,1,1*57
$GPZDA,201134.00,05,03,2014,,*62
$GPGGA,201134.00,3919.81546,N,08206.09069,W,1,05,3.71,00233,M,-033,M,,*52
$GPGLL,3919.81546,N,08206.09069,W,201134.00,A,A*78
$GPVTG,183.6,T,190.8,M,000.3,N,000.5,K,A*29
$GPGSA,A,3,31,32,25,14,20,,,,,,,,5.46,3.71,4.00*07
$GPGSV,2,1,05,31,77,317,30,32,61,284,36,25,35,053,26,14,45,088,31*73
$GPGSV,2,2,05,20,26,311,32,,,,,,,,,,,,*48
$GPGST,201134.00,,157.30,132.36,080.2,012.51,011.54,011.72*40
$GPRMC,201134.00,A,3919.81546,N,08206.09069,W,000.3,183.6,050314,07.2,W,A*0F
$PTNLRTF,V,A,331910,05,3,3919.81546,N,08206.09069,W,00233,-000.009,-000.147,+000.006,0,1*56
$PTNLRBA,1,1*57
$GPZDA,201135.00,05,03,2014,,*63
$GPGGA,201135.00,3919.81580,N,08206.09074,W,1,05,3.71,00233,M,-033,M,,*55
$GPGLL,3919.81580,N,08206.09074,W,201135.00,A,A*7F
$GPVTG,348.8,T,356.0,M,000.8,N,001.5,K,A*28
$GPGSA,A,3,31,32,25,14,20,,,,,,,,5.45,3.71,4.00*04
$GPGSV,2,1,05,31,77,317,30,32,61,284,37,25,35,053,29,14,45,088,31*7D
$GPGSV,2,2,05,20,26,311,32,,,,,,,,,,,,*48
$GPGST,201135.00,,155.61,130.82,080.3,012.45,011.47,011.65*4A
$GPRMC,201135.00,A,3919.81580,N,08206.09074,W,000.8,348.8,050314,07.2,W,A*08
$PTNLRTF,V,A,331911,05,3,3919.81580,N,08206.09074,W,00233,-000.083,+000.420,-000.007,0,1*56
$PTNLRBA,1,1*57
$GPZDA,201136.00,05,03,2014,,*60
$GPGGA,201136.00,3919.81580,N,08206.09064,W,1,05,3.70,00233,M,-033,M,,*56
$GPGLL,3919.81580,N,08206.09064,W,201136.00,A,A*7D
$GPVTG,177.4,T,184.6,M,000.2,N,000.4,K,A*2B
$GPGSA,A,3,31,32,25,14,20,,,,,,,,5.45,3.70,3.99*02
$GPGSV,2,1,05,31,77,317,30,32,61,284,36,25,35,053,27,14,45,088,31*72
$GPGSV,2,2,05,20,26,311,31,,,,,,,,,,,,*4B
$GPGST,201136.00,,163.17,138.51,080.3,012.75,011.80,011.98*41
$GPRMC,201136.00,A,3919.81580,N,08206.09064,W,000.2,177.4,050314,07.2,W,A*02
$PTNLRTF,V,A,331913,05,3,3919.81580,N,08206.09064,W,00233,+000.005,-000.108,+000.004,0,1*51
$PTNLRBA,1,1*57
$GPZDA,201137.00,05,03,2014,,*61
$GPGGA,201137.00,3919.81561,N,08206.09080,W,1,05,3.70,00233,M,-033,M,,*52
$GPVTG,229.1,T,236.3,M,000.5,N,001.0,K,A*2B
$GPGSA,A,3,31,32,25,14,20,,,,,,,,5.44,3.70,3.99*03
$GPGSV,2,1,05,31,77,317,31,32,61,284,36,25,35,053,28,14,45,088,31*7C
$GPGSV,2,2,05,20,26,311,31,,,,,,,,,,,,*4B
$GPGST,201137.00,,164.04,139.56,080.3,012.78,011.84,012.02*4A
$GPRMC,201137.00,A,3919.81561,N,08206.09080,W,000.5,229.1,050314,07.2,W,A*0C
$PTNLRTF,V,A,331914,05,3,3919.81561,N,08206.09080,W,00233,-000.204,-000.177,-000.004,0,1*58
$PTNLRBA,1,1*57
$GPZDA,201139.00,05,03,2014,,*6F
$GPGGA,201139.00,3919.81567,N,08206.09054,W,1,05,3.70,00233,M,-033,M,,*53
$GPGLL,3919.81567,N,08206.09054,W,201139.00,A,A*78
$GPVTG,143.5,T,150.7,M,000.4,N,000.7,K,A*20
$GPGSA,A,3,31,32,25,14,20,,,,,,,,5.44,3.70,3.99*03
$GPGSV,2,1,05,31,77,317,30,32,61,284,36,25,35,053,26,14,45,088,31*73
$GPGSV,2,2,05,20,26,311,32,,,,,,,,,,,,*48
$GPGST,201139.00,,164.11,139.56,080.5,012.78,011.84,012.02*46
$GPRMC,201139.00,A,3919.81567,N,08206.09054,W,000.4,143.5,050314,07.2,W,A*07
$PTNLRTF,V,A,331915,05,3,3919.81567,N,08206.09054,W,00233,+000.112,-000.152,-000.016,0,1*50
$PTNLRBA,1,1*57
$GPZDA,201140.00,05,03,2014,,*61
$GPGGA,201140.00,3919.81557,N,08206.09060,W,1,05,3.69,00233,M,-033,M,,*51
$GPGLL,3919.81557,N,08206.09060,W,201140.00,A,A*72
$GPVTG,236.5,T,243.7,M,000.2,N,000.4,K,A*25
$GPGSA,A,3,31,32,25,14,20,,,,,,,,5.44,3.69,3.99*0B
$GPGSV,2,1,05,31,77,317,30,32,61,284,36,25,35,053,25,14,45,088,31*70
$GPGSV,2,2,05,20,26,311,31,,,,,,,,,,,,*4B
$GPGST,201140.00,,177.09,152.36,080.8,013.28,012.37,012.53*4E
$GPRMC,201140.00,A,3919.81557,N,08206.09060,W,000.2,236.5,050314,07.2,W,A*0A
$PTNLRTF,V,A,331916,05,3,3919.81557,N,08206.09060,W,00233,-000.088,-000.058,-000.002,0,1*5D
$PTNLRBA,1,1*57
$GPZDA,201141.00,05,03,2014,,*60
$GPGGA,201141.00,3919.81579,N,08206.09043,W,1,05,3.69,00233,M,-033,M,,*5D
$GPGLL,3919.81579,N,08206.09043,W,201141.00,A,A*7E
$GPVTG,033.8,T,041.0,M,000.2,N,000.4,K,A*28
$GPGSA,A,3,31,32,25,14,20,,,,,,,,5.43,3.69,3.99*0C
$GPGSV,2,1,05,31,77,317,31,32,61,284,36,25,35,053,28,14,45,088,31*7C
$GPGSV,2,2,05,20,26,311,31,,,,,,,,,,,,*4B
$GPGST,201141.00,,185.74,160.72,081.1,013.61,012.70,012.86*47
$GPRMC,201141.00,A,3919.81579,N,08206.09043,W,000.2,033.8,050314,07.2,W,A*0C
$PTNLRTF,V,A,331918,05,3,3919.81579,N,08206.09043,W,00233,+000.055,+000.082,-000.004,0,1*5F
$PTNLRBA,1,1*57
$GPZDA,201142.00,05,03,2014,,*63
$GPGGA,201142.00,3919.81604,N,08206.09008,W,1,05,3.69,00233,M,-033,M,,*58
$GPVTG,063.3,T,070.5,M,000.8,N,001.5,K,A*2B
$GPGSA,A,3,31,32,25,14,20,,,,,,,,5.43,3.69,3.98*0D
$GPGSV,2,1,05,31,77,317,31,32,61,284,36,25,35,053,27,14,45,088,31*73
$GPGSV,2,2,05,20,26,311,31,,,,,,,,,,,,*4B
$GPGST,201142.00,,187.74,162.90,081.0,013.68,012.79,012.94*4A
$GPRMC,201142.00,A,3919.81604,N,08206.09008,W,000.8,063.3,050314,07.2,W,A*0D
$PTNLRTF,V,A,331919,05,3,3919.81604,N,08206.09008,W,00233,+000.379,+000.191,+000.011,0,1*54
$PTNLRBA,1,1*57
$GPZDA,201144.00,05,03,2014,,*65
$GPGGA,201144.00,3919.81525,N,08206.09019,W,1,05,3.68,00233,M,-033,M,,*5F
$GPGLL,3919.81525,N,08206.09019,W,201144.00,A,A*7D
$GPVTG,191.2,T,198.4,M,000.7,N,001.3,K,A*29
$GPGSA,A,3,31,32,25,14,20,,,,,,,,5.43,3.68,3.98*0C
$GPGSV,2,1,05,31,77,317,30,32,61,284,36,25,35,053,27,14,45,088,30*73
$GPGSV,2,2,05,20,26,311,30,,,,,,,,,,,,*4A
$GPGST,201144.00,,176.78,151.48,081.5,013.28,012.33,012.49*44
$GPRMC,201144.00,A,3919.81525,N,08206.09019,W,000.7,191.2,050314,07.2,W,A*09
$PTNLRTF,V,A,331920,05,3,3919.81525,N,08206.09019,W,00233,-000.069,-000.350,-000.009,0,1*5C
$PTNLRBA,1,1*57
$GPZDA,201145.00,05,03,2014,,*64
$GPGGA,201145.00,3919.81482,N,08206.09012,W,1,05,3.68,00233,M,-033,M,,*59
$GPGLL,3919.81482,N,08206.09012,W,201145.00,A,A*7B
$GPVTG,183.7,T,190.9,M,001.1,N,002.0,K,A*2D
$GPGSA,A,3,31,32,25,14,20,,,,,,,,5.42,3.68,3.98*0D
$GPGSV,2,1,05,31,77,317,30,32,61,284,36,25,35,053,27,14,45,088,29*7B
$GPGSV,2,2,05,20,26,311,31,,,,,,,,,,,,*4B
$GPGST,201145.00,,185.19,159.67,081.9,013.59,012.66,012.81*45
$GPRMC,201145.00,A,3919.81482,N,08206.09012,W,001.1,183.7,050314,07.2,W,A*0E
$PTNLRTF,V,A,331921,05,3,3919.81482,N,08206.09012,W,00233,-000.035,-000.550,+000.010,0,1*5B
$PTNLRBA,1,1*57
$GPZDA,201146.00,05,03,2014,,*67
$GPGGA,201146.00,3919.81453,N,08206.09004,W,1,05,3.68,00233,M,-033,M,,*51
$GPGLL,3919.81453,N,08206.09004,W,201146.00,A,A*73
$GPVTG,163.0,T,170.2,M,000.8,N,001.6,K,A*2C
$GPGSA,A,3,31,32,25,14,20,,,,,,,,5.42,3.68,3.98*0D
$GPGSV,2,1,05,31,77,317,31,32,61,284,35,25,35,053,28,14,45,088,31*7F
$GPGSV,2,2,05,20,26,311,29,,,,,,,,,,,,*42
$GPGST,201146.00,,177.35,151.60,082.2,013.30,012.33,012.49*49
$GPRMC,201146.00,A,3919.81453,N,08206.09004,W,000.8,163.0,050314,07.2,W,A*07
$PTNLRTF,V,A,331923,05,3,3919.81453,N,08206.09004,W,00233,+000.128,-000.417,+000.002,0,1*58
$PTNLRBA,1,1*57
$GPZDA,201147.00,05,03,2014,,*66
$GPGGA,201147.00,3919.81439,N,08206.09001,W,1,05,3.68,00233,M,-033,M,,*59
$GPVTG,116.1,T,123.3,M,000.3,N,000.6,K,A*22
$GPGSA,A,3,31,32,25,14,20,,,,,,,,5.41,3.67,3.97*0E
$GPGSV,2,1,05,31,77,319,30,32,61,283,35,25,35,053,27,14,45,088,31*78
$GPGSV,2,2,05,20,26,311,30,,,,,,,,,,,,*4A
$GPGST,201147.00,,173.04,147.12,082.5,013.14,012.15,012.30*47
$GPRMC,201147.00,A,3919.81439,N,08206.09001,W,000.3,116.1,050314,07.2,W,A*07
$PTNLRTF,V,A,331924,05,3,3919.81439,N,08206.09001,W,00233,+000.155,-000.076,+000.004,0,1*59
$PTNLRBA,1,1*57
$GPZDA,201149.00,05,03,2014,,*68
$GPGGA,201149.00,3919.81403,N,08206.09028,W,1,04,6.99,00233,M,-033,M,,*5F
$GPGLL,3919.81403,N,08206.09028,W,201149.00,A,A*77
$GPVTG,065.5,T,072.7,M,000.3,N,000.5,K,A*21
$GPGSA,A,3,31,32,14,20,,,,,,,,,8.68,6.99,5.14*06
$GPGSV,2,1,05,31,77,319,30,32,61,283,36,25,35,053,27,14,45,088,30*7A
$GPGSV,2,2,05,20,26,311,30,,,,,,,,,,,,*4A
$GPGST,201149.00,,178.97,151.93,082.7,013.36,012.34,012.49*49
$GPRMC,201149.00,A,3919.81403,N,08206.09028,W,000.3,065.5,050314,07.2,W,A*0A
$PTNLRTF,V,A,331925,04,3,3919.81403,N,08206.09028,W,00233,+000.125,+000.057,-000.004,0,1*5F
$PTNLRBA,1,1*57
$GPZDA,201150.00,05,03,2014,,*60
$GPGGA,201150.00,3919.81384,N,08206.09016,W,1,05,3.67,00233,M,-033,M,,*57
$GPVTG,093.3,T,100.5,M,000.2,N,000.4,K,A*28
$GPGSA,A,3,31,32,25,14,20,,,,,,,,5.41,3.67,3.97*0E
$GPGSV,2,1,05,31,77,319,31,32,61,283,36,25,35,053,25,14,45,088,30*79
$GPGSV,2,2,05,20,26,311,29,,,,,,,,,,,,*42
$GPGST,201150.00,,171.05,143.78,082.9,013.06,012.01,012.16*44
$GPRMC,201150.00,A,3919.81384,N,08206.09016,W,000.2,093.3,050314,07.2,W,A*09
$PTNLRTF,V,A,331926,05,3,3919.81384,N,08206.09016,W,00233,+000.108,-000.006,+000.005,0,1*52
$PTNLRBA,1,1*57
$GPZDA,201151.00,05,03,2014,,*61
$GPGGA,201151.00,3919.81298,N,08206.09020,W,1,05,3.67,00233,M,-033,M,,*5F
$GPGLL,3919.81298,N,08206.09020,W,201151.00,A,A*72
$GPVTG,178.7,T,185.9,M,001.3,N,002.3,K,A*2C
$GPGSA,A,3,31,32,25,14,20,,,,,,,,5.40,3.67,3.97*0F
$GPGSV,2,1,05,31,77,319,31,32,61,283,35,25,35,053,27,14,45,088,30*78
$GPGSV,2,2,05,20,26,311,29,,,,,,,,,,,,*42
$GPGST,201151.00,,170.86,142.89,083.1,013.06,011.97,012.12*41
$GPRMC,201151.00,A,3919.81298,N,08206.09020,W,001.3,178.7,050314,07.2,W,A*01
$PTNLRTF,V,A,331928,05,3,3919.81298,N,08206.09020,W,00233,+000.015,-000.648,+000.026,0,1*55
$PTNLRBA,1,1*57
$GPZDA,201153.00,05,03,2014,,*63
$GPGGA,201153.00,3919.81327,N,08206.09029,W,1,05,3.66,00233,M,-033,M,,*50
$GPGLL,3919.81327,N,08206.09029,W,201153.00,A,A*7C
$GPVTG,163.8,T,171.0,M,000.4,N,000.7,K,A*2B
$GPGSA,A,3,31,32,25,14,20,,,,,,,,5.40,3.66,3.97*0E
$GPGSV,2,1,05,31,77,319,31,32,61,283,35,25,35,053,26,14,45,088,29*71
$GPGSV,2,2,05,20,26,311,29,,,,,,,,,,,,*42
$GPGST,201153.00,,168.43,139.96,083.5,012.96,011.85,011.99*4E
$GPRMC,201153.00,A,3919.81327,N,08206.09029,W,000.4,163.8,050314,07.2,W,A*0C
$PTNLRTF,V,A,331929,05,3,3919.81327,N,08206.09029,W,00233,+000.052,-000.177,-000.027,0,1*57
$PTNLRBA,1,1*57
$GPZDA,201154.00,05,03,2014,,*64
$GPGLL,3919.81264,N,08206.09048,W,201154.00,A,A*7A
$GPVTG,203.6,T,210.8,M,001.3,N,002.4,K,A*2B
$GPGSA,A,3,31,32,25,14,20,,,,,,,,5.40,3.66,3.96*0F
$GPGSV,2,1,05,31,77,319,31,32,61,283,35,25,35,053,27,14,45,088,30*78
$GPGSV,2,2,05,20,26,311,29,,,,,,,,,,,,*42
$GPGST,201154.00,,170.07,141.42,083.7,013.03,011.91,012.05*4A
$GPRMC,201154.00,A,3919.81264,N,08206.09048,W,001.3,203.6,050314,07.2,W,A*07
$PTNLRTF,V,A,331930,05,3,3919.81264,N,08206.09048,W,00233,-000.264,-000.604,+000.006,0,1*59
$PTNLRBA,1,1*57
$GPZDA,201155.00,05,03,2014,,*65
$GPGGA,201155.00,3919.81251,N,08206.09061,W,1,05,3.66,00233,M,-033,M,,*5A
$GPGLL,3919.81251,N,08206.09061,W,201155.00,A,A*76
$GPGSA,A,3,31,32,25,14,20,,,,,,,,5.39,3.66,3.96*01
$GPGSV,2,1,05,31,77,319,31,32,61,283,36,25,35,053,27,14,45,088,30*7B
$GPGSV,2,2,05,20,26,311,29,,,,,,,,,,,,*42
$GPGST,201155.00,,164.07,135.27,084.0,012.80,011.64,011.79*46
$GPRMC,201155.00,A,3919.81251,N,08206.09061,W,000.5,234.7,050314,07.2,W,A*09
$PTNLRTF,V,A,331931,05,3,3919.81251,N,08206.09061,W,00233,-000.197,-000.139,+000.004,0,1*51
$PTNLRBA,1,1*57
$GPZDA,201156.00,05,03,2014,,*66
$GPGGA,201156.00,3919.81258,N,08206.09068,W,1,05,3.66,00234,M,-033,M,,*5E
$GPGLL,3919.81258,N,08206.09068,W,201156.00,A,A*75
$GPVTG,190.9,T,198.1,M,000.5,N,000.9,K,A*2F
$GPGSA,A,3,31,32,25,14,20,,,,,,,,5.39,3.65,3.96*02
$GPGSV,2,1,05,31,77,319,32,32,61,283,36,25,35,053,28,14,45,088,30*77
$GPGSV,2,2,05,20,26,311,29,,,,,,,,,,,,*42
$GPGST,201156.00,,164.76,135.86,084.2,012.82,011.67,011.81*4C
$GPRMC,201156.00,A,3919.81258,N,08206.09068,W,000.5,190.9,050314,07.2,W,A*09
$PTNLRTF,V,A,331933,05,3,3919.81258,N,08206.09068,W,00234,-000.046,-000.240,-000.009,0,1*5F
$PTNLRBA,1,1*57
$GPZDA,201158.00,05,03,2014,,*68
$GPGGA,201158.00,3919.81216,N,08206.09068,W,1,05,3.65,00234,M,-033,M,,*59
$GPGLL,3919.81216,N,08206.09068,W,201158.00,A,A*71
$GPVTG,357.8,T,005.0,M,000.7,N,001.3,K,A*2A
$GPGSA,A,3,31,32,25,14,20,,,,,,,,5.38,3.65,3.96*03
$GPGSV,2,1,05,31,77,319,32,32,61,283,36,25,35,053,28,14,45,088,29*7F
$GPGSV,2,2,05,20,26,311,28,,,,,,,,,,,,*43
$GPGST,201158.00,,162.79,133.42,084.8,012.75,011.56,011.71*4A
$GPRMC,201158.00,A,3919.81216,N,08206.09068,W,000.7,357.8,050314,07.2,W,A*07
$PTNLRTF,V,A,331934,05,3,3919.81216,N,08206.09068,W,00234,-000.014,+000.353,+000.016,0,1*58
$PTNLRBA,1,1*57
$GPZDA,201159.00,05,03,2014,,*69
$GPGLL,3919.81183,N,08206.09074,W,201159.00,A,A*72
$GPVTG,202.0,T,209.2,M,000.9,N,001.6,K,A*24
$GPGSA,A,3,31,32,25,14,20,,,,,,,,5.38,3.65,3.96*03
$GPGSV,2,1,05,31,77,319,32,32,61,283,36,25,35,053,29,14,45,088,29*7E
$GPGSV,2,2,05,20,26,311,28,,,,,,,,,,,,*43
$GPGST,201159.00,,162.22,132.68,085.0,012.73,011.53,011.67*41
$GPRMC,201159.00,A,3919.81183,N,08206.09074,W,000.9,202.0,050314,07.2,W,A*03
$PTNLRTF,V,A,331935,05,3,3919.81183,N,08206.09074,W,00234,-000.165,-000.408,-000.010,0,1*53
$PTNLRBA,1,1*57
$GPZDA,201200.00,05,03,2014,,*66
$GPGGA,201200.00,3919.81228,N,08206.09079,W,1,05,3.65,00234,M,-033,M,,*5A
$GPGLL,3919.81228,N,08206.09079,W,201200.00,A,A*72
$GPVTG,331.9,T,339.1,M,000.6,N,001.1,K,A*25
$GPGSA,A,3,31,32,25,14,20,,,,,,,,5.38,3.64,3.95*01
$GPGSV,2,1,05,31,77,319,31,32,61,283,36,25,35,053,28,14,45,088,28*7D
$GPGSV,2,2,05,20,26,311,29,,,,,,,,,,,,*42
$GPGST,201200.00,,175.49,145.72,085.3,013.24,012.08,012.22*41
$GPRMC,201200.00,A,3919.81228,N,08206.09079,W,000.6,331.9,050314,07.2,W,A*04
$PTNLRTF,V,A,331937,05,3,3919.81228,N,08206.09079,W,00234,-000.138,+000.258,-000.013,0,1*50
$PTNLRBA,1,1*57
$GPZDA,201201.00,05,03,2014,,*67
$GPGGA,201201.00,3919.81275,N,08206.09077,W,1,05,3.64,00234,M,-033,M,,*5C
$GPGLL,3919.81275,N,08206.09077,W,201201.00,A,A*75
$GPVTG,342.9,T,350.1,M,000.5,N,000.9,K,A*24
$GPGSA,A,3,31,32,25,14,20,,,,,,,,5.37,3.64,3.95*0E
$GPGSV,2,1,05,31,77,319,31,32,61,283,36,25,35,053,28,14,45,088,27*72
$GPGSV,2,2,05,20,26,311,27,,,,,,,,,,,,*4C
$GPGST,201201.00,,194.76,164.88,085.5,013.95,012.85,012.98*4D
$GPRMC,201201.00,A,3919.81275,N,08206.09077,W,000.5,342.9,050314,07.2,W,A*04
$PTNLRTF,V,A,331938,05,3,3919.81275,N,08206.09077,W,00234,-000.076,+000.247,+000.005,0,1*5D
$PTNLRBA,1,1*57
$GPZDA,201203.00,05,03,2014,,*65
$GPGLL,3919.81312,N,08206.09057,W,201203.00,A,A*75
$GPVTG,030.6,T,037.8,M,001.0,N,001.8,K,A*22
$GPGSA,A,3,31,32,25,14,20,,,,,,,,5.37,3.64,3.95*0E
$GPGSV,2,1,05,31,77,319,31,32,61,283,36,25,35,053,27,14,45,088,28*72
$GPGSV,2,2,05,20,26,311,27,,,,,,,,,,,,*4C
$GPGST,201203.00,,200.96,170.71,086.0,014.17,013.07,013.20*4E
$GPRMC,201203.00,A,3919.81312,N,08206.09057,W,001.0,030.6,050314,07.2,W,A*09
$PTNLRTF,V,A,331939,05,3,3919.81312,N,08206.09057,W,00234,+000.259,+000.439,-000.011,0,1*5B
$PTNLRBA,1,1*57
$GPZDA,201204.00,05,03,2014,,*62
$GPGGA,201204.00,3919.81342,N,08206.09039,W,1,05,3.64,00234,M,-033,M,,*56
$GPVTG,047.4,T,054.6,M,000.4,N,000.8,K,A*2F
$GPGSA,A,3,31,32,25,14,20,,,,,,,,5.37,3.64,3.95*0E
$GPGSV,2,1,05,31,77,319,33,32,61,283,37,25,35,053,28,14,45,088,29*7F
$GPGSV,2,2,05,20,26,311,26,,,,,,,,,,,,*4D
$GPGST,201204.00,,212.80,182.44,086.2,014.58,013.51,013.63*4B
$GPRMC,201204.00,A,3919.81342,N,08206.09039,W,000.4,047.4,050314,07.2,W,A*04
$PTNLRTF,V,A,331940,05,3,3919.81342,N,08206.09039,W,00234,+000.164,+000.150,-000.005,0,1*5A
$PTNLRBA,1,1*57
$GPZDA,201205.00,05,03,2014,,*63
$GPGGA,201205.00,3919.81311,N,08206.09036,W,1,05,3.63,00234,M,-033,M,,*59
$GPGLL,3919.81311,N,08206.09036,W,201205.00,A,A*77
$GPVTG,161.8,T,169.0,M,000.7,N,001.3,K,A*26
$GPGSA,A,3,31,32,25,14,20,,,,,,,,5.36,3.63,3.94*09
$GPGSV,2,1,05,31,77,319,32,32,61,283,37,25,35,053,28,14,45,088,28*7F
$GPGSV,2,2,05,20,26,311,26,,,,,,,,,,,,*4D
$GPGST,201205.00,,208.48,177.96,086.4,014.43,013.34,013.46*48
$GPRMC,201205.00,A,3919.81311,N,08206.09036,W,000.7,161.8,050314,07.2,W,A*06
$PTNLRTF,V,A,331942,05,3,3919.81311,N,08206.09036,W,00234,+000.115,-000.350,-000.007,0,1*51
$PTNLRBA,1,1*57
$GPZDA,201207.00,05,03,2014,,*61
$GPGGA,201207.00,3919.81329,N,08206.09066,W,1,05,3.63,00234,M,-033,M,,*55
$GPVTG,269.9,T,277.1,M,000.7,N,001.2,K,A*20
$GPGSA,A,3,31,32,25,14,20,,,,,,,,5.36,3.63,3.94*09
$GPGSV,2,1,05,31,77,319,32,32,61,283,37,25,35,053,28,14,45,088,28*7F
$GPGSV,2,2,05,20,26,311,27,,,,,,,,,,,,*4C
$GPGST,201207.00,,199.23,168.55,086.9,014.11,012.99,013.11*43
$GPRMC,201207.00,A,3919.81329,N,08206.09066,W,000.7,269.9,050314,07.2,W,A*00
$PTNLRTF,V,A,331943,05,3,3919.81329,N,08206.09066,W,00234,-000.345,-000.001,+000.003,0,1*5A
$PTNLRBA,1,1*57
$GPZDA,201208.00,05,03,2014,,*6E
$GPGGA,201208.00,3919.81348,N,08206.09042,W,1,05,3.63,00234,M,-033,M,,*5B
$GPGLL,3919.81348,N,08206.09042,W,201208.00,A,A*75
$GPVTG,077.0,T,084.2,M,000.5,N,001.0,K,A*29
$GPGSA,A,3,31,32,25,14,20,,,,,,,,5.35,3.63,3.94*0A
$GPGSV,2,1,05,31,77,319,32,32,61,283,36,25,35,053,29,14,45,088,28*7F
$GPGSV,2,2,05,20,26,311,29,,,,,,,,,,,,*42
$GPGST,201208.00,,195.55,164.86,087.0,013.98,012.84,012.96*4F
$GPRMC,201208.00,A,3919.81348,N,08206.09042,W,000.5,077.0,050314,07.2,W,A*08
$PTNLRTF,V,A,331944,05,3,3919.81348,N,08206.09042,W,00234,+000.269,+000.062,+000.005,0,1*50
$PTNLRBA,1,1*57
$GPZDA,201209.00,05,03,2014,,*6F
$GPGGA,201209.00,3919.81364,N,08206.09020,W,1,05,3.62,00234,M,-033,M,,*51
$GPGLL,3919.81364,N,08206.09020,W,201209.00,A,A*7E
$GPVTG,132.4,T,139.6,M,000.5,N,001.0,K,A*2E
$GPGSA,A,3,31,32,25,14,20,,,,,,,,5.35,3.62,3.94*0B
$GPGSV,2,1,05,31,77,319,33,32,61,283,36,25,35,053,29,14,45,088,27*71
$GPGSV,2,2,05,20,26,311,27,,,,,,,,,,,,*4C
$GPGST,201209.00,,198.02,167.32,087.2,014.07,012.94,013.06*47
$GPRMC,201209.00,A,3919.81364,N,08206.09020,W,000.5,132.4,050314,07.2,W,A*07
$PTNLRTF,V,A,331945,05,3,3919.81364,N,08206.09020,W,00234,+000.203,-000.185,-000.003,0,1*59
$PTNLRBA,1,1*57
$GPZDA,201210.00,05,03,2014,,*67
$GPGGA,201210.00,3919.81378,N,08206.09004,W,1,05,3.62,00234,M,-033,M,,*52
$GPGLL,3919.81378,N,08206.09004,W,201210.00,A,A*7D
$GPVTG,350.2,T,357.4,M,000.5,N,000.9,K,A*2E
$GPGSA,A,3,31,32,25,14,20,,,,,,,,5.35,3.62,3.93*0C
$GPGSV,2,1,05,31,77,319,33,32,61,283,37,25,35,053,29,14,45,088,27*70
$GPGSV,2,2,05,20,26,311,28,,,,,,,,,,,,*43
$GPGST,201210.00,,203.58,172.79,087.5,014.27,013.15,013.26*45
$GPRMC,201210.00,A,3919.81378,N,08206.09004,W,000.5,350.2,050314,07.2,W,A*04
$PTNLRTF,V,A,331947,05,3,3919.81378,N,08206.09004,W,00234,-000.045,+000.259,+000.025,0,1*50
$PTNLRBA,1,1*57
$GPZDA,201212.00,05,03,2014,,*65
$GPGGA,201211.00,3919.81424,N,08206.09017,W,1,05,3.62,00234,M,-033,M,,*5F
$GPVTG,345.6,T,352.8,M,000.8,N,001.4,K,A*26
$GPGSA,A,3,31,32,25,14,20,,,,,,,,5.34,3.62,3.93*0D
$GPGSV,2,1,05,31,77,319,32,32,61,283,37,25,35,053,29,14,45,088,27*71
$GPGSV,2,2,05,20,26,311,28,,,,,,,,,,,,*43
$GPGST,201211.00,,199.47,168.57,087.7,014.12,012.99,013.10*49
$GPRMC,201211.00,A,3919.81424,N,08206.09017,W,000.8,345.6,050314,07.2,W,A*04
$PTNLRTF,V,A,331948,05,3,3919.81424,N,08206.09017,W,00234,-000.096,+000.374,-000.004,0,1*56
$PTNLRBA,1,1*57
$GPZDA,201213.00,05,03,2014,,*64
$GPGGA,201213.00,3919.81433,N,08206.09016,W,1,05,3.62,00234,M,-033,M,,*5A
$GPGLL,3919.81433,N,08206.09016,W,201213.00,A,A*75
$GPVTG,339.6,T,346.8,M,000.6,N,001.0,K,A*22
$GPGSA,A,3,31,32,25,14,20,,,,,,,,5.34,3.62,3.93*0D
$GPGSV,2,1,05,31,77,319,32,32,61,283,36,25,35,053,28,14,45,088,26*70
$GPGSV,2,2,05,20,26,311,28,,,,,,,,,,,,*43
$GPGST,201213.00,,183.42,152.29,088.1,013.54,012.34,012.46*4C
$GPRMC,201213.00,A,3919.81433,N,08206.09016,W,000.6,339.6,050314,07.2,W,A*04
$PTNLRTF,V,A,331949,05,3,3919.81433,N,08206.09016,W,00234,-000.099,+000.267,+000.012,0,1*5D
$PTNLRBA,1,1*57
$GPZDA,201214.00,05,03,2014,,*63
$GPGGA,201214.00,3919.81485,N,08206.09014,W,1,05,3.61,00234,M,-033,M,,*51
$GPGLL,3919.81485,N,08206.09014,W,201214.00,A,A*7D
$GPVTG,003.9,T,011.1,M,000.8,N,001.5,K,A*24
$GPGSA,A,3,31,32,25,14,20,,,,,,,,5.34,3.61,3.93*0E
$GPGSV,2,1,05,31,77,319,33,32,61,283,37,25,35,053,29,14,45,088,27*70
$GPGSV,2,2,05,20,26,311,27,,,,,,,,,,,,*4C
$GPGST,201214.00,,184.01,152.69,088.4,013.56,012.36,012.47*4B
$GPRMC,201214.00,A,3919.81485,N,08206.09014,W,000.8,003.9,050314,07.2,W,A*07
$PTNLRTF,V,A,331950,05,3,3919.81485,N,08206.09014,W,00234,+000.028,+000.418,-000.011,0,1*5D
$PTNLRBA,1,1*57
$GPZDA,201215.00,05,03,2014,,*62
$GPGGA,201215.00,3919.81504,N,08206.09015,W,1,05,3.61,00234,M,-033,M,,*59
$GPGLL,3919.81504,N,08206.09015,W,201215.00,A,A*75
$GPVTG,035.1,T,042.3,M,000.2,N,000.4,K,A*27
$GPGSA,A,3,31,32,25,14,20,,,,,,,,5.33,3.61,3.93*09
$GPGSV,2,1,05,31,77,319,33,32,61,283,36,25,35,053,29,14,45,088,25*73
$GPGSV,2,2,05,20,26,311,27,,,,,,,,,,,,*4C
$GPGST,201215.00,,189.58,158.26,088.6,013.77,012.58,012.70*47
$GPRMC,201215.00,A,3919.81504,N,08206.09015,W,000.2,035.1,050314,07.2,W,A*08
$PTNLRTF,V,A,331952,05,3,3919.81504,N,08206.09015,W,00234,+000.057,+000.081,-000.009,0,1*53
$PTNLRBA,1,1*57
$GPZDA,201216.00,05,03,2014,,*61
$GPGGA,201216.00,3919.81498,N,08206.09012,W,1,05,3.61,00234,M,-033,M,,*59
$GPVTG,043.7,T,050.9,M,000.1,N,000.2,K,A*2C
$GPGSA,A,3,31,32,25,14,20,,,,,,,,5.33,3.61,3.92*08
$GPGSV,2,1,05,31,77,319,32,32,61,283,37,25,35,053,29,14,45,088,25*73
$GPGSV,2,2,05,20,26,311,27,,,,,,,,,,,,*4C
$GPGST,201216.00,,191.11,159.67,088.8,013.82,012.64,012.75*4A
$GPRMC,201216.00,A,3919.81498,N,08206.09012,W,000.1,043.7,050314,07.2,W,A*0C
$PTNLRTF,V,A,331953,05,3,3919.81498,N,08206.09012,W,00234,+000.045,+000.047,-000.003,0,1*52
$PTNLRBA,1,1*57
$GPZDA,201218.00,05,03,2014,,*6F
$GPGGA,201218.00,3919.81548,N,08206.09026,W,1,05,3.60,00234,M,-033,M,,*5D
$GPGLL,3919.81548,N,08206.09026,W,201218.00,A,A*70
$GPVTG,346.5,T,353.7,M,000.4,N,000.7,K,A*26
$GPGSA,A,3,31,32,25,14,20,,,,,,,,5.33,3.60,3.92*09
$GPGSV,2,1,05,31,77,319,33,32,61,283,37,25,35,053,30,14,45,088,26*79
$GPGSV,2,2,05,20,26,311,29,,,,,,,,,,,,*42
$GPGST,201218.00,,188.96,157.48,089.3,013.75,012.55,012.66*42
$GPRMC,201218.00,A,3919.81548,N,08206.09026,W,000.4,346.5,050314,07.2,W,A*08
$PTNLRTF,V,A,331954,05,3,3919.81548,N,08206.09026,W,00234,-000.048,+000.200,+000.000,0,1*51
$PTNLRBA,1,1*57
$GPZDA,201219.00,05,03,2014,,*6E
$GPGGA,201219.00,3919.81559,N,08206.09002,W,1,05,3.60,00234,M,-033,M,,*5A
$GPGLL,3919.81559,N,08206.09002,W,201219.00,A,A*77
$GPVTG,112.8,T,120.0,M,000.3,N,000.5,K,A*2C
$GPGSA,A,3,31,32,25,14,20,,,,,,,,5.32,3.60,3.92*08
$GPGSV,2,1,05,31,77,319,34,32,61,283,37,25,35,053,29,14,45,088,25*75
$GPGSV,2,2,05,20,26,311,28,,,,,,,,,,,,*43
$GPGST,201219.00,,196.64,165.14,089.6,014.02,012.85,012.96*49
$GPRMC,201219.00,A,3919.81559,N,08206.09002,W,000.3,112.8,050314,07.2,W,A*06
$PTNLRTF,V,A,331955,05,3,3919.81559,N,08206.09002,W,00234,+000.131,-000.055,-000.001,0,1*5C
$PTNLRBA,1,1*57
$GPZDA,201220.00,05,03,2014,,*64
$GPGGA,201220.00,3919.81499,N,08206.09013,W,1,05,3.60,00234,M,-033,M,,*5D
$GPGLL,3919.81499,N,08206.09013,W,201220.00,A,A*70
$GPVTG,194.2,T,201.4,M,001.4,N,002.6,K,A*2B
$GPGSA,A,3,31,32,25,14,20,,,,,,,,5.32,3.60,3.92*08
$GPGSV,2,1,05,31,77,320,34,32,61,283,37,25,35,053,30,14,45,089,24*77
$GPGSV,2,2,05,20,26,311,29,,,,,,,,,,,,*42
$GPGST,201220.00,,191.27,159.58,089.6,013.83,012.63,012.74*4E
$GPRMC,201220.00,A,3919.81499,N,08206.09013,W,001.4,194.2,050314,07.2,W,A*03
$PTNLRTF,V,A,331957,05,3,3919.81499,N,08206.09013,W,00234,-000.181,-000.712,+000.000,0,1*5D
$PTNLRBA,1,1*57
$GPZDA,201221.00,05,03,2014,,*65
$GPGGA,201221.00,3919.81542,N,08206.09000,W,1,05,3.60,00234,M,-033,M,,*59
$GPVTG,009.2,T,016.4,M,000.3,N,000.6,K,A*2E
$GPGSA,A,3,31,32,25,14,20,,,,,,,,5.31,3.59,3.92*01
$GPGSV,2,1,05,31,77,320,34,32,61,283,37,25,35,053,30,14,45,089,22*71
$GPGSV,2,2,05,20,26,311,28,,,,,,,,,,,,*43
$GPGST,201221.00,,195.02,163.22,089.9,013.96,012.78,012.88*4A
$GPRMC,201221.00,A,3919.81542,N,08206.09000,W,000.3,009.2,050314,07.2,W,A*04
$PTNLRTF,V,A,331958,05,3,3919.81542,N,08206.09000,W,00234,+000.025,+000.152,+000.018,0,1*53
$PTNLRBA,1,1*57
$GPZDA,201223.00,05,03,2014,,*67
$GPGGA,201223.00,3919.81544,N,08206.08986,W,1,05,3.59,00234,M,-033,M,,*51
$GPGLL,3919.81544,N,08206.08986,W,201223.00,A,A*76
$GPVTG,125.8,T,133.0,M,000.5,N,000.9,K,A*20
$GPGSA,A,3,31,32,25,14,20,,,,,,,,5.31,3.59,3.91*02
$GPGSV,2,1,05,31,77,320,33,32,61,283,37,25,35,053,30,14,45,089,21*75
$GPGSV,2,2,05,20,26,311,28,,,,,,,,,,,,*43
$GPGST,201223.00,,216.26,184.58,089.7,014.71,013.59,013.69*4E
$GPRMC,201223.00,A,3919.81544,N,08206.08986,W,000.5,125.8,050314,07.2,W,A*05
$PTNLRTF,V,A,331959,05,3,3919.81544,N,08206.08986,W,00234,+000.210,-000.151,+000.015,0,1*5E
$PTNLRBA,1,1*57
$GPZDA,201224.00,05,03,2014,,*60
$GPGGA,201224.00,3919.81583,N,08206.08984,W,1,05,3.59,00234,M,-033,M,,*5F
$GPGLL,3919.81583,N,08206.08984,W,201224.00,A,A*78
$GPVTG,054.5,T,061.7,M,000.2,N,000.3,K,A*26
$GPGSA,A,3,31,32,25,14,20,,,,,,,,5.31,3.59,3.91*02
$GPGSV,2,1,05,31,77,320,33,32,61,283,37,25,35,053,29,14,45,089,24*78
$GPGSV,2,2,05,20,26,311,29,,,,,,,,,,,,*42
$GPGST,201224.00,,242.91,211.15,089.5,015.59,014.53,014.62*4A
$GPRMC,201224.00,A,3919.81583,N,08206.08984,W,000.2,054.5,050314,07.2,W,A*06
$PTNLRTF,V,A,331960,05,3,3919.81583,N,08206.08984,W,00234,+000.072,+000.051,-000.031,0,1*5C
$PTNLRBA,1,1*57
$GPZDA,201225.00,05,03,2014,,*61
$GPGGA,201225.00,3919.81604,N,08206.08984,W,1,04,9.84,00234,M,-033,M,,*59
$GPGLL,3919.81604,N,08206.08984,W,201225.00,A,A*75
$GPVTG,181.2,T,188.4,M,000.3,N,000.6,K,A*29
$GPGSA,A,3,31,32,25,14,20,,,,,,,,5.30,3.59,3.91*03
$GPGSV,2,1,05,31,77,320,34,32,61,283,37,25,35,053,30,14,45,089,23*70
$GPGSV,2,2,05,20,26,311,28,,,,,,,,,,,,*43
$GPGST,201225.00,,236.24,204.43,089.1,015.37,014.30,014.39*46
$GPRMC,201225.00,A,3919.81604,N,08206.08984,W,000.3,181.2,050314,07.2,W,A*04
$PTNLRTF,V,A,331962,05,3,3919.81604,N,08206.08984,W,00234,-000.003,-000.168,-000.004,0,1*59
$PTNLRBA,1,1*57
$GPZDA,201226.00,05,03,2014,,*62
$GPGGA,201226.00,3919.81636,N,08206.08998,W,1,05,3.59,00234,M,-033,M,,*5D
$GPVTG,329.8,T,337.0,M,001.3,N,002.4,K,A*20
$GPGSA,A,3,31,25,20,,,,,,,,,,3.78,3.64,1.00*09
$GPGSV,2,1,05,31,77,320,34,32,61,283,28,25,35,053,30,14,45,089,22*7F
$GPGSV,2,2,05,20,26,311,29,,,,,,,,,,,,*42
$GPGST,201226.00,,249.59,217.78,088.8,015.80,014.76,014.85*4C
$GPRMC,201226.00,A,3919.81636,N,08206.08998,W,001.3,329.8,050314,07.2,W,A*00
$PTNLRTF,V,A,331963,03,3,3919.81636,N,08206.08998,W,00234,-000.337,+000.581,+000.017,0,1*57
$PTNLRBA,1,1*57
$GPZDA,201228.00,05,03,2014,,*6C
$GPGGA,201228.00,3919.81675,N,08206.08982,W,1,04,3.87,00234,M,-033,M,,*5D
$GPGLL,3919.81675,N,08206.08982,W,201228.00,A,A*78
$GPVTG,164.1,T,171.3,M,000.9,N,001.7,K,A*2A
$GPGSA,A,3,31,25,14,20,,,,,,,,,5.50,3.87,3.90*06
$GPGSV,2,1,05,31,77,320,34,32,61,283,10,25,35,053,30,14,45,089,23*75
$GPGSV,2,2,05,20,26,311,28,,,,,,,,,,,,*43
$GPGST,201228.00,,249.21,217.02,088.6,015.79,014.73,014.81*49
$GPRMC,201228.00,A,3919.81675,N,08206.08982,W,000.9,164.1,050314,07.2,W,A*0B
$PTNLRTF,V,A,331964,04,3,3919.81675,N,08206.08982,W,00234,+000.132,-000.466,+000.012,0,1*51
$PTNLRBA,1,1*57
$GPZDA,201229.00,05,03,2014,,*6D
$GPGLL,3919.81732,N,08206.08996,W,201229.00,A,A*7E
$GPVTG,234.3,T,241.5,M,000.4,N,000.7,K,A*24
$GPGSA,A,3,31,25,14,20,,,,,,,,,5.50,3.87,3.90*06
$GPGSV,2,1,05,31,77,320,34,32,61,283,13,25,35,053,30,14,45,089,21*74
$GPGSV,2,2,05,20,26,311,29,,,,,,,,,,,,*42
$GPGST,201229.00,,237.17,204.46,088.7,015.40,014.30,014.37*47
$GPRMC,201229.00,A,3919.81732,N,08206.08996,W,000.4,234.3,050314,07.2,W,A*04
$PTNLRTF,V,A,331965,04,3,3919.81732,N,08206.08996,W,00234,-000.165,-000.119,-000.007,0,1*5C
$PTNLRBA,1,1*57
$GPZDA,201230.00,05,03,2014,,*65
$GPGGA,201230.00,3919.81751,N,08206.08944,W,1,04,3.87,00234,M,-033,M,,*59
$GPGLL,3919.81751,N,08206.08944,W,201230.00,A,A*7C
$GPVTG,114.1,T,121.3,M,000.7,N,001.3,K,A*22
$GPGSA,A,3,31,25,14,20,,,,,,,,,5.49,3.86,3.90*0F
$GPGSV,2,1,05,31,77,320,34,32,61,283,05,25,35,053,30,14,45,089,23*71
$GPGSV,2,2,05,20,26,311,30,,,,,,,,,,,,*4A
$GPGST,201230.00,,250.55,217.67,089.0,015.83,014.75,014.82*4F
$GPRMC,201230.00,A,3919.81751,N,08206.08944,W,000.7,114.1,050314,07.2,W,A*06
$PTNLRTF,V,A,331967,04,3,3919.81751,N,08206.08944,W,00234,+000.325,-000.146,+000.010,0,1*5E
$PTNLRBA,1,1*57
$GPZDA,201232.00,05,03,2014,,*67
$GPGGA,201232.00,3919.81811,N,08206.08939,W,1,04,3.86,00234,M,-033,M,,*5B
$GPGLL,3919.81811,N,08206.08939,W,201232.00,A,A*7F
$GPVTG,178.2,T,185.4,M,000.5,N,000.9,K,A*2B
$GPGSA,A,3,31,25,14,20,,,,,,,,,5.49,3.86,3.90*0F
$GPGSV,2,1,05,31,77,320,34,32,61,283,14,25,35,053,31,14,45,089,22*71
$GPGSV,2,2,05,20,26,311,30,,,,,,,,,,,,*4A
$GPGST,201232.00,,227.24,194.07,089.1,015.07,013.93,013.99*4A
$GPRMC,201232.00,A,3919.81811,N,08206.08939,W,000.5,178.2,050314,07.2,W,A*0E
$PTNLRTF,V,A,331968,04,3,3919.81811,N,08206.08939,W,00234,+000.008,-000.250,-000.022,0,1*5F
$PTNLRBA,1,1*57
$GPZDA,201233.00,05,03,2014,,*66
$GPGLL,3919.81847,N,08206.08933,W,201233.00,A,A*77
$GPVTG,343.3,T,350.5,M,000.4,N,000.7,K,A*24
$GPGSA,A,3,31,25,14,20,,,,,,,,,5.49,3.86,3.90*0F
$GPGSV,2,1,05,31,77,320,34,32,61,283,34,25,35,053,31,14,45,089,22*73
$GPGSV,2,2,05,20,26,311,30,,,,,,,,,,,,*4A
$GPGST,201233.00,,222.07,188.60,089.3,014.90,013.73,013.80*48
$GPRMC,201233.00,A,3919.81847,N,08206.08933,W,000.4,343.3,050314,07.2,W,A*0C
$PTNLRTF,V,A,331969,04,3,3919.81847,N,08206.08933,W,00234,-000.057,+000.190,+000.001,0,1*55
$PTNLRBA,1,1*57
$GPZDA,201234.00,05,03,2014,,*61
$GPGGA,201234.00,3919.81881,N,08206.08920,W,1,05,3.57,00234,M,-033,M,,*51
$GPGLL,3919.81881,N,08206.08920,W,201234.00,A,A*78
$GPVTG,034.8,T,042.0,M,000.9,N,001.6,K,A*24
$GPGSA,A,3,31,32,25,14,20,,,,,,,,5.28,3.57,3.89*0D
$GPGSV,2,1,05,31,77,320,34,32,61,283,38,25,35,053,31,14,45,089,22*7F
$GPGSV,2,2,05,20,26,311,29,,,,,,,,,,,,*42
$GPGST,201234.00,,210.42,177.13,089.0,014.51,013.31,013.38*40
$GPRMC,201234.00,A,3919.81881,N,08206.08920,W,000.9,034.8,050314,07.2,W,A*06
$PTNLRTF,V,A,331970,05,3,3919.81881,N,08206.08920,W,00234,+000.258,+000.372,+000.002,0,1*52
$PTNLRBA,1,1*57
$GPZDA,201235.00,05,03,2014,,*60
$GPGGA,201235.00,3919.81873,N,08206.08891,W,1,05,3.56,00234,M,-033,M,,*57
$GPGLL,3919.81873,N,08206.08891,W,201235.00,A,A*7F
$GPVTG,075.6,T,082.8,M,000.7,N,001.3,K,A*20
$GPGSA,A,3,31,32,25,14,20,,,,,,,,5.28,3.56,3.89*0C
$GPGSV,2,1,05,31,77,320,34,32,61,283,38,25,35,053,31,14,45,089,22*7F
$GPGSV,2,2,05,20,26,311,30,,,,,,,,,,,,*4A
$GPGST,201235.00,,203.33,170.10,088.7,014.26,013.04,013.11*4A
$GPRMC,201235.00,A,3919.81873,N,08206.08891,W,000.7,075.6,050314,07.2,W,A*04
$PTNLRTF,V,A,331972,05,3,3919.81873,N,08206.08891,W,00234,+000.361,+000.092,+000.000,0,1*52
$PTNLRBA,1,1*57
$GPZDA,201237.00,05,03,2014,,*62
$GPGGA,201237.00,3919.81898,N,08206.08907,W,1,04,9.69,00235,M,-033,M,,*58
$GPGLL,3919.81898,N,08206.08907,W,201237.00,A,A*76
$GPVTG,164.9,T,172.1,M,000.4,N,000.7,K,A*2F
$GPGSA,A,3,31,32,25,20,,,,,,,,,13.2,9.69,8.98*0B
$GPGSV,2,1,05,31,77,320,34,32,61,283,38,25,35,053,31,14,45,089,23*7E
$GPGSV,2,2,05,20,26,311,29,,,,,,,,,,,,*42
$GPGST,201237.00,,199.25,166.23,087.9,014.11,012.89,012.97*46
$GPRMC,201237.00,A,3919.81898,N,08206.08907,W,000.4,164.9,050314,07.2,W,A*00
$PTNLRTF,V,A,331973,04,3,3919.81898,N,08206.08907,W,00235,+000.050,-000.186,+000.012,0,1*58
$PTNLRBA,1,1*57
$GPZDA,201238.00,05,03,2014,,*6D
$GPGLL,3919.81891,N,08206.08905,W,201238.00,A,A*72
$GPVTG,177.9,T,185.1,M,000.3,N,000.6,K,A*23
$GPGSA,A,3,31,32,25,14,20,,,,,,,,5.27,3.56,3.89*03
$GPGSV,2,1,05,31,77,320,35,32,61,283,37,25,35,053,31,14,45,089,22*71
$GPGSV,2,2,05,20,26,311,28,,,,,,,,,,,,*43
$GPGST,201238.00,,190.97,158.05,087.5,013.82,012.57,012.65*4F
$GPRMC,201238.00,A,3919.81891,N,08206.08905,W,000.3,177.9,050314,07.2,W,A*01
$PTNLRTF,V,A,331974,05,3,3919.81891,N,08206.08905,W,00235,+000.006,-000.178,+000.001,0,1*55
$PTNLRBA,1,1*57
$GPZDA,201239.00,05,03,2014,,*6C
$GPGGA,201239.00,3919.81904,N,08206.08927,W,1,05,3.56,00234,M,-033,M,,*56
$GPGLL,3919.81904,N,08206.08927,W,201239.00,A,A*7E
$GPGSA,A,3,31,32,25,14,20,,,,,,,,5.27,3.56,3.89*03
$GPGSV,2,1,05,31,77,320,35,32,61,282,38,25,35,052,31,14,45,089,22*7E
$GPGSV,2,2,05,20,26,311,30,,,,,,,,,,,,*4A
$GPGST,201239.00,,215.13,182.37,087.4,014.67,013.51,013.58*4F
$GPRMC,201239.00,A,3919.81904,N,08206.08927,W,000.5,266.6,050314,07.2,W,A*07
$PTNLRTF,V,A,331976,04,3,3919.81904,N,08206.08927,W,00234,-000.262,-000.016,-000.008,0,1*5A
$PTNLRBA,1,1*57
$GPZDA,201240.00,05,03,2014,,*62
$GPGGA,201240.00,3919.81931,N,08206.08944,W,1,04,9.65,00234,M,-033,M,,*50
$GPGLL,3919.81931,N,08206.08944,W,201240.00,A,A*73
$GPVTG,356.3,T,003.5,M,000.6,N,001.1,K,A*20
$GPGSA,A,3,31,32,25,14,20,,,,,,,,5.26,3.55,3.88*00
$GPGSV,2,1,05,31,77,320,35,32,61,282,38,25,35,052,32,14,45,089,23*7C
$GPGSV,2,2,05,20,26,311,28,,,,,,,,,,,,*43
$GPGST,201240.00,,200.69,168.01,087.0,014.16,012.97,013.04*49
$GPRMC,201240.00,A,3919.81931,N,08206.08944,W,000.6,356.3,050314,07.2,W,A*0E
$PTNLRTF,V,A,331977,05,3,3919.81931,N,08206.08944,W,00234,-000.019,+000.295,-000.004,0,1*54
$PTNLRBA,1,1*57
$GPZDA,201242.00,05,03,2014,,*60
$GPGGA,201242.00,3919.81963,N,08206.08923,W,1,05,3.55,00234,M,-033,M,,*5C
$GPGLL,3919.81963,N,08206.08923,W,201242.00,A,A*77
$GPVTG,090.3,T,097.5,M,000.3,N,000.6,K,A*27
$GPGSA,A,3,31,32,25,14,20,,,,,,,,5.26,3.55,3.88*00
$GPGSV,2,1,05,31,77,320,35,32,61,282,38,25,35,052,31,14,45,089,21*7D
$GPGSV,2,2,05,20,26,311,29,,,,,,,,,,,,*42
$GPGST,201242.00,,181.67,149.12,086.7,013.47,012.22,012.30*43
$GPRMC,201242.00,A,3919.81963,N,08206.08923,W,000.3,090.3,050314,07.2,W,A*06
$PTNLRTF,V,A,331978,05,3,3919.81963,N,08206.08923,W,00234,+000.173,-000.001,+000.012,0,1*5E
$PTNLRBA,1,1*57
$GPZDA,201243.00,05,03,2014,,*61
$GPGLL,3919.81928,N,08206.08910,W,201243.00,A,A*79
$GPVTG,138.0,T,145.2,M,000.5,N,001.0,K,A*2F
$GPGSA,A,3,31,32,25,14,20,,,,,,,,5.26,3.55,3.88*00
$GPGSV,2,1,05,31,77,320,35,32,61,282,38,25,35,052,31,14,45,089,20*7C
$GPGSV,2,2,05,20,26,311,29,,,,,,,,,,,,*42
$GPGST,201243.00,,170.81,138.39,086.3,013.06,011.77,011.86*47
$GPRMC,201243.00,A,3919.81928,N,08206.08910,W,000.5,138.0,050314,07.2,W,A*0E
$PTNLRTF,V,A,331979,05,3,3919.81928,N,08206.08910,W,00234,+000.184,-000.204,+000.024,0,1*5A
$PTNLRBA,1,1*57
$GPZDA,201244.00,05,03,2014,,*66
$GPGGA,201244.00,3919.81928,N,08206.08899,W,1,05,3.54,00234,M,-033,M,,*54
$GPGLL,3919.81928,N,08206.08899,W,201244.00,A,A*7E
$GPVTG,110.4,T,117.6,M,000.4,N,000.8,K,A*2A
$GPGSA,A,3,31,32,25,14,20,,,,,,,,5.25,3.54,3.88*02
$GPGSV,2,1,05,31,77,320,34,32,61,282,38,25,35,052,32,14,45,089,21*7F
$GPGSV,2,2,05,20,26,311,30,,,,,,,,,,,,*4A
$GPGST,201244.00,,163.03,130.80,086.0,012.76,011.44,011.53*4F
$GPRMC,201244.00,A,3919.81928,N,08206.08899,W,000.4,110.4,050314,07.2,W,A*06
$PTNLRTF,V,A,331981,05,3,3919.81928,N,08206.08899,W,00234,+000.197,-000.073,-000.008,0,1*55
$PTNLRBA,1,1*57
$GPZDA,201245.00,05,03,2014,,*67
$GPGGA,201245.00,3919.81942,N,08206.08903,W,1,05,3.54,00234,M,-033,M,,*5B
$GPGLL,3919.81942,N,08206.08903,W,201245.00,A,A*71
$GPVTG,351.4,T,358.6,M,000.4,N,000.7,K,A*2B
$GPGSA,A,3,31,32,25,14,20,,,,,,,,5.25,3.54,3.87*0D
$GPGSV,2,1,05,31,77,320,35,32,61,282,38,25,35,052,32,14,45,089,21*7E
$GPGSV,2,2,05,20,26,311,29,,,,,,,,,,,,*42
$GPGST,201245.00,,152.72,120.69,085.9,012.35,010.99,011.09*4F
$GPRMC,201245.00,A,3919.81942,N,08206.08903,W,000.4,351.4,050314,07.2,W,A*0E
$PTNLRTF,V,A,331982,05,3,3919.81942,N,08206.08903,W,00234,-000.031,+000.202,-000.017,0,1*5F
$PTNLRBA,1,1*57
$GPZDA,201247.00,05,03,2014,,*65
$GPGGA,201247.00,3919.81976,N,08206.08912,W,1,05,3.54,00234,M,-033,M,,*5E
$GPGLL,3919.81976,N,08206.08912,W,201247.00,A,A*74
$GPVTG,331.3,T,338.5,M,000.2,N,000.4,K,A*2A
$GPGSA,A,3,31,32,25,14,20,,,,,,,,5.25,3.54,3.87*0D
$GPGSV,2,1,05,31,77,320,35,32,61,282,38,25,35,052,32,14,45,089,21*7E
$GPGSV,2,2,05,20,26,311,29,,,,,,,,,,,,*42
$GPGST,201247.00,,175.35,143.45,085.3,013.23,011.99,012.08*4F
$GPRMC,201247.00,A,3919.81976,N,08206.08912,W,000.2,331.3,050314,07.2,W,A*0C
$PTNLRTF,V,A,331983,05,3,3919.81976,N,08206.08912,W,00234,-000.055,+000.101,+000.002,0,1*59
$PTNLRBA,1,1*57
$GPZDA,201248.00,05,03,2014,,*6A
$GPGGA,201248.00,3919.82003,N,08206.08940,W,1,05,3.54,00234,M,-033,M,,*5E
$GPGLL,3919.82003,N,08206.08940,W,201248.00,A,A*74
$GPVTG,333.7,T,340.9,M,000.9,N,001.6,K,A*27
$GPGSA,A,3,31,32,25,14,20,,,,,,,,5.24,3.54,3.87*0C
$GPGSV,2,1,05,31,77,320,34,32,61,282,38,25,35,052,32,14,45,089,21*7F
$GPGSV,2,2,05,20,26,311,30,,,,,,,,,,,,*4A
$GPGST,201248.00,,166.05,134.30,085.0,012.88,011.60,011.70*4A
$GPRMC,201248.00,A,3919.82003,N,08206.08940,W,000.9,333.7,050314,07.2,W,A*01
$PTNLRTF,V,A,331984,05,3,3919.82003,N,08206.08940,W,00234,-000.200,+000.405,+000.009,0,1*59
$PTNLRBA,1,1*57
$GPZDA,201249.00,05,03,2014,,*6B
$GPGGA,201249.00,3919.81968,N,08206.08933,W,1,05,3.53,00234,M,-033,M,,*5B
$GPGLL,3919.81968,N,08206.08933,W,201249.00,A,A*76
$GPVTG,289.1,T,296.3,M,000.1,N,000.1,K,A*2F
$GPGSA,A,3,31,32,25,14,20,,,,,,,,5.24,3.53,3.87*0B
$GPGSV,2,1,05,31,77,320,34,32,61,282,38,25,35,052,32,14,45,089,19*74
$GPGSV,2,2,05,20,26,311,30,,,,,,,,,,,,*4A
$GPGST,201249.00,,168.88,137.10,084.7,012.98,011.72,011.82*48
$GPRMC,201249.00,A,3919.81968,N,08206.08933,W,000.1,289.1,050314,07.2,W,A*0D
$PTNLRTF,V,A,331986,05,3,3919.81968,N,08206.08933,W,00234,-000.034,+000.012,-000.008,0,1*58
$PTNLRBA,1,1*57
$GPZDA,201250.00,05,03,2014,,*63
$GPGGA,201250.00,3919.81949,N,08206.08906,W,1,05,3.53,00234,M,-033,M,,*56
$GPGLL,3919.81949,N,08206.08906,W,201250.00,A,A*7B
$GPVTG,123.5,T,130.7,M,000.6,N,001.0,K,A*24
$GPGSA,A,3,31,32,25,14,20,,,,,,,,5.24,3.53,3.87*0B
$GPGSV,2,1,05,31,77,320,35,32,61,282,38,25,35,052,31,14,45,089,18*77
$GPGSV,2,2,05,20,26,311,29,,,,,,,,,,,,*42
$GPGST,201250.00,,163.46,131.70,084.5,012.77,011.49,011.59*44
$GPRMC,201250.00,A,3919.81949,N,08206.08906,W,000.6,123.5,050314,07.2,W,A*00
$PTNLRTF,V,A,331987,05,3,3919.81949,N,08206.08906,W,00234,+000.241,-000.160,+000.045,0,1*57
$PTNLRBA,1,1*57
$GPZDA,201252.00,05,03,2014,,*61
$GPGLL,3919.81975,N,08206.08886,W,201252.00,A,A*7F
$GPVTG,143.3,T,150.5,M,000.4,N,000.7,K,A*24
$GPGSA,A,3,31,32,25,14,20,,,,,,,,5.23,3.53,3.86*0D
$GPGSV,2,1,05,31,77,320,34,32,61,282,38,25,35,052,31,14,45,089,21*7C
$GPGSV,2,2,05,20,26,311,28,,,,,,,,,,,,*43
$GPGST,201252.00,,160.77,129.09,084.2,012.67,011.38,011.48*40
$GPRMC,201252.00,A,3919.81975,N,08206.08886,W,000.4,143.3,050314,07.2,W,A*06
$PTNLRTF,V,A,331988,05,3,3919.81975,N,08206.08886,W,00234,+000.122,-000.165,-000.001,0,1*5B
$PTNLRBA,1,1*57
$GPZDA,201253.00,05,03,2014,,*60
$GPGGA,201253.00,3919.81967,N,08206.08867,W,1,05,3.52,00234,M,-033,M,,*5E
$GPGLL,3919.81967,N,08206.08867,W,201253.00,A,A*72
$GPGSA,A,3,31,32,25,14,20,,,,,,,,5.23,3.52,3.86*0C
$GPGSV,2,1,05,31,77,320,35,32,61,282,38,25,35,052,32,14,45,089,21*7E
$GPGSV,2,2,05,20,26,311,29,,,,,,,,,,,,*42
$GPGST,201253.00,,155.49,123.90,083.9,012.46,011.15,011.25*4B
$GPRMC,201253.00,A,3919.81967,N,08206.08867,W,000.6,114.0,050314,07.2,W,A*08
$PTNLRTF,V,A,331989,05,3,3919.81967,N,08206.08867,W,00234,+000.271,-000.120,+000.017,0,1*53
$PTNLRBA,1,1*57
$GPZDA,201254.00,05,03,2014,,*67
$GPGGA,201254.00,3919.81982,N,08206.08872,W,1,05,3.52,00234,M,-033,M,,*56
$GPGLL,3919.81982,N,08206.08872,W,201254.00,A,A*7A
$GPGSA,A,3,31,32,25,14,20,,,,,,,,5.23,3.52,3.86*0C
$GPGSV,2,1,05,31,77,320,34,32,61,282,38,25,35,052,31,14,45,089,21*7C
$GPGSV,2,2,05,20,26,311,29,,,,,,,,,,,,*42
$GPGST,201254.00,,159.39,127.73,083.8,012.61,011.32,011.42*4E
$GPRMC,201254.00,A,3919.81982,N,08206.08872,W,000.0,258.0,050314,07.2,W,A*0D
$PTNLRTF,V,A,331991,05,3,3919.81982,N,08206.08872,W,00234,-000.006,-000.001,-000.010,0,1*52
$PTNLRBA,1,1*57
$GPZDA,201255.00,05,03,2014,,*66
$GPGGA,201255.00,3919.81968,N,08206.08897,W,1,05,3.52,00234,M,-033,M,,*58
$GPGLL,3919.81968,N,08206.08897,W,201255.00,A,A*74
$GPVTG,216.1,T,223.3,M,000.6,N,001.1,K,A*21
$GPGSA,A,3,31,32,25,14,20,,,,,,,,5.22,3.52,3.86*0D
$GPGSV,2,1,05,31,77,320,34,32,61,282,38,25,35,052,31,14,45,089,21*7C
$GPGSV,2,2,05,20,26,311,29,,,,,,,,,,,,*42
$GPGST,201255.00,,156.51,124.80,083.7,012.50,011.19,011.29*48
$GPRMC,201255.00,A,3919.81968,N,08206.08897,W,000.6,216.1,050314,07.2,W,A*0E
$PTNLRTF,V,A,331992,05,3,3919.81968,N,08206.08897,W,00234,-000.175,-000.239,-000.018,0,1*5A
$PTNLRBA,1,1*57
$GPZDA,201257.00,05,03,2014,,*64
$GPGGA,201257.00,3919.81918,N,08206.08870,W,1,05,3.52,00234,M,-033,M,,*54
$GPGLL,3919.81918,N,08206.08870,W,201257.00,A,A*78
$GPVTG,146.2,T,153.4,M,000.7,N,001.3,K,A*24
$GPGSA,A,3,31,32,25,14,20,,,,,,,,5.22,3.52,3.86*0D
$GPGSV,2,1,05,31,77,320,34,32,61,282,38,25,35,052,31,14,45,089,21*7C
$GPGSV,2,2,05,20,26,311,29,,,,,,,,,,,,*42
$GPGST,201257.00,,152.41,120.70,083.4,012.33,011.01,011.11*40
$GPRMC,201257.00,A,3919.81918,N,08206.08870,W,000.7,146.2,050314,07.2,W,A*06
$PTNLRTF,V,A,331993,05,3,3919.81918,N,08206.08870,W,00234,+000.204,-000.305,-000.001,0,1*50
$PTNLRBA,1,1*57
$GPZDA,201258.00,05,03,2014,,*6B
$GPGLL,3919.81878,N,08206.08848,W,201258.00,A,A*7B
$GPVTG,152.9,T,160.1,M,001.0,N,001.8,K,A*22
$GPGSA,A,3,31,32,25,14,20,,,,,,,,5.22,3.51,3.86*0E
$GPGSV,2,1,05,31,77,320,34,32,61,282,38,25,35,052,32,14,45,089,21*7F
$GPGSV,2,2,05,20,26,311,29,,,,,,,,,,,,*42
$GPGST,201258.00,,149.66,118.00,083.2,012.22,010.88,011.00*4A
$GPRMC,201258.00,A,3919.81878,N,08206.08848,W,001.0,152.9,050314,07.2,W,A*0D
$PTNLRTF,V,A,331994,05,3,3919.81878,N,08206.08848,W,00234,+000.224,-000.436,+000.027,0,1*5C
$PTNLRBA,1,1*57
$GPZDA,201259.00,05,03,2014,,*6A
$GPGGA,201259.00,3919.81855,N,08206.08845,W,1,05,3.51,00234,M,-033,M,,*57
$GPGLL,3919.81855,N,08206.08845,W,201259.00,A,A*78
$GPVTG,157.3,T,164.5,M,000.8,N,001.5,K,A*29
$GPGSA,A,3,31,32,25,14,20,,,,,,,,5.21,3.51,3.85*0E
$GPGSV,2,1,05,31,77,320,34,32,61,282,38,25,35,052,32,14,45,089,22*7C
$GPGSV,2,2,05,20,26,311,28,,,,,,,,,,,,*43
$GPGST,201259.00,,152.85,121.28,083.0,012.34,011.03,011.15*4F
$GPRMC,201259.00,A,3919.81855,N,08206.08845,W,000.8,157.3,050314,07.2,W,A*08
$PTNLRTF,V,A,331996,05,3,3919.81855,N,08206.08845,W,00234,+000.161,-000.385,-000.001,0,1*53
$PTNLRBA,1,1*57
$GPZDA,201300.00,05,03,2014,,*67
$GPGGA,201300.00,3919.81847,N,08206.08829,W,1,05,3.51,00234,M,-033,M,,*53
$GPGLL,3919.81847,N,08206.08829,W,201300.00,A,A*7C
$GPVTG,155.9,T,163.1,M,001.1,N,002.0,K,A*2C
$GPGSA,A,3,31,32,25,14,20,,,,,,,,5.21,3.51,3.85*0E
$GPGSV,2,1,05,31,77,320,34,32,61,282,38,25,35,052,32,14,45,089,21*7F
$GPGSV,2,2,05,20,26,311,29,,,,,,,,,,,,*42
$GPGST,201300.00,,147.62,115.96,082.9,012.13,010.79,010.91*41
$GPRMC,201300.00,A,3919.81847,N,08206.08829,W,001.1,155.9,050314,07.2,W,A*0C
$PTNLRTF,V,A,331997,05,3,3919.81847,N,08206.08829,W,00234,+000.226,-000.505,-000.015,0,1*50
$PTNLRBA,1,1*57
$GPZDA,201302.00,05,03,2014,,*65
$GPGLL,3919.81879,N,08206.08816,W,201302.00,A,A*7F
$GPVTG,178.0,T,185.2,M,000.1,N,000.3,K,A*21
$GPGSA,A,3,31,32,25,14,20,,,,,,,,5.21,3.50,3.85*0F
$GPGSV,2,1,05,31,77,320,34,32,61,282,39,25,35,052,32,14,45,089,23*7C
$GPGSV,2,2,05,20,26,311,29,,,,,,,,,,,,*42
$GPGST,201302.00,,146.03,114.20,082.9,012.06,010.71,010.82*47
$GPRMC,201302.00,A,3919.81879,N,08206.08816,W,000.1,178.0,050314,07.2,W,A*08
$PTNLRTF,V,A,331998,05,3,3919.81879,N,08206.08816,W,00234,+000.003,-000.075,-000.028,0,1*57
$PTNLRBA,1,1*57
$GPZDA,201303.00,05,03,2014,,*64
$GPGGA,201303.00,3919.81878,N,08206.08791,W,1,05,3.50,00234,M,-033,M,,*51
$GPGLL,3919.81878,N,08206.08791,W,201303.00,A,A*7F
$GPGSA,A,3,31,32,25,14,20,,,,,,,,5.20,3.50,3.85*0E
$GPGSV,2,1,05,31,77,320,34,32,61,282,38,25,35,052,32,14,45,089,22*7C
$GPGSV,2,2,05,20,26,311,27,,,,,,,,,,,,*4C
$GPGST,201303.00,,149.14,117.21,082.8,012.19,010.85,010.96*4C
$GPRMC,201303.00,A,3919.81878,N,08206.08791,W,000.5,122.2,050314,07.2,W,A*01
$PTNLRTF,V,A,331999,05,3,3919.81878,N,08206.08791,W,00234,+000.235,-000.148,-000.024,0,1*53
$PTNLRBA,1,1*57
$GPZDA,201304.00,05,03,2014,,*63
$GPGGA,201304.00,3919.81932,N,08206.08795,W,1,05,3.50,00234,M,-033,M,,*5D
$GPGLL,3919.81932,N,08206.08795,W,201304.00,A,A*73
$GPVTG,354.6,T,001.8,M,001.2,N,002.2,K,A*2D
$GPGSA,A,3,31,32,25,14,20,,,,,,,,5.20,3.50,3.84*0F
$GPGSV,2,1,05,31,77,320,33,32,61,282,39,25,35,052,32,14,45,089,21*79
$GPGSV,2,2,05,20,26,311,29,,,,,,,,,,,,*42
$GPGST,201304.00,,141.10,109.07,082.6,011.86,010.47,010.59*4A
$GPRMC,201304.00,A,3919.81932,N,08206.08795,W,001.2,354.6,050314,07.2,W,A*0C
$PTNLRTF,V,A,332001,05,3,3919.81932,N,08206.08795,W,00234,-000.057,+000.605,+000.010,0,1*5A
$PTNLRBA,1,1*57
$GPZDA,201306.00,05,03,2014,,*61
$GPGGA,201305.00,3919.82001,N,08206.08824,W,1,05,3.50,00234,M,-033,M,,*53
$GPGLL,3919.82001,N,08206.08824,W,201305.00,A,A*7D
$GPVTG,336.9,T,344.1,M,001.0,N,001.9,K,A*27
$GPGSA,A,3,31,32,25,14,20,,,,,,,,5.20,3.50,3.84*0F
$GPGSV,2,1,05,31,77,320,34,32,61,282,39,25,35,052,32,14,45,089,21*7E
$GPGSV,2,2,05,20,26,311,29,,,,,,,,,,,,*42
$GPGST,201305.00,,141.18,109.33,082.4,011.86,010.48,010.60*43
$GPRMC,201305.00,A,3919.82001,N,08206.08824,W,001.0,336.9,050314,07.2,W,A*0B
$PTNLRTF,V,A,332002,05,3,3919.82001,N,08206.08824,W,00234,-000.207,+000.485,-000.019,0,1*54
$PTNLRBA,1,1*57
$GPZDA,201307.00,05,03,2014,,*60
$GPGGA,201307.00,3919.81992,N,08206.08794,W,1,05,3.49,00234,M,-033,M,,*5D
$GPGLL,3919.81992,N,08206.08794,W,201307.00,A,A*7B
$GPVTG,024.4,T,031.6,M,000.5,N,000.9,K,A*29
$GPGSA,A,3,31,32,25,14,20,,,,,,,,5.19,3.49,3.84*0D
$GPGSV,2,1,05,31,77,320,34,32,61,282,39,25,35,052,31,14,45,089,19*76
$GPGSV,2,2,05,20,26,311,27,,,,,,,,,,,,*4C
$GPGST,201307.00,,158.14,126.33,082.2,012.55,011.27,011.38*47
$GPRMC,201307.00,A,3919.81992,N,08206.08794,W,000.5,024.4,050314,07.2,W,A*04
$PTNLRTF,V,A,332003,05,3,3919.81992,N,08206.08794,W,00234,+000.099,+000.218,+000.018,0,1*57
$PTNLRBA,1,1*57
$GPZDA,201308.00,05,03,2014,,*6F
$GPGLL,3919.81959,N,08206.08780,W,201308.00,A,A*76
$GPVTG,170.7,T,177.9,M,000.7,N,001.2,K,A*2E
$GPGSA,A,3,31,32,25,14,20,,,,,,,,5.19,3.49,3.84*0D
$GPGSV,2,1,05,31,77,320,34,32,61,282,39,25,35,052,31,14,45,089,23*7F
$GPGSV,2,2,05,20,26,311,29,,,,,,,,,,,,*42
$GPGST,201308.00,,154.92,123.10,082.0,012.42,011.12,011.24*41
$GPRMC,201308.00,A,3919.81959,N,08206.08780,W,000.7,170.7,050314,07.2,W,A*08
$PTNLRTF,V,A,332004,05,3,3919.81959,N,08206.08780,W,00234,+000.054,-000.332,+000.021,0,1*56
$PTNLRBA,1,1*57
$GPZDA,201309.00,05,03,2014,,*6E
$GPGGA,201309.00,3919.81986,N,08206.08778,W,1,05,3.49,00234,M,-033,M,,*54
$GPGLL,3919.81986,N,08206.08778,W,201309.00,A,A*72
$GPVTG,350.2,T,357.4,M,000.5,N,000.9,K,A*2E
$GPGSA,A,3,31,32,25,14,20,,,,,,,,5.18,3.49,3.84*0C
$GPGSV,2,1,05,31,77,320,32,32,61,282,38,25,35,052,31,14,45,089,21*7A
$GPGSV,2,2,05,20,26,311,27,,,,,,,,,,,,*4C
$GPGST,201309.00,,173.44,141.50,082.0,013.15,011.92,012.03*43
$GPRMC,201309.00,A,3919.81986,N,08206.08778,W,000.5,350.2,050314,07.2,W,A*0B
$PTNLRTF,V,A,332006,05,3,3919.81986,N,08206.08778,W,00234,-000.040,+000.233,-000.013,0,1*53
$PTNLRBA,1,1*57
$GPZDA,201310.00,05,03,2014,,*66
$GPGGA,201310.00,3919.82023,N,08206.08805,W,1,05,3.49,00234,M,-033,M,,*5C
$GPGLL,3919.82023,N,08206.08805,W,201310.00,A,A*7A
$GPVTG,336.3,T,343.5,M,000.9,N,001.7,K,A*28
$GPGSA,A,3,31,32,25,14,20,,,,,,,,5.18,3.49,3.83*0B
$GPGSV,2,1,05,31,77,320,33,32,61,282,39,25,35,052,32,14,45,089,21*79
$GPGSV,2,2,05,20,26,311,28,,,,,,,,,,,,*43
$GPGST,201310.00,,173.93,141.85,082.0,013.16,011.94,012.04*4B
$GPRMC,201310.00,A,3919.82023,N,08206.08805,W,000.9,336.3,050314,07.2,W,A*0E
$PTNLRTF,V,A,332007,05,3,3919.82023,N,08206.08805,W,00234,-000.186,+000.425,-000.022,0,1*5A
$PTNLRBA,1,1*57
$GPZDA,201312.00,05,03,2014,,*64
$GPGLL,3919.82067,N,08206.08806,W,201312.00,A,A*7B
$GPVTG,348.4,T,355.6,M,001.3,N,002.4,K,A*29
$GPGSA,A,3,31,32,25,14,20,,,,,,,,5.18,3.48,3.83*0A
$GPGSV,2,1,05,31,77,320,33,32,61,282,38,25,35,052,32,14,45,089,19*73
$GPGSV,2,2,05,20,26,311,28,,,,,,,,,,,,*43
$GPGST,201312.00,,175.98,143.96,081.7,013.24,012.03,012.14*4D
$GPRMC,201312.00,A,3919.82067,N,08206.08806,W,001.3,348.4,050314,07.2,W,A*0A
$PTNLRTF,V,A,332008,05,3,3919.82067,N,08206.08806,W,00234,-000.137,+000.664,+000.015,0,1*59
$PTNLRBA,1,1*57
$GPZDA,201313.00,05,03,2014,,*65
$GPGGA,201313.00,3919.82067,N,08206.08813,W,1,05,3.48,00234,M,-033,M,,*59
$GPGLL,3919.82067,N,08206.08813,W,201313.00,A,A*7E
$GPGSA,A,3,31,32,25,14,20,,,,,,,,5.18,3.48,3.83*0A
$GPGSV,2,1,05,31,77,322,34,32,61,282,39,25,35,052,31,14,45,089,17*7A
$GPGSV,2,2,05,20,26,311,27,,,,,,,,,,,,*4C
$GPGST,201313.00,,177.20,144.98,081.6,013.29,012.07,012.18*40
$GPRMC,201313.00,A,3919.82067,N,08206.08813,W,000.4,311.8,050314,07.2,W,A*09
$PTNLRTF,V,A,332009,05,3,3919.82067,N,08206.08813,W,00234,-000.153,+000.136,-000.006,0,1*5A
$PTNLRBA,1,1*57
$GPZDA,201314.00,05,03,2014,,*62
$GPGGA,201314.00,3919.82071,N,08206.08801,W,1,05,3.48,00234,M,-033,M,,*5A
$GPGLL,3919.82071,N,08206.08801,W,201314.00,A,A*7D
$GPVTG,047.1,T,054.3,M,000.3,N,000.5,K,A*25
$GPGSA,A,3,31,32,25,14,20,,,,,,,,5.17,3.48,3.83*05
$GPGSV,2,1,05,31,77,322,33,32,61,282,39,25,35,052,32,14,45,089,21*7B
$GPGSV,2,2,05,20,26,311,28,,,,,,,,,,,,*43
$GPGST,201314.00,,169.80,137.51,081.6,013.00,011.76,011.87*48
$GPRMC,201314.00,A,3919.82071,N,08206.08801,W,000.3,047.1,050314,07.2,W,A*04
$PTNLRTF,V,A,332011,05,3,3919.82071,N,08206.08801,W,00234,+000.104,+000.096,+000.031,0,1*5A
$PTNLRBA,1,1*57
$GPZDA,201316.00,05,03,2014,,*60
$GPGGA,201315.00,3919.82067,N,08206.08809,W,1,05,3.48,00234,M,-033,M,,*54
$GPGLL,3919.82067,N,08206.08809,W,201315.00,A,A*73
$GPVTG,284.6,T,291.8,M,000.2,N,000.3,K,A*28
$GPGSA,A,3,31,32,25,14,20,,,,,,,,5.17,3.47,3.83*0A
$GPGSV,2,1,05,31,77,322,33,32,61,282,39,25,35,052,31,14,45,089,19*73
$GPGSV,2,2,05,20,26,311,27,,,,,,,,,,,,*4C
$GPGST,201315.00,,160.46,128.22,081.5,012.64,011.35,011.47*4B
$GPRMC,201315.00,A,3919.82067,N,08206.08809,W,000.2,284.6,050314,07.2,W,A*01
$PTNLRTF,V,A,332012,05,3,3919.82067,N,08206.08809,W,00234,-000.083,+000.022,+000.003,0,1*50
$PTNLRBA,1,1*57
$GPZDA,201317.00,05,03,2014,,*61
$GPGGA,201317.00,3919.82071,N,08206.08824,W,1,05,3.47,00234,M,-033,M,,*51
$GPGLL,3919.82071,N,08206.08824,W,201317.00,A,A*79
$GPVTG,186.2,T,193.4,M,000.4,N,000.8,K,A*2D
$GPGSA,A,3,31,32,25,14,20,,,,,,,,5.17,3.47,3.83*0A
$GPGSV,2,1,05,31,77,322,32,32,61,282,38,25,35,052,31,14,45,089,20*79
$GPGSV,2,2,05,20,26,311,28,,,,,,,,,,,,*43
$GPGST,201317.00,,209.38,177.03,081.3,014.44,013.33,013.43*45
$GPRMC,201317.00,A,3919.82071,N,08206.08824,W,000.4,186.2,050314,07.2,W,A*08
$PTNLRTF,V,A,332013,05,3,3919.82071,N,08206.08824,W,00234,-000.024,-000.223,-000.003,0,1*57
$PTNLRBA,1,1*57
$GPZDA,201318.00,05,03,2014,,*6E
$GPGLL,3919.82066,N,08206.08845,W,201318.00,A,A*77
$GPVTG,230.3,T,237.5,M,000.3,N,000.6,K,A*27
$GPGSA,A,3,31,32,25,14,20,,,,,,,,5.16,3.47,3.82*0A
$GPGSV,2,1,05,31,77,322,33,32,61,282,39,25,35,052,32,14,45,089,21*7B
$GPGSV,2,2,05,20,26,311,27,,,,,,,,,,,,*4C
$GPGST,201318.00,,200.59,168.14,081.3,014.14,013.00,013.10*4F
$GPRMC,201318.00,A,3919.82066,N,08206.08845,W,000.3,230.3,050314,07.2,W,A*0E
$PTNLRTF,V,A,332014,05,3,3919.82066,N,08206.08845,W,00234,-000.136,-000.113,-000.036,0,1*55
$PTNLRBA,1,1*57
$GPZDA,201319.00,05,03,2014,,*6F
$GPGGA,201319.00,3919.82057,N,08206.08839,W,1,05,3.47,00234,M,-033,M,,*57
$GPGLL,3919.82057,N,08206.08839,W,201319.00,A,A*7F
$GPVTG,148.7,T,155.9,M,000.4,N,000.7,K,A*22
$GPGSA,A,3,31,32,25,14,20,,,,,,,,5.16,3.47,3.82*0A
$GPGSV,2,1,05,31,77,322,33,32,61,282,39,25,35,052,31,14,45,089,16*7C
$GPGSV,2,2,05,20,26,311,28,,,,,,,,,,,,*43
$GPGST,201319.00,,230.37,197.83,081.3,015.15,014.09,014.18*4A
$GPRMC,201319.00,A,3919.82057,N,08206.08839,W,000.4,148.7,050314,07.2,W,A*09
$PTNLRTF,V,A,332016,05,3,3919.82057,N,08206.08839,W,00234,+000.098,-000.161,-000.011,0,1*5D
$PTNLRBA,1,1*57
$GPZDA,201320.00,05,03,2014,,*65
$GPGGA,201320.00,3919.82036,N,08206.08841,W,1,05,3.47,00234,M,-033,M,,*55
$GPGLL,3919.82036,N,08206.08841,W,201320.00,A,A*7D
$GPVTG,173.0,T,180.2,M,000.6,N,001.2,K,A*28
$GPGSA,A,3,31,32,25,14,20,,,,,,,,5.16,3.46,3.82*0B
$GPGSV,2,1,05,31,77,322,32,32,61,282,39,25,35,052,32,14,45,089,21*7A
$GPGSV,2,2,05,20,26,311,26,,,,,,,,,,,,*4D
$GPGST,201320.00,,231.56,199.01,081.2,015.19,014.13,014.23*4C
$GPRMC,201320.00,A,3919.82036,N,08206.08841,W,000.6,173.0,050314,07.2,W,A*06
$PTNLRTF,V,A,332017,05,3,3919.82036,N,08206.08841,W,00234,+000.039,-000.320,+000.012,0,1*5D
$PTNLRBA,1,1*57
$GPZDA,201322.00,05,03,2014,,*67
$GPGLL,3919.82005,N,08206.08866,W,201322.00,A,A*7A
$GPVTG,193.4,T,200.6,M,000.3,N,000.6,K,A*2D
$GPGSA,A,2,31,32,25,,,,,,,,,,33.5,33.5,1.00*06
$GPGSV,2,1,05,31,77,322,34,32,61,282,39,25,35,052,32,14,45,089,21*7C
$GPGSV,2,2,05,20,26,311,28,,,,,,,,,,,,*43
$GPGST,201322.00,,222.46,188.13,080.5,014.88,013.75,013.84*4C
$GPRMC,201322.00,A,3919.82005,N,08206.08866,W,000.3,193.4,050314,07.2,W,A*0E
$PTNLRTF,V,A,332018,03,2,3919.82005,N,08206.08866,W,00234,-000.039,-000.163,-000.003,0,1*55
$PTNLRBA,1,1*57
$GPZDA,201323.00,05,03,2014,,*66
$GPGGA,201323.00,3919.81940,N,08206.08855,W,1,05,3.46,00234,M,-033,M,,*59
$GPGLL,3919.81940,N,08206.08855,W,201323.00,A,A*70
$GPVTG,173.8,T,181.0,M,000.8,N,001.4,K,A*2B
$GPGSA,A,3,31,32,25,14,20,,,,,,,,5.15,3.46,3.82*08
$GPGSV,2,1,05,31,77,322,33,32,61,282,39,25,35,052,32,14,45,089,19*70
$GPGSV,2,2,05,20,26,311,26,,,,,,,,,,,,*4D
$GPGST,201323.00,,224.85,190.50,080.6,014.96,013.84,013.93*4E
$GPRMC,201323.00,A,3919.81940,N,08206.08855,W,000.8,173.8,050314,07.2,W,A*0D
$PTNLRTF,V,A,332019,05,3,3919.81940,N,08206.08855,W,00234,+000.044,-000.400,+000.022,0,1*51
$PTNLRBA,1,1*57
$GPZDA,201324.00,05,03,2014,,*61
$GPGGA,201324.00,3919.81918,N,08206.08847,W,1,05,3.46,00234,M,-033,M,,*50
$GPGLL,3919.81918,N,08206.08847,W,201324.00,A,A*79
$GPVTG,161.0,T,168.2,M,001.0,N,001.8,K,A*20
$GPGSA,A,3,31,32,25,14,20,,,,,,,,5.15,3.46,3.81*0B
$GPGSV,2,1,05,31,77,322,33,32,61,282,39,25,35,052,32,14,45,089,21*7B
$GPGSV,2,2,05,20,26,311,26,,,,,,,,,,,,*4D
$GPGST,201324.00,,222.41,187.93,080.6,014.88,013.74,013.83*4F
$GPRMC,201324.00,A,3919.81918,N,08206.08847,W,001.0,161.0,050314,07.2,W,A*06
$PTNLRTF,V,A,332021,05,3,3919.81918,N,08206.08847,W,00234,+000.165,-000.479,+000.003,0,1*5B
$PTNLRBA,1,1*57
$GPZDA,201325.00,05,03,2014,,*60
$GPGGA,201325.00,3919.81925,N,08206.08839,W,1,05,3.46,00234,M,-033,M,,*56
$GPGLL,3919.81925,N,08206.08839,W,201325.00,A,A*7F
$GPVTG,143.8,T,151.0,M,000.5,N,000.9,K,A*24
$GPGSA,A,3,31,32,25,14,20,,,,,,,,5.14,3.45,3.81*09
$GPGSV,2,1,05,31,77,322,32,32,61,282,39,25,35,052,32,14,45,089,23*78
$GPGSV,2,2,05,20,26,311,26,,,,,,,,,,,,*4D
$GPGST,201325.00,,211.17,176.71,080.4,014.50,013.33,013.42*46
$GPRMC,201325.00,A,3919.81925,N,08206.08839,W,000.5,143.8,050314,07.2,W,A*0C
$PTNLRTF,V,A,332022,05,3,3919.81925,N,08206.08839,W,00234,+000.154,-000.210,-000.014,0,1*54
$PTNLRBA,1,1*57
$GPZDA,201327.00,05,03,2014,,*62
$GPGGA,201327.00,3919.81891,N,08206.08844,W,1,05,3.45,00234,M,-033,M,,*53
$GPGLL,3919.81891,N,08206.08844,W,201327.00,A,A*79
$GPVTG,213.7,T,220.9,M,000.6,N,001.0,K,A*2A
$GPGSA,A,3,31,32,25,14,20,,,,,,,,5.14,3.45,3.81*09
$GPGSV,2,1,05,31,77,322,32,32,61,282,39,25,35,052,32,14,45,089,23*78
$GPGSV,2,2,05,20,26,311,26,,,,,,,,,,,,*4D
$GPGST,201327.00,,213.52,178.67,080.6,014.58,013.40,013.49*4B
$GPRMC,201327.00,A,3919.81891,N,08206.08844,W,000.6,213.7,050314,07.2,W,A*00
$PTNLRTF,V,A,332023,05,3,3919.81891,N,08206.08844,W,00234,-000.158,-000.237,+000.001,0,1*5C
$PTNLRBA,1,1*57
$GPZDA,201328.00,05,03,2014,,*6D
$GPGLL,3919.81843,N,08206.08829,W,201328.00,A,A*72
$GPVTG,167.7,T,174.9,M,000.8,N,001.5,K,A*23
$GPGSA,A,3,31,32,25,14,20,,,,,,,,5.14,3.45,3.81*09
$GPGSV,2,1,05,31,77,322,32,32,61,282,39,25,35,052,32,14,45,089,22*79
$GPGSV,2,2,05,20,26,311,25,,,,,,,,,,,,*4E
$GPGST,201328.00,,213.27,178.40,080.3,014.57,013.39,013.49*47
$GPRMC,201328.00,A,3919.81843,N,08206.08829,W,000.8,167.7,050314,07.2,W,A*05
$PTNLRTF,V,A,332024,05,3,3919.81843,N,08206.08829,W,00234,+000.089,-000.408,+000.007,0,1*58
$PTNLRBA,1,1*57
$GPZDA,201329.00,05,03,2014,,*6C
$GPGGA,201329.00,3919.81874,N,08206.08845,W,1,05,3.45,00234,M,-033,M,,*57
$GPGLL,3919.81874,N,08206.08845,W,201329.00,A,A*7D
$GPVTG,259.0,T,266.2,M,000.3,N,000.6,K,A*28
$GPGSA,A,3,31,32,25,20,,,,,,,,,12.4,9.09,8.45*0A
$GPGSV,2,1,05,31,77,322,32,32,61,282,40,25,35,052,32,14,45,089,22*77
$GPGSV,2,2,05,20,26,311,27,,,,,,,,,,,,*4C
$GPGST,201329.00,,203.22,168.23,080.3,014.22,013.01,013.10*43
$GPRMC,201329.00,A,3919.81874,N,08206.08845,W,000.3,259.0,050314,07.2,W,A*08
$PTNLRTF,V,A,332026,04,3,3919.81874,N,08206.08845,W,00234,-000.157,-000.031,-000.021,0,1*5D
$PTNLRBA,1,1*57
$GPZDA,201331.00,05,03,2014,,*65
$GPGGA,201331.00,3919.81861,N,08206.08841,W,1,05,3.44,00234,M,-033,M,,*5F
$GPGLL,3919.81861,N,08206.08841,W,201331.00,A,A*74
$GPVTG,018.4,T,025.6,M,000.4,N,000.7,K,A*2C
$GPGSA,A,3,31,32,25,14,20,,,,,,,,5.13,3.44,3.80*0E
$GPGSV,2,1,05,31,77,322,33,32,61,282,40,25,35,052,32,14,45,089,22*76
$GPGSV,2,2,05,20,26,311,29,,,,,,,,,,,,*42
$GPGST,201331.00,,188.21,153.03,079.9,013.68,012.41,012.51*47
$GPRMC,201331.00,A,3919.81861,N,08206.08841,W,000.4,018.4,050314,07.2,W,A*05
$PTNLRTF,V,A,332027,05,3,3919.81861,N,08206.08841,W,00234,+000.063,+000.190,+000.013,0,1*56
$PTNLRBA,1,1*57
$GPZDA,201332.00,05,03,2014,,*66
$GPGLL,3919.81828,N,08206.08840,W,201332.00,A,A*7B
$GPVTG,025.4,T,032.6,M,000.1,N,000.2,K,A*24
$GPGSA,A,3,31,32,25,14,20,,,,,,,,5.13,3.44,3.80*0E
$GPGSV,2,1,05,31,77,322,33,32,61,282,39,25,35,052,32,14,45,089,23*79
$GPGSV,2,2,05,20,26,311,28,,,,,,,,,,,,*43
$GPGST,201332.00,,177.32,142.13,079.8,013.27,011.97,012.07*46
$GPRMC,201332.00,A,3919.81828,N,08206.08840,W,000.1,025.4,050314,07.2,W,A*01
$PTNLRTF,V,A,332028,05,3,3919.81828,N,08206.08840,W,00234,+000.025,+000.053,+000.005,0,1*5E
$PTNLRBA,1,1*57
$GPZDA,201333.00,05,03,2014,,*67
$GPGGA,201333.00,3919.81773,N,08206.08827,W,1,04,3.74,00234,M,-033,M,,*53
$GPGLL,3919.81773,N,08206.08827,W,201333.00,A,A*7A
$GPGSA,A,3,31,25,14,20,,,,,,,,,5.33,3.74,3.80*0E
$GPGSV,2,1,05,31,77,322,32,32,61,282,02,25,35,052,32,14,45,089,22*71
$GPGSV,2,2,05,20,26,311,25,,,,,,,,,,,,*4E
$GPGST,201333.00,,170.36,135.14,079.9,013.01,011.67,011.78*42
