$GPZDA,,,,,,*48
$GPGGA,,3917.25664,N,08203.79517,W,7,00,,,,,,,*43
$GPGLL,3917.25664,N,08203.79517,W,,V,M*45
$GPVTG,,,,,,,,,M*33
$GPGSA,A,1,,,,,,,,,,,,,,,*1E
$GPGSV,2,1,06,02,57,070,43,26,28,153,38,04,13,092,33,10,27,050,26*76
$GPGSV,2,2,06,15,08,185,31,05,86,003,36,,,,,,,,*70
$GPRMC,,V,3917.25664,N,08203.79517,W,,,,,,M*72
$PTNLRTF,V,A,146126,00,0,,,,,,,,,,*4B
$PTNLRBA,1,1*57
$GPZDA,,,,,,*48
$GPGGA,,3917.25664,N,08203.79517,W,7,00,,,,,,,*43
$GPGLL,3917.25664,N,08203.79517,W,,V,M*45
$GPVTG,,,,,,,,,M*33
$GPGSA,A,1,,,,,,,,,,,,,,,*1E
$GPGSV,2,1,06,02,57,070,43,26,28,153,38,04,13,092,32,10,27,050,31*71
$GPGSV,2,2,0$GPZDA,,,,,,*48
$GPGGA,,3917.25664,N,08203.79517,W,7,00,,,,,,,*43
$GPGLL,3917.25664,N,08203.79517,W,,V,M*45
$GPVTG,,,,,,,,,M*33
$GPGSA,A,1,,,,,,,,,,,,,,,*1E
$GPGSV,2,1,06,02,57,070,43,26,28,153,39,04,13,092,31,10,27,050,29*7A
$GPGSV,2,2,06,15,08,185,31,05,86,003,36,,,,,,,,*70
$GPRMC,,V,3917.25664,N,08203.79517,W,,,,,,M*72
$PTNLRTF,V,A,146128,00,0,,,,,,,,,,*45
$PTNLRBA,1,1*57
$GPZDA,,,,,,*48
$GPGGA,,3917.25664,N,08203.79517,W,7,00,,,,,,,*43
$GPGLL,3917.25664,N,08203.79517,W,,V,M*45
$GPVTG,,,,,,,,,M*33
$GPGSA,A,1,,,,,,,,,,,,,,,*1E
$GPGSV,2,1,06,02,57,070,43,26,28,153,38,04,13,092,28,10,27,050,25*7F
$GPGSV,2,2,06,15,08,185,31,05,86,003,37,,,,,,,,*71
$GPRMC,,V,3917.25664,N,08203.79517,W,,,,,,M*72
$PTNLRTF,V,A,146129,00,0,,,,,,,,,,*44
$PTNLRBA,1,1*57
$GPZDA,,,,,,*48
$GPGGA,,3917.25664,N,08203.79517,W,7,00,,,,,,,*43
$GPGLL,3917.25664,N,08203.79517,W,,V,M*45
$GPVTG,,,,,,,,,M*33
$GPGSA,A,1,,,,,,,,,,,,,,,*1E
$GPGSV,2,1,06,02,57,070,43,26,28,153,38,04,13,092,30,10,27,050,24*77
$GPGSV,2,2,06,15,08,185,32,05,86,003,37,,,,,,,,*72
$GPRMC,,V,3917.25664,N,08203.79517,W,,,,,,M*72
$PTNLRTF,V,A,146130,00,0,,,,,,,,,,*4C
$PTNLRBA,1,1*57
$GPZDA,,,,,,*48
$GPGGA,,3917.25664,N,08203.79517,W,7,00,,,,,,,*43
$GPGLL,3917.25664,N,08203.79517,W,,V,M*45
$GPVTG,,,,,,,,,M*33
$GPGSA,A,1,,,,,,,,,,,,,,,*1E
$GPGSV,2,1,06,02,57,070,44,26,28,153,38,04,13,092,30,10,27,050,30*75
$GPGSV,2,2,06,15,08,185,31,05,86,003,36,,,,,,,,*70
$GPRMC,,V,3917.25664,N,08203.79517,W,,,,,,M*72
$PTNLRTF,V,A,146131,00,0,,,,,,,,,,*4D
$PTNLRBA,1,1*57
$GPZDA,,,,,,*48
$GPGGA,,3917.25664,N,08203.79517,W,7,00,,,,,,,*43
$GPGLL,3917.25664,N,08203.79517,W,,V,M*45
$GPVTG,,,,,,,,,M*33
$GPGSA,A,1,,,,,,,,,,,,,,,*1E
$GPGSV,2,1,06,02,57,070,42,26,28,153,38,04,13,092,30,10,27,050,30*73
$GPGSV,2,2,06,15,08,185,32,05,86,003,36,,,,,,,,*73
$GPRMC,,V,3917.25664,N,08203.79517,W,,,,,,M*72
$PTNLRTF,V,A,146132,00,0,,,,,,,,,,*4E
$PTNLRBA,1,1*57
$GPZDA,,,,,,*48
$GPGGA,,3917.25664,N,08203.79517,W,7,00,,,,,,,*43
$GPGLL,3917.25664,N,08203.79517,W,,V,M*45
$GPVTG,,,,,,,,,M*33
$GPGSA,A,1,,,,,,,,,,,,,,,*1E
$GPGSV,2,1,06,02,57,070,42,26,28,153,37,04,13,092,31,10,27,050,29*75
$GPGSV,2,2,06,15,08,185,32,05,86,003,36,,,,,,,,*73
$GPRMC,,V,3917.25664,N,08203.79517,W,,,,,,M*72
$PTNLRTF,V,A,146133,00,0,,,,,,,,,,*4F
$PTNLRBA,1,1*57
$GPZDA,,,,,,*48
$GPGGA,,3917.25664,N,08203.79517,W,7,00,,,,,,,*43
$GPGLL,3917.25664,N,08203.79517,W,,V,M*45
$GPVTG,,,,,,,,,M*33
$GPGSA,A,1,,,,,,,,,,,,,,,*1E
$GPGSV,2,1,06,02,57,070,41,26,28,153,37,04,13,092,31,10,27,050,31*7F
$GPGSV,2,2,06,15,08,185,32,05,86,003,36,,,,,,,,*73
$GPRMC,,V,3917.25664,N,08203.79517,W,,,,,,M*72
$PTNLRTF,V,A,146134,00,0,,,,,,,,,,*48
$PTNLRBA,1,1*57
$GPZDA,,,,,,*48
$GPGGA,,3917.25664,N,08203.79517,W,7,00,,,,,,,*43
$GPGLL,3917.25664,N,08203.79517,W,,V,M*45
$GPVTG,,,,,,,,,M*33
$GPGSA,A,1,,,,,,,,,,,,,,,*1E
$GPGSV,2,1,06,02,57,070,42,26,28,153,37,04,13,092,31,10,27,050,31*7C
$GPGSV,2,2,06,15,08,185,32,05,86,003,36,,,,,,,,*73
$GPRMC,,V,3917.25664,N,08203.79517,W,,,,,,M*72
$PTNLRTF,V,A,146135,00,0,,,,,,,,,,*49
$PTNLRBA,1,1*57
$GPZDA,,,,,,*48
$GPGGA,,3917.25664,N,08203.79517,W,7,00,,,,,,,*43
$GPGLL,3917.25664,N,08203.79517,W,,V,M*45
$GPVTG,,,,,,,,,M*33
$GPGSA,A,1,,,,,,,,,,,,,,,*1E
$GPGSV,2,1,06,02,57,070,42,26,28,153,37,04,13,092,28,10,27,050,32*77
$GPGSV,2,2,06,15,08,185,32,05,86,003,36,,,,,,,,*73
$GPRMC,,V,3917.25664,N,08203.79517,W,,,,,,M*72
$PTNLRTF,V,A,146136,00,0,,,,,,,,,,*4A
$PTNLRBA,1,1*57
$GPZDA,163521.00,23,12,2013,,*66
$GPGGA,,3917.25664,N,08203.79517,W,7,00,,,,,,,*43
$GPGLL,3917.25664,N,08203.79517,W,,V,M*45
$GPVTG,,,,,,,,,M*33
$GPGSA,A,1,,,,,,,,,,,,,,,*1E
$GPGSV,2,1,06,02,57,070,42,26,28,153,37,04,13,092,31,10,27,050,32*7F
$GPGSV,2,2,06,15,08,185,33,05,86,003,37,,,,,,,,*73
$GPRMC,163521.00,V,3917.25664,N,08203.79517,W,,,,,,M*5E
$PTNLRTF,V,A,146137,00,0,,,,,,,,,,*4B
$PTNLRBA,1,1*57
$GPZDA,163522.00,23,12,2013,,*65
$GPGGA,,3917.25664,N,08203.79517,W,7,00,,,,,,,*43
$GPGLL,3917.25664,N,08203.79517,W,,V,M*45
$GPVTG,,,,,,,,,M*33
$GPGSA,A,1,,,,,,,,,,,,,,,*1E
$GPGSV,2,1,06,02,57,070,43,26,28,153,37,04,13,092,31,10,27,050,31*7D
$GPGSV,2,2,06,15,08,185,33,05,86,003,37,,,,,,,,*73
$GPRMC,163522.00,V,3917.25664,N,08203.79517,W,,,,,,M*5D
$PTNLRTF,V,A,146138,00,0,,,,,,,,,,*44
$PTNLRBA,1,1*57
$GPZDA,163523.00,23,12,2013,,*64
$GPGGA,,3917.25664,N,08203.79517,W,7,00,,,,,,,*43
$GPGLL,3917.25664,N,08203.79517,W,,V,M*45
$GPVTG,,,,,,,,,M*33
$GPGSA,A,1,,,,,,,,,,,,,,,*1E
$GPGSV,2,1,06,02,57,070,42,26,28,153,37,04,13,092,31,10,27,050,33*7E
$GPGSV,2,2,06,15,08,185,32,05,86,003,37,,,,,,,,*72
$GPRMC,163523.00,V,3917.25664,N,08203.79517,W,,,,,,M*5C
$PTNLRTF,V,A,146139,00,0,,,,,,,,,,*45
$PTNLRBA,1,1*57
$GPZDA,163524.00,23,12,2013,,*63
$GPGGA,,3917.25664,N,08203.79517,W,7,00,,,,,,,*43
$GPGLL,3917.25664,N,08203.79517,W,,V,M*45
$GPVTG,,,,,,,,,M*33
$GPGSA,A,1,,,,,,,,,,,,,,,*1E
$GPGSV,2,1,06,02,48,086,43,26,40,145,37,04,05,101,26,10,16,054,36*78
$GPGSV,2,2,06,15,21,183,33,05,73,032,37,,,,,,,,*76
$GPRMC,163524.00,V,3917.25664,N,08203.79517,W,,,,,,M*5B
$PTNLRTF,V,A,146140,00,0,,,,,,,,,,*4B
$PTNLRBA,1,1*57
$GPZDA,163525.00,23,12,2013,,*62
$GPGGA,,3917.25664,N,08203.79517,W,7,00,,,,,,,*43
$GPGLL,3917.25664,N,08203.79517,W,,V,M*45
$GPVTG,,,,,,,,,M*33
$GPGSA,A,1,,,,,,,,,,,,,,,*1E
$GPGSV,2,1,06,02,48,086,42,26,40,145,36,04,05,101,28,10,16,054,33*73
$GPGSV,2,2,06,15,21,183,32,05,73,032,37,,,,,,,,*77
$GPRMC,163525.00,V,3917.25664,N,08203.79517,W,,,,,,M*5A
$PTNLRTF,V,A,146141,00,0,,,,,,,,,,*4A
$PTNLRBA,1,1*57
$GPZDA,163526.00,23,12,2013,,*61
$GPGGA,,3917.25664,N,08203.79517,W,7,00,,,,,,,*43
$GPGLL,3917.25664,N,08203.79517,W,,V,M*45
$GPVTG,,,,,,,,,M*33
$GPGSA,A,1,,,,,,,,,,,,,,,*1E
$GPGSV,2,1,06,02,48,086,43,26,40,145,36,04,05,101,33,10,16,054,30*7B
$GPGSV,2,2,06,15,21,183,34,05,73,032,38,,,,,,,,*7E
$GPRMC,163526.00,V,3917.25664,N,08203.79517,W,,,,,,M*59
$PTNLRTF,V,A,146142,00,0,,,,,,,,,,*49
$PTNLRBA,1,1*57
$GPZDA,163527.00,23,12,2013,,*60
$GPGGA,,3917.25664,N,08203.79517,W,7,02,,,,,,,*41
$GPGLL,3917.25664,N,08203.79517,W,,V,M*45
$GPVTG,,,,,,,,,M*33
$GPGSA,A,1,02,26,,,,,,,,,,,,,*18
$GPGSV,2,1,06,02,48,086,43,26,40,145,35,04,05,101,29,10,16,054,26*74
$GPGSV,2,2,06,15,21,183,32,05,73,032,36,,,,,,,,*76
$GPRMC,163527.00,V,3917.25664,N,08203.79517,W,,,,,,M*58
$PTNLRTF,V,A,146143,02,0,,,,,,,,,,*4A
$PTNLRBA,1,1*57
$GPZDA,163528.00,23,12,2013,,*6F
$GPGGA,,3917.25664,N,08203.79517,W,7,02,,,,,,,*41
$GPGLL,3917.25664,N,08203.79517,W,,V,M*45
$GPVTG,,,,,,,,,M*33
$GPGSA,A,1,02,26,,,,,,,,,,,,,*18
$GPGSV,2,1,06,02,48,086,36,26,40,145,28,04,05,101,28,10,16,054,24*79
$GPGSV,2,2,06,15,21,183,22,05,73,032,31,,,,,,,,*70
$GPRMC,163528.00,V,3917.25664,N,08203.79517,W,,,,,,M*57
$PTNLRTF,V,A,146144,02,0,,,,,,,,,,*4D
$PTNLRBA,1,1*57
$GPZDA,163529.00,23,12,2013,,*6E
$GPGGA,,3917.25664,N,08203.79517,W,7,02,,,,,,,*41
$GPGLL,3917.25664,N,08203.79517,W,,V,M*45
$GPVTG,,,,,,,,,M*33
$GPGSA,A,1,02,26,,,,,,,,,,,,,*18
$GPGSV,2,1,06,02,48,086,36,26,40,145,27,04,05,101,30,10,16,054,27*7C
$GPGSV,2,2,06,15,21,183,28,05,73,032,34,,,,,,,,*7F
$GPRMC,163529.00,V,3917.25664,N,08203.79517,W,,,,,,M*56
$PTNLRTF,V,A,146145,02,0,,,,,,,,,,*4C
$PTNLRBA,1,1*57
$GPZDA,163530.00,23,12,2013,,*66
$GPGGA,,3917.25664,N,08203.79517,W,7,02,,,,,,,*41
$GPGLL,3917.25664,N,08203.79517,W,,V,M*45
$GPVTG,,,,,,,,,M*33
$GPGSA,A,1,02,26,,,,,,,,,,,,,*18
$GPGSV,2,1,07,02,48,086,38,26,40,145,30,04,05,101,36,10,16,054,34*71
$GPGSV,2,2,07,15,21,183,31,05,73,032,37,30,,000,30,,,,*45
$GPRMC,163530.00,V,3917.25664,N,08203.79517,W,,,,,,M*5E
$PTNLRTF,V,A,146146,02,0,,,,,,,,,,*4F
$PTNLRBA,1,1*57
$GPZDA,163531.00,23,12,2013,,*67
$GPGGA,,3917.25664,N,08203.79517,W,7,02,,,,,,,*41
$GPGLL,3917.25664,N,08203.79517,W,,V,M*45
$GPVTG,,,,,,,,,M*33
$GPGSA,A,1,02,26,,,,,,,,,,,,,*18
$GPGSV,2,1,07,02,48,086,39,26,40,145,33,04,05,101,36,10,16,054,35*72
$GPGSV,2,2,07,15,21,183,33,05,73,032,38,30,,000,31,,,,*49
$GPRMC,163531.00,V,3917.25664,N,08203.79517,W,,,,,,M*5F
$PTNLRTF,V,A,146147,02,0,,,,,,,,,,*4E
$PTNLRBA,1,1*57
$GPZDA,163532.00,23,12,2013,,*64
$GPGGA,,3917.25664,N,08203.79517,W,7,02,,,,,,,*41
$GPGLL,3917.25664,N,08203.79517,W,,V,M*45
$GPVTG,,,,,,,,,M*33
$GPGSA,A,1,02,26,,,,,,,,,,,,,*18
$GPGSV,2,1,08,02,48,086,39,26,40,145,34,04,05,101,38,10,16,054,34*75
$GPGSV,2,2,08,15,21,183,34,05,73,032,40,30,,000,31,29,57,300,33*74
$GPRMC,163532.00,V,3917.25664,N,08203.79517,W,,,,,,M*5C
$PTNLRTF,V,A,146148,02,0,,,,,,,,,,*41
$PTNLRBA,1,1*57
$GPZDA,163533.00,23,12,2013,,*65
$GPGGA,,3917.25664,N,08203.79517,W,7,03,,,,,,,*40
$GPGLL,3917.25664,N,08203.79517,W,,V,M*45
$GPVTG,,,,,,,,,M*33
$GPGSA,A,1,02,26,05,,,,,,,,,,,,*1D
$GPGSV,2,1,08,02,48,086,38,26,40,145,38,04,05,101,26,10,16,054,34*77
$GPGSV,2,2,08,15,21,183,34,05,73,032,40,30,,000,33,29,57,300,34*71
$GPRMC,163533.00,V,3917.25664,N,08203.79517,W,,,,,,M*5D
$PTNLRTF,V,A,146149,03,0,,,,,,,,,,*41
$PTNLRBA,1,1*57
$GPZDA,163534.00,23,12,2013,,*62
$GPGGA,,3917.25664,N,08203.79517,W,7,03,,,,,,,*40
$GPGLL,3917.25664,N,08203.79517,W,,V,M*45
$GPVTG,,,,,,,,,M*33
$GPGSA,A,1,02,26,05,,,,,,,,,,,,*1D
$GPGSV,2,1,08,02,48,086,39,26,40,145,38,04,05,101,26,10,16,054,33*71
$GPGSV,2,2,08,15,21,183,34,05,73,032,40,30,,000,34,29,57,300,36*74
$GPRMC,163534.00,V,3917.25664,N,08203.79517,W,,,,,,M*5A
$PTNLRTF,V,A,146150,03,0,,,,,,,,,,*49
$PTNLRBA,1,1*57
$GPZDA,163535.00,23,12,2013,,*63
$GPGGA,,3917.25664,N,08203.79517,W,7,03,,,,,,,*40
$GPGLL,3917.25664,N,08203.79517,W,,V,M*45
$GPVTG,,,,,,,,,M*33
$GPGSA,A,1,02,26,05,,,,,,,,,,,,*1D
$GPGSV,2,1,08,02,48,086,39,26,40,145,37,04,05,101,23,10,16,054,34*7C
$GPGSV,2,2,08,15,21,183,34,05,73,032,39,30,,000,34,29,57,300,35*79
$GPRMC,163535.00,V,3917.25664,N,08203.79517,W,,,,,,M*5B
$PTNLRTF,V,A,146151,03,0,,,,,,,,,,*48
$PTNLRBA,1,1*57
$GPZDA,163536.00,23,12,2013,,*60
$GPGGA,,3917.25664,N,08203.79517,W,7,03,,,,,,,*40
$GPGLL,3917.25664,N,08203.79517,W,,V,M*45
$GPVTG,,,,,,,,,M*33
$GPGSA,A,1,02,26,05,,,,,,,,,,,,*1D
$GPGSV,2,1,08,02,48,086,38,26,40,145,35,04,05,101,27,10,16,054,36*79
$GPGSV,2,2,08,15,21,183,33,05,73,032,39,30,,000,34,29,57,300,34*7F
$GPRMC,163536.00,V,3917.25664,N,08203.79517,W,,,,,,M*58
$PTNLRTF,V,A,146152,03,0,,,,,,,,,,*4B
$PTNLRBA,1,1*57
$GPZDA,163537.00,23,12,2013,,*61
$GPGGA,,3917.25664,N,08203.79517,W,7,03,,,,,,,*40
$GPGLL,3917.25664,N,08203.79517,W,,V,M*45
$GPVTG,,,,,,,,,M*33
$GPGSA,A,1,02,26,05,,,,,,,,,,,,*1D
$GPGSV,2,1,08,02,48,086,38,26,40,145,33,04,05,101,28,10,16,054,37*71
$GPGSV,2,2,08,15,21,183,32,05,73,032,39,30,,000,32,29,57,300,34*78
$GPRMC,163537.00,V,3917.25664,N,08203.79517,W,,,,,,M*59
$PTNLRTF,V,A,146153,03,0,,,,,,,,,,*4A
$PTNLRBA,1,1*57
$GPZDA,163538.00,23,12,2013,,*6E
$GPGGA,,3917.25664,N,08203.79517,W,7,03,,,,,,,*40
$GPGLL,3917.25664,N,08203.79517,W,,V,M*45
$GPVTG,,,,,,,,,M*33
$GPGSA,A,1,02,26,05,,,,,,,,,,,,*1D
$GPGSV,2,1,08,02,48,086,40,26,40,145,35,04,05,101,27,10,16,054,39*79
$GPGSV,2,2,08,15,21,183,33,05,73,032,40,30,,000,34,29,57,300,33*76
$GPRMC,163538.00,V,3917.25664,N,08203.79517,W,,,,,,M*56
$PTNLRTF,V,A,146154,03,0,,,,,,,,,,*4D
$PTNLRBA,1,1*57
$GPZDA,163539.00,23,12,2013,,*6F
$GPGGA,,3917.25664,N,08203.79517,W,7,03,,,,,,,*40
$GPGLL,3917.25664,N,08203.79517,W,,V,M*45
$GPVTG,,,,,,,,,M*33
$GPGSA,A,1,02,26,05,,,,,,,,,,,,*1D
$GPGSV,2,1,08,02,48,086,39,26,40,145,34,04,05,101,31,10,16,054,38*70
$GPGSV,2,2,08,15,21,183,33,05,73,032,40,30,,000,35,29,57,300,32*76
$GPRMC,163539.00,V,3917.25664,N,08203.79517,W,,,,,,M*57
$PTNLRTF,V,A,146155,03,0,,,,,,,,,,*4C
$PTNLRBA,1,1*57
$GPZDA,163540.00,23,12,2013,,*61
$GPGGA,,3917.25664,N,08203.79517,W,7,03,,,,,,,*40
$GPGLL,3917.25664,N,08203.79517,W,,V,M*45
$GPVTG,,,,,,,,,M*33
$GPGSA,A,1,02,26,05,,,,,,,,,,,,*1D
$GPGSV,2,1,08,02,48,086,38,26,40,145,34,04,05,101,32,10,16,054,38*72
$GPGSV,2,2,08,15,21,183,34,05,73,032,40,30,,000,34,29,57,300,32*70
$GPRMC,163540.00,V,3917.25664,N,08203.79517,W,,,,,,M*59
$PTNLRTF,V,A,146156,03,0,,,,,,,,,,*4F
$PTNLRBA,1,1*57
$GPZDA,163541.00,23,12,2013,,*60
$GPGGA,,3917.25664,N,08203.79517,W,7,03,,,,,,,*40
$GPGLL,3917.25664,N,08203.79517,W,,V,M*45
$GPVTG,,,,,,,,,M*33
$GPGSA,A,1,02,26,05,,,,,,,,,,,,*1D
$GPGSV,2,1,08,02,48,086,39,26,40,145,35,04,05,101,33,10,16,054,40*7C
$GPGSV,2,2,08,15,21,183,34,05,73,032,40,30,,000,34,29,57,300,33*71
$GPRMC,163541.00,V,3917.25664,N,08203.79517,W,,,,,,M*58
$PTNLRTF,V,A,146157,03,0,,,,,,,,,,*4E
$PTNLRBA,1,1*57
$GPZDA,163542.00,23,12,2013,,*63
$GPGGA,,3917.25664,N,08203.79517,W,7,03,,,,,,,*40
$GPGLL,3917.25664,N,08203.79517,W,,V,M*45
$GPVTG,,,,,,,,,M*33
$GPGSA,A,1,02,26,05,,,,,,,,,,,,*1D
$GPGSV,2,1,08,02,48,086,37,26,40,145,34,04,05,101,33,10,16,054,41*72
$GPGSV,2,2,08,15,21,183,34,05,73,032,40,30,,000,34,29,57,300,34*76
$GPRMC,163542.00,V,3917.25664,N,08203.79517,W,,,,,,M*5B
$PTNLRTF,V,A,146158,03,0,,,,,,,,,,*41
$PTNLRBA,1,1*57
$GPZDA,163543.00,23,12,2013,,*62
$GPGGA,,3917.25664,N,08203.79517,W,7,03,,,,,,,*40
$GPGLL,3917.25664,N,08203.79517,W,,V,M*45
$GPVTG,,,,,,,,,M*33
$GPGSA,A,1,02,26,05,,,,,,,,,,,,*1D
$GPGSV,2,1,08,02,48,086,37,26,40,145,34,04,05,101,30,10,16,054,38*7F
$GPGSV,2,2,08,15,21,183,34,05,73,032,40,30,,000,35,29,57,300,33*70
$GPRMC,163543.00,V,3917.25664,N,08203.79517,W,,,,,,M*5A
$PTNLRTF,V,A,146159,03,0,,,,,,,,,,*40
$PTNLRBA,1,1*57
$GPZDA,163544.00,23,12,2013,,*65
$GPGGA,,3917.25664,N,08203.79517,W,7,03,,,,,,,*40
$GPGLL,3917.25664,N,08203.79517,W,,V,M*45
$GPVTG,,,,,,,,,M*33
$GPGSA,A,1,02,26,05,,,,,,,,,,,,*1D
$GPGSV,2,1,08,02,48,086,37,26,40,145,34,04,05,101,30,10,16,054,37*70
$GPGSV,2,2,08,15,21,183,34,05,73,032,40,30,,000,33,29,57,300,34*71
$GPRMC,163544.00,V,3917.25664,N,08203.79517,W,,,,,,M*5D
$PTNLRTF,V,A,146160,03,0,,,,,,,,,,*4A
$PTNLRBA,1,1*57
$GPZDA,163545.00,23,12,2013,,*64
$GPGGA,,3917.25664,N,08203.79517,W,7,03,,,,,,,*40
$GPGLL,3917.25664,N,08203.79517,W,,V,M*45
$GPVTG,,,,,,,,,M*33
$GPGSA,A,1,02,26,05,,,,,,,,,,,,*1D
$GPGSV,2,1,08,02,48,086,37,26,40,145,35,04,05,101,27,10,16,054,33*73
$GPGSV,2,2,08,15,21,183,35,05,73,032,41,30,,000,34,29,57,300,35*77
$GPRMC,163545.00,V,3917.25664,N,08203.79517,W,,,,,,M*5C
$PTNLRTF,V,A,146161,03,0,,,,,,,,,,*4B
$PTNLRBA,1,1*57
$GPZDA,163546.00,23,12,2013,,*67
$GPGGA,,3917.25664,N,08203.79517,W,7,03,,,,,,,*40
$GPGLL,3917.25664,N,08203.79517,W,,V,M*45
$GPVTG,,,,,,,,,M*33
$GPGSA,A,1,02,26,05,,,,,,,,,,,,*1D
$GPGSV,2,1,08,02,48,086,36,26,40,145,35,04,05,101,27,10,16,054,36*77
$GPGSV,2,2,08,15,21,183,35,05,73,032,40,30,,000,33,29,57,300,35*71
$GPRMC,163546.00,V,3917.25664,N,08203.79517,W,,,,,,M*5F
$PTNLRTF,V,A,146162,03,0,,,,,,,,,,*48
$PTNLRBA,1,1*57
$GPZDA,163547.00,23,12,2013,,*66
$GPGGA,,3917.25664,N,08203.79517,W,7,03,,,,,,,*40
$GPGLL,3917.25664,N,08203.79517,W,,V,M*45
$GPVTG,,,,,,,,,M*33
$GPGSA,A,1,02,26,05,,,,,,,,,,,,*1D
$GPGSV,2,1,08,02,48,086,38,26,40,145,33,04,05,101,32,10,16,054,34*79
$GPGSV,2,2,08,15,21,183,35,05,73,032,40,30,,000,33,29,57,300,34*70
$GPRMC,163547.00,V,3917.25664,N,08203.79517,W,,,,,,M*5E
$PTNLRTF,V,A,146163,03,0,,,,,,,,,,*49
$PTNLRBA,1,1*57
$GPZDA,163548.00,23,12,2013,,*69
$GPGGA,,3917.25664,N,08203.79517,W,7,03,,,,,,,*40
$GPGLL,3917.25664,N,08203.79517,W,,V,M*45
$GPVTG,,,,,,,,,M*33
$GPGSA,A,1,02,26,05,,,,,,,,,,,,*1D
$GPGSV,2,1,08,02,48,086,38,26,40,145,34,04,05,101,30,10,16,054,34*7C
$GPGSV,2,2,08,15,21,183,35,05,73,032,40,30,,000,32,29,57,300,33*76
$GPRMC,163548.00,V,3917.25664,N,08203.79517,W,,,,,,M*51
$PTNLRTF,V,A,146164,03,0,,,,,,,,,,*4E
$PTNLRBA,1,1*57
$GPZDA,163549.00,23,12,2013,,*68
$GPGGA,,3917.25664,N,08203.79517,W,7,03,,,,,,,*40
$GPGLL,3917.25664,N,08203.79517,W,,V,M*45
$GPVTG,,,,,,,,,M*33
$GPGSA,A,1,02,26,05,,,,,,,,,,,,*1D
$GPGSV,2,1,08,02,48,086,38,26,40,145,33,04,05,101,29,10,16,054,35*72
$GPGSV,2,2,08,15,21,183,36,05,73,032,40,30,,000,34,29,57,300,33*73
$GPRMC,163549.00,V,3917.25664,N,08203.79517,W,,,,,,M*50
$PTNLRTF,V,A,146165,03,0,,,,,,,,,,*4F
$PTNLRBA,1,1*57
$GPZDA,163550.00,23,12,2013,,*60
$GPGGA,,3917.25664,N,08203.79517,W,7,03,,,,,,,*40
$GPGLL,3917.25664,N,08203.79517,W,,V,M*45
$GPVTG,,,,,,,,,M*33
$GPGSA,A,1,02,26,05,,,,,,,,,,,,*1D
$GPGSV,2,1,08,02,48,086,37,26,40,145,35,04,05,101,30,10,16,054,34*72
$GPGSV,2,2,08,15,21,183,35,05,73,032,40,30,,000,35,29,57,300,33*71
$GPRMC,163550.00,V,3917.25664,N,08203.79517,W,,,,,,M*58
$PTNLRTF,V,A,146166,03,0,,,,,,,,,,*4C
$PTNLRBA,1,1*57
$GPZDA,163551.00,23,12,2013,,*61
$GPGGA,,3917.25664,N,08203.79517,W,7,03,,,,,,,*40
$GPGLL,3917.25664,N,08203.79517,W,,V,M*45
$GPVTG,,,,,,,,,M*33
$GPGSA,A,1,02,26,05,,,,,,,,,,,,*1D
$GPGSV,2,1,08,02,48,086,37,26,40,145,36,04,05,101,31,10,16,054,30*74
$GPGSV,2,2,08,15,21,183,35,05,73,032,40,30,,000,35,29,57,300,31*73
$GPRMC,163551.00,V,3917.25664,N,08203.79517,W,,,,,,M*59
$PTNLRTF,V,A,146167,03,0,,,,,,,,,,*4D
$PTNLRBA,1,1*57
$GPZDA,163552.00,23,12,2013,,*62
$GPGGA,,3917.25664,N,08203.79517,W,7,03,,,,,,,*40
$GPGLL,3917.25664,N,08203.79517,W,,V,M*45
$GPVTG,,,,,,,,,M*33
$GPGSA,A,1,02,26,05,,,,,,,,,,,,*1D
$GPGSV,2,1,08,02,48,086,37,26,40,145,35,04,05,101,34,10,16,054,31*73
$GPGSV,2,2,08,15,21,183,35,05,73,032,40,30,,000,36,29,57,300,33*72
$GPRMC,163552.00,V,3917.25664,N,08203.79517,W,,,,,,M*5A
$PTNLRTF,V,A,146168,03,0,,,,,,,,,,*42
$PTNLRBA,1,1*57
$GPZDA,163553.00,23,12,2013,,*63
$GPGGA,,3917.25664,N,08203.79517,W,7,03,,,,,,,*40
$GPGLL,3917.25664,N,08203.79517,W,,V,M*45
$GPVTG,,,,,,,,,M*33
$GPGSA,A,1,02,26,05,,,,,,,,,,,,*1D
$GPGSV,2,1,08,02,48,086,37,26,40,145,36,04,05,101,36,10,16,054,28*7A
$GPGSV,2,2,08,15,21,183,34,05,73,032,40,30,,000,33,29,57,300,33*76
$GPRMC,163553.00,V,3917.25664,N,08203.79517,W,,,,,,M*5B
$PTNLRTF,V,A,146169,03,0,,,,,,,,,,*43
$PTNLRBA,1,1*57
$GPZDA,163554.00,23,12,2013,,*64
$GPGGA,,3917.25664,N,08203.79517,W,7,03,,,,,,,*40
$GPGLL,3917.25664,N,08203.79517,W,,V,M*45
$GPVTG,,,,,,,,,M*33
$GPGSA,A,1,02,26,05,,,,,,,,,,,,*1D
$GPGSV,2,1,08,02,48,086,36,26,40,145,34,04,05,101,36,10,16,054,34*74
$GPGSV,2,2,08,15,21,183,33,05,73,032,40,30,,000,35,29,57,300,32*76
$GPRMC,163554.00,V,3917.25664,N,08203.79517,W,,,,,,M*5C
$PTNLRTF,V,A,146170,03,0,,,,,,,,,,*4B
$PTNLRBA,1,1*57
$GPZDA,163555.00,23,12,2013,,*65
$GPGGA,,3917.25664,N,08203.79517,W,7,03,,,,,,,*40
$GPGLL,3917.25664,N,08203.79517,W,,V,M*45
$GPVTG,,,,,,,,,M*33
$GPGSA,A,1,02,26,05,,,,,,,,,,,,*1D
$GPGSV,2,1,08,02,48,086,37,26,40,145,33,04,05,101,36,10,16,054,33*75
$GPGSV,2,2,08,15,21,183,34,05,73,032,40,30,,000,35,29,57,300,31*72
$GPRMC,163555.00,V,3917.25664,N,08203.79517,W,,,,,,M*5D
$PTNLRTF,V,A,146171,03,0,,,,,,,,,,*4A
$PTNLRBA,1,1*57
$GPZDA,163556.00,23,12,2013,,*66
$GPGGA,,3917.25664,N,08203.79517,W,7,03,,,,,,,*40
$GPGLL,3917.25664,N,08203.79517,W,,V,M*45
$GPVTG,,,,,,,,,M*33
$GPGSA,A,1,02,26,05,,,,,,,,,,,,*1D
$GPGSV,2,1,08,02,48,086,37,26,40,145,33,04,05,101,34,10,16,054,34*70
$GPGSV,2,2,08,15,21,183,35,05,73,032,40,30,,000,35,29,57,300,32*70
$GPRMC,163556.00,V,3917.25664,N,08203.79517,W,,,,,,M*5E
$PTNLRTF,V,A,146172,03,0,,,,,,,,,,*49
$PTNLRBA,1,1*57
$GPZDA,163557.00,23,12,2013,,*67
$GPGGA,,3917.25664,N,08203.79517,W,7,04,,,,,,,*47
$GPGLL,3917.25664,N,08203.79517,W,,V,M*45
$GPVTG,,,,,,,,,M*33
$GPGSA,A,1,02,26,04,05,,,,,,,,,,,*19
$GPGSV,2,1,08,02,48,086,37,26,40,145,33,04,05,101,36,10,16,054,35*73
$GPGSV,2,2,08,15,21,183,34,05,73,032,40,30,,000,36,29,57,300,31*71
$GPRMC,163557.00,V,3917.25664,N,08203.79517,W,,,,,,M*5F
$PTNLRTF,V,A,146173,04,0,,,,,,,,,,*4F
$PTNLRBA,1,1*57
$GPZDA,163558.00,23,12,2013,,*68
$GPGGA,,3917.25664,N,08203.79517,W,7,04,,,,,,,*47
$GPGLL,3917.25664,N,08203.79517,W,,V,M*45
$GPVTG,,,,,,,,,M*33
$GPGSA,A,1,02,26,04,05,,,,,,,,,,,*19
$GPGSV,2,1,08,02,48,086,36,26,40,145,34,04,05,101,35,10,16,054,34*77
$GPGSV,2,2,08,15,21,183,35,05,73,032,40,30,,000,34,29,57,300,33*70
$GPRMC,163558.00,V,3917.25664,N,08203.79517,W,,,,,,M*50
$PTNLRTF,V,A,146174,04,0,,,,,,,,,,*48
$PTNLRBA,1,1*57
$GPZDA,163559.00,23,12,2013,,*69
$GPGGA,,3917.25664,N,08203.79517,W,7,04,,,,,,,*47
$GPGLL,3917.25664,N,08203.79517,W,,V,M*45
$GPVTG,,,,,,,,,M*33
$GPGSA,A,1,02,26,04,05,,,,,,,,,,,*19
$GPGSV,2,1,08,02,48,086,36,26,40,145,34,04,05,101,35,10,16,054,34*77
$GPGSV,2,2,08,15,21,183,34,05,73,032,40,30,,000,34,29,57,300,32*70
$GPRMC,163559.00,V,3917.25664,N,08203.79517,W,,,,,,M*51
$PTNLRTF,V,A,146175,04,0,,,,,,,,,,*49
$PTNLRBA,1,1*57
$GPZDA,163600.00,23,12,2013,,*66
$GPGGA,,3917.25664,N,08203.79517,W,7,03,,,,,,,*40
$GPGLL,3917.25664,N,08203.79517,W,,V,M*45
$GPVTG,,,,,,,,,M*33
$GPGSA,A,1,26,04,05,,,,,,,,,,,,*1B
$GPGSV,2,1,08,02,48,086,37,26,40,145,35,04,05,101,36,10,16,054,36*76
$GPGSV,2,2,08,15,21,183,34,05,73,032,39,30,,000,36,29,57,300,32*7C
$GPRMC,163600.00,V,3917.25664,N,08203.79517,W,,,,,,M*5E
$PTNLRTF,V,A,146176,03,0,,,,,,,,,,*4D
$PTNLRBA,1,1*57
$GPZDA,163601.00,23,12,2013,,*67
$GPGGA,163601.00,3917.26446,N,08203.80487,W,1,04,4.27,00272,M,-033,M,,*56
$GPGLL,3917.26446,N,08203.80487,W,163601.00,A,A*7C
$GPVTG,261.4,T,268.6,M,000.5,N,000.9,K,A*24
$GPGSA,A,3,02,26,04,05,,,,,,,,,5.75,4.27,3.84*0C
$GPGSV,2,1,08,02,48,086,36,26,41,145,35,04,04,101,34,10,16,054,34*77
$GPGSV,2,2,08,15,21,183,34,05,73,032,40,30,,000,36,29,57,299,33*72
$GPGST,163601.00,,585.88,300.79,004.3,017.55,039.73,039.99*4A
$GPRMC,163601.00,A,3917.26446,N,08203.80487,W,000.5,261.4,231213,07.2,W,A*03
$PTNLRTF,V,A,146177,04,3,3917.26446,N,08203.80487,W,00272,-000.250,-000.038,-000.008,0,1*54
$PTNLRBA,1,1*57
$GPZDA,163602.00,23,12,2013,,*64
$GPGGA,163602.00,3917.26281,N,08203.80321,W,1,04,4.27,00273,M,-033,M,,*52
$GPGLL,3917.26281,N,08203.80321,W,163602.00,A,A*79
$GPVTG,021.7,T,028.9,M,000.5,N,000.8,K,A*29
$GPGSA,A,3,02,26,04,05,,,,,,,,,5.74,4.27,3.84*0D
$GPGSV,2,1,08,02,48,086,36,26,41,145,35,04,04,101,37,10,16,054,34*74
$GPGSV,2,2,08,15,21,183,34,05,73,032,39,30,,000,36,29,57,299,31*7E
$GPGST,163602.00,,606.33,152.43,006.0,012.54,024.52,024.32*4A
$GPRMC,163602.00,A,3917.26281,N,08203.80321,W,000.5,021.7,231213,07.2,W,A*03
$PTNLRTF,V,A,146178,04,3,3917.26281,N,08203.80321,W,00273,+000.086,+000.216,-000.017,0,1*55
$PTNLRBA,1,1*57
$GPZDA,163603.00,23,12,2013,,*65
$GPGGA,163603.00,3917.26086,N,08203.79909,W,1,05,2.89,00281,M,-033,M,,*5E
$GPGLL,3917.26086,N,08203.79909,W,163603.00,A,A*7B
$GPVTG,158.0,T,165.2,M,000.3,N,000.6,K,A*2A
$GPGSA,A,3,02,26,15,05,29,,,,,,,,6.95,2.89,6.32*00
$GPGSV,2,1,07,02,48,086,36,26,41,145,36,10,16,054,35,15,21,183,33*70
$GPGSV,2,2,07,05,73,032,40,30,,000,35,29,57,299,31,,,,*46
$GPGST,163603.00,,161.25,066.85,026.0,009.22,011.96,015.42*44
$GPRMC,163603.00,A,3917.26086,N,08203.79909,W,000.3,158.0,231213,07.2,W,A*0F
$PTNLRTF,V,A,146179,05,3,3917.26086,N,08203.79909,W,00281,+000.060,-000.147,+000.014,0,1*57
$PTNLRBA,1,1*57
$GPZDA,163604.00,23,12,2013,,*62
$GPGGA,163604.00,3917.26174,N,08203.79791,W,1,05,2.89,00282,M,-033,M,,*59
$GPGLL,3917.26174,N,08203.79791,W,163604.00,A,A*7F
$GPVTG,139.2,T,146.5,M,000.4,N,000.7,K,A*2F
$GPGSA,A,3,02,26,15,05,29,,,,,,,,6.95,2.89,6.32*00
$GPGSV,3,1,09,02,48,086,36,26,41,145,36,10,16,054,36,15,21,183,34*7B
$GPGSV,3,2,09,05,73,032,39,30,,000,35,29,57,299,30,25,19,247,26*7C
$GPGSV,3,3,09,46,45,205,35,,,,,,,,,,,,*42
$GPGST,163604.00,,101.44,044.90,031.6,007.77,009.27,013.32*4A
$GPRMC,163604.00,A,3917.26174,N,08203.79791,W,000.4,139.2,231213,07.2,W,A*09
$PTNLRTF,V,A,146180,05,3,3917.26174,N,08203.79791,W,00282,+000.136,-000.157,-000.016,0,1*56
$PTNLRBA,1,1*57
$GPZDA,163605.00,23,12,2013,,*63
$GPGGA,163605.00,3917.26306,N,08203.79853,W,1,05,2.89,00280,M,-033,M,,*5C
$GPGLL,3917.26306,N,08203.79853,W,163605.00,A,A*78
$GPVTG,234.7,T,241.9,M,000.1,N,000.2,K,A*2C
$GPGSA,A,3,02,26,15,05,29,,,,,,,,6.95,2.89,6.32*00
$GPGSV,3,1,09,02,48,086,36,26,41,145,36,10,16,054,36,15,21,183,34*7B
$GPGSV,3,2,09,05,73,032,39,30,,000,35,29,57,299,30,25,19,247,23*79
$GPGSV,3,3,09,46,45,205,36,,,,,,,,,,,,*41
$GPGST,163605.00,,087.65,044.31,036.8,007.74,008.49,012.70*48
$GPRMC,163605.00,A,3917.26306,N,08203.79853,W,000.1,234.7,231213,07.2,W,A*00
$PTNLRTF,V,A,146181,05,3,3917.26306,N,08203.79853,W,00280,-000.042,-000.030,-000.007,0,1*57
$PTNLRBA,1,1*57
$GPZDA,163606.00,23,12,2013,,*60
$GPGGA,163606.00,3917.26335,N,08203.79871,W,1,05,2.89,00278,M,-033,M,,*58
$GPGLL,3917.26335,N,08203.79871,W,163606.00,A,A*7B
$GPVTG,312.8,T,320.0,M,000.6,N,001.1,K,A*2C
$GPGSA,A,3,02,26,15,05,29,,,,,,,,6.95,2.89,6.32*00
$GPGSV,3,1,09,02,48,086,36,26,41,145,36,10,16,054,35,15,21,183,34*78
$GPGSV,3,2,09,05,73,032,40,30,,000,34,29,57,299,31,25,19,247,22*76
$GPGSV,3,3,09,46,45,205,36,,,,,,,,,,,,*41
$GPGST,163606.00,,075.61,041.07,040.9,007.47,007.80,012.15*4B
$GPRMC,163606.00,A,3917.26335,N,08203.79871,W,000.6,312.8,231213,07.2,W,A*0E
$PTNLRTF,V,A,146182,05,3,3917.26335,N,08203.79871,W,00278,-000.226,+000.210,+000.003,0,1*57
$PTNLRBA,1,1*57
$GPZDA,163608.00,23,12,2013,,*6E
$GPGGA,163608.00,3917.26418,N,08203.79845,W,1,05,2.89,00278,M,-033,M,,*59
$GPGLL,3917.26418,N,08203.79845,W,163608.00,A,A*7A
$GPVTG,271.5,T,278.7,M,000.2,N,000.3,K,A*29
$GPGSA,A,3,02,26,15,05,29,,,,,,,,6.95,2.89,6.32*00
$GPGSV,3,1,09,02,48,086,34,26,41,145,36,10,16,054,36,15,21,183,34*79
$GPGSV,3,2,09,05,73,032,40,30,,000,34,29,57,299,30,25,19,247,17*71
$GPGSV,3,3,09,46,45,205,36,,,,,,,,,,,,*41
$GPGST,163608.00,,064.15,038.35,044.3,007.14,007.18,011.50*42
$GPRMC,163608.00,A,3917.26418,N,08203.79845,W,000.2,271.5,231213,07.2,W,A*02
$PTNLRTF,V,A,146184,05,3,3917.26418,N,08203.79845,W,00278,-000.095,+000.003,+000.000,0,1*57
$PTNLRBA,1,1*57
$GPZDA,163609.00,23,12,2013,,*6F
$GPGGA,163609.00,3917.26457,N,08203.79882,W,1,05,2.89,00277,M,-033,M,,*57
$GPGLL,3917.26457,N,08203.79882,W,163609.00,A,A*7B
$GPVTG,052.5,T,059.7,M,000.1,N,000.2,K,A*29
$GPGSA,A,3,02,26,15,05,29,,,,,,,,6.95,2.89,6.33*01
$GPGSV,3,1,09,02,48,086,34,26,41,145,36,10,16,054,36,15,21,183,33*7E
$GPGSV,3,2,09,05,73,032,41,30,,000,34,29,57,299,29,25,19,247,17*78
$GPGSV,3,3,09,46,45,205,36,,,,,,,,,,,,*41
$GPGST,163609.00,,057.92,035.58,044.2,006.81,006.86,011.14*40
$GPRMC,163609.00,A,3917.26457,N,08203.79882,W,000.1,052.5,231213,07.2,W,A*03
$PTNLRTF,V,A,146185,05,3,3917.26457,N,08203.79882,W,00277,+000.040,+000.030,-000.003,0,1*52
$PTNLRBA,1,1*57
$GPZDA,163611.00,23,12,2013,,*66
$GPGGA,163611.00,3917.26461,N,08203.79786,W,1,05,2.89,00277,M,-033,M,,*50
$GPGLL,3917.26461,N,08203.79786,W,163611.00,A,A*7C
$GPVTG,316.3,T,323.5,M,000.2,N,000.4,K,A*25
$GPGSA,A,3,02,26,15,05,29,,,,,,,,6.96,2.89,6.33*02
$GPGSV,3,1,09,02,48,086,35,26,41,145,36,10,16,054,36,15,21,183,34*78
$GPGSV,3,2,09,05,73,032,40,30,,000,34,29,57,299,30,25,19,247,21*74
$GPGSV,3,3,09,46,45,205,36,,,,,,,,,,,,*41
$GPGST,163611.00,,048.81,031.28,047.3,006.38,006.27,010.59*45
$GPRMC,163611.00,A,3917.26461,N,08203.79786,W,000.2,316.3,231213,07.2,W,A*02
$PTNLRTF,V,A,146187,05,3,3917.26461,N,08203.79786,W,00277,-000.078,+000.081,+000.011,0,1*5C
$PTNLRBA,1,1*57
$GPZDA,163612.00,23,12,2013,,*65
$GPGGA,163612.00,3917.26423,N,08203.79745,W,1,05,2.89,00278,M,-033,M,,*55
$GPGLL,3917.26423,N,08203.79745,W,163612.00,A,A*76
$GPVTG,212.1,T,219.3,M,000.4,N,000.7,K,A*29
$GPGSA,A,3,02,26,15,05,29,,,,,,,,6.96,2.89,6.33*02
$GPGSV,3,1,09,02,48,086,35,26,41,145,36,10,16,054,37,15,21,183,34*79
$GPGSV,3,2,09,05,73,032,41,30,,000,35,29,57,299,30,25,19,247,21*74
$GPGSV,3,3,09,46,45,205,36,,,,,,,,,,,,*41
$GPGST,163612.00,,047.89,031.63,048.5,006.38,006.23,010.48*43
$GPRMC,163612.00,A,3917.26423,N,08203.79745,W,000.4,212.1,231213,07.2,W,A*09
$PTNLRTF,V,A,146188,05,3,3917.26423,N,08203.79745,W,00278,-000.104,-000.166,+000.016,0,1*56
$PTNLRBA,1,1*57
$GPZDA,163613.00,23,12,2013,,*64
$GPGGA,163613.00,3917.26372,N,08203.79708,W,1,05,2.89,00278,M,-033,M,,*5E
$GPGLL,3917.26372,N,08203.79708,W,163613.00,A,A*7D
$GPVTG,132.0,T,139.3,M,000.5,N,001.0,K,A*2F
$GPGSA,A,3,02,26,15,05,29,,,,,,,,6.96,2.89,6.33*02
$GPGSV,3,1,09,02,48,086,33,26,41,145,36,10,16,054,37,15,21,183,32*79
$GPGSV,3,2,09,05,73,032,40,30,,000,35,29,57,299,28,25,19,247,23*7E
$GPGSV,3,3,09,46,45,205,35,,,,,,,,,,,,*42
$GPGST,163613.00,,048.10,033.49,048.5,006.46,006.32,010.42*44
$GPRMC,163613.00,A,3917.26372,N,08203.79708,W,000.5,132.0,231213,07.2,W,A*03
$PTNLRTF,V,A,146189,05,3,3917.26372,N,08203.79708,W,00278,+000.202,-000.182,+000.009,0,1*5A
$PTNLRBA,1,1*57
$GPZDA,163615.00,23,12,2013,,*62
$GPGGA,163615.00,3917.26296,N,08203.79596,W,1,05,2.89,00280,M,-033,M,,*51
$GPGLL,3917.26296,N,08203.79596,W,163615.00,A,A*75
$GPVTG,001.3,T,008.5,M,000.5,N,000.9,K,A*20
$GPGSA,A,3,02,26,15,05,29,,,,,,,,6.96,2.89,6.33*02
$GPGSV,3,1,09,02,48,086,34,26,41,145,36,10,16,054,37,15,21,183,31*7D
$GPGSV,3,2,09,05,73,032,40,30,,000,36,29,57,299,30,25,19,247,23*74
$GPGSV,3,3,09,46,45,205,35,,,,,,,,,,,,*42
$GPGST,163615.00,,047.66,036.09,049.5,006.54,006.40,010.26*48
$GPRMC,163615.00,A,3917.26296,N,08203.79596,W,000.5,001.3,231213,07.2,W,A*09
$PTNLRTF,V,A,146191,05,3,3917.26296,N,08203.79596,W,00280,+000.006,+000.245,+000.002,0,1*59
$PTNLRBA,1,1*57
$GPZDA,163616.00,23,12,2013,,*61
$GPGGA,163616.00,3917.26295,N,08203.79611,W,1,05,2.89,00280,M,-033,M,,*5D
$GPGLL,3917.26295,N,08203.79611,W,163616.00,A,A*79
$GPVTG,263.9,T,271.1,M,000.1,N,000.3,K,A*2A
$GPGSA,A,3,02,26,15,05,29,,,,,,,,6.96,2.89,6.33*02
$GPGSV,3,1,09,02,48,086,34,26,41,145,36,10,16,054,36,15,21,183,32*7F
$GPGSV,3,2,09,05,73,032,40,30,,000,33,29,57,299,32,25,19,247,20*70
$GPGSV,3,3,09,46,45,205,34,,,,,,,,,,,,*43
$GPGST,163616.00,,045.66,035.26,051.2,006.45,006.27,010.12*4F
$GPRMC,163616.00,A,3917.26295,N,08203.79611,W,000.1,263.9,231213,07.2,W,A*0D
$PTNLRTF,V,A,146192,05,3,3917.26295,N,08203.79611,W,00280,-000.070,-000.008,-000.018,0,1*52
$PTNLRBA,1,1*57
$GPZDA,163618.00,23,12,2013,,*6F
$GPGGA,163618.00,3917.26249,N,08203.79520,W,1,05,2.89,00282,M,-033,M,,*51
$GPGLL,3917.26249,N,08203.79520,W,163618.00,A,A*77
$GPVTG,130.5,T,137.7,M,000.5,N,000.9,K,A*2A
$GPGSA,A,3,02,26,15,05,29,,,,,,,,6.96,2.89,6.34*05
$GPGSV,3,1,09,02,48,086,34,26,41,145,36,10,16,054,35,15,21,183,34*7A
$GPGSV,3,2,09,05,73,032,40,30,,000,34,29,57,299,31,25,19,247,19*7E
$GPGSV,3,3,09,46,45,205,35,,,,,,,,,,,,*42
$GPGST,163618.00,,042.13,033.75,054.0,006.26,006.05,009.84*41
$GPRMC,163618.00,A,3917.26249,N,08203.79520,W,000.5,130.5,231213,07.2,W,A*0E
$PTNLRTF,V,A,146194,05,3,3917.26249,N,08203.79520,W,00282,+000.199,-000.170,+000.007,0,1*50
$PTNLRBA,1,1*57
$GPZDA,163619.00,23,12,2013,,*6E
$GPGGA,163619.00,3917.26245,N,08203.79573,W,1,05,2.89,00281,M,-033,M,,*59
$GPGLL,3917.26245,N,08203.79573,W,163619.00,A,A*7C
$GPVTG,164.2,T,171.4,M,000.3,N,000.5,K,A*27
$GPGSA,A,3,02,26,15,05,29,,,,,,,,6.96,2.89,6.34*05
$GPGSV,3,1,09,02,48,086,34,26,41,145,38,10,16,054,36,15,21,183,34*77
$GPGSV,3,2,09,05,73,032,40,30,,000,33,29,57,299,31,25,19,247,19*79
$GPGSV,3,3,09,46,45,205,36,,,,,,,,,,,,*41
$GPGST,163619.00,,042.20,034.60,055.5,006.31,006.09,009.77*41
$GPRMC,163619.00,A,3917.26245,N,08203.79573,W,000.3,164.2,231213,07.2,W,A*05
$PTNLRTF,V,A,146195,05,3,3917.26245,N,08203.79573,W,00281,+000.036,-000.129,-000.013,0,1*53
$PTNLRBA,1,1*57
$GPZDA,163620.00,23,12,2013,,*64
$GPGGA,163620.00,3917.26259,N,08203.79594,W,1,05,2.89,00282,M,-033,M,,*54
$GPGLL,3917.26259,N,08203.79594,W,163620.00,A,A*72
$GPVTG,249.8,T,257.0,M,000.3,N,000.6,K,A*21
$GPGSA,A,3,02,26,15,05,29,,,,,,,,6.97,2.89,6.34*04
$GPGSV,3,1,09,02,48,086,34,26,41,145,38,10,16,054,35,15,21,183,34*74
$GPGSV,3,2,09,05,73,032,40,30,,000,32,29,57,299,31,25,19,247,20*72
$GPGSV,3,3,09,46,45,205,36,,,,,,,,,,,,*41
$GPGST,163620.00,,043.35,036.32,057.4,006.43,006.19,009.77*4C
$GPRMC,163620.00,A,3917.26259,N,08203.79594,W,000.3,249.8,231213,07.2,W,A*0D
$PTNLRTF,V,A,146197,05,3,3917.26259,N,08203.79594,W,00282,-000.157,-000.058,+000.013,0,1*57
$PTNLRBA,1,1*57
$GPZDA,163622.00,23,12,2013,,*66
$GPGGA,163622.00,3917.26298,N,08203.79616,W,1,05,2.89,00283,M,-033,M,,*53
$GPGLL,3917.26298,N,08203.79616,W,163622.00,A,A*74
$GPVTG,009.6,T,016.8,M,000.1,N,000.1,K,A*23
$GPGSA,A,3,02,26,15,05,29,,,,,,,,6.97,2.89,6.34*04
$GPGSV,3,1,09,02,48,086,34,26,41,145,37,10,16,054,36,15,21,183,35*79
$GPGSV,3,2,09,05,73,032,40,30,,000,31,29,57,299,30,25,19,247,12*71
$GPGSV,3,3,09,46,45,205,36,,,,,,,,,,,,*41
$GPGST,163622.00,,042.48,036.59,060.7,006.41,006.16,009.63*47
$GPRMC,163622.00,A,3917.26298,N,08203.79616,W,000.1,009.6,231213,07.2,W,A*01
$PTNLRTF,V,A,146198,05,3,3917.26298,N,08203.79616,W,00283,+000.006,+000.038,-000.004,0,1*5E
$PTNLRBA,1,1*57
$GPZDA,163623.00,23,12,2013,,*67
$GPGGA,163623.00,3917.26282,N,08203.79638,W,1,05,2.89,00283,M,-033,M,,*55
$GPGLL,3917.26282,N,08203.79638,W,163623.00,A,A*72
$GPVTG,284.9,T,292.1,M,000.3,N,000.6,K,A*29
$GPGSA,A,3,02,26,15,05,29,,,,,,,,6.97,2.89,6.34*04
$GPGSV,3,1,09,02,48,086,34,26,41,145,37,10,16,054,36,15,21,183,34*78
$GPGSV,3,2,09,05,73,032,40,30,,000,32,29,57,299,31,25,19,247,00*70
$GPGSV,3,3,09,46,45,205,36,,,,,,,,,,,,*41
$GPGST,163623.00,,041.35,035.96,062.6,006.34,006.09,009.53*43
$GPRMC,163623.00,A,3917.26282,N,08203.79638,W,000.3,284.9,231213,07.2,W,A*0D
$PTNLRTF,V,A,146199,05,3,3917.26282,N,08203.79638,W,00283,-000.164,+000.044,+000.018,0,1*5B
$PTNLRBA,1,1*57
$GPZDA,163625.00,23,12,2013,,*61
$GPGGA,163625.00,3917.26289,N,08203.79648,W,1,05,2.89,00283,M,-033,M,,*5F
$GPGLL,3917.26289,N,08203.79648,W,163625.00,A,A*78
$GPVTG,017.2,T,024.5,M,000.3,N,000.6,K,A*21
$GPGSA,A,3,02,26,15,05,29,,,,,,,,6.97,2.89,6.34*04
$GPGSV,3,1,09,02,48,086,31,26,41,145,36,10,16,054,36,15,21,183,34*7C
$GPGSV,3,2,09,05,73,032,40,30,,000,31,29,57,299,28,25,19,247,13*79
$GPGSV,3,3,09,46,45,205,36,,,,,,,,,,,,*41
$GPGST,163625.00,,046.11,041.54,065.4,006.73,006.51,009.69*4B
$GPRMC,163625.00,A,3917.26289,N,08203.79648,W,000.3,017.2,231213,07.2,W,A*04
$PTNLRTF,V,A,146201,05,3,3917.26289,N,08203.79648,W,00283,+000.053,+000.170,+000.001,0,1*58
$PTNLRBA,1,1*57
$GPZDA,163626.00,23,12,2013,,*62
$GPGGA,163626.00,3917.26262,N,08203.79611,W,1,05,2.89,00284,M,-033,M,,*52
$GPGLL,3917.26262,N,08203.79611,W,163626.00,A,A*72
$GPVTG,194.1,T,201.3,M,000.6,N,001.1,K,A*28
$GPGSA,A,3,02,26,15,05,29,,,,,,,,6.97,2.89,6.35*05
$GPGSV,3,1,09,02,48,086,30,26,41,145,36,10,16,054,37,15,21,183,34*7C
$GPGSV,3,2,09,05,73,032,41,30,,000,31,29,57,299,30,25,19,247,01*72
$GPGSV,3,3,09,46,45,205,36,,,,,,,,,,,,*41
$GPGST,163626.00,,061.39,057.15,066.4,007.79,007.60,010.41*4C
$GPRMC,163626.00,A,3917.26262,N,08203.79611,W,000.6,194.1,231213,07.2,W,A*02
$PTNLRTF,V,A,146202,05,3,3917.26262,N,08203.79611,W,00284,-000.077,-000.308,+000.022,0,1*5F
$PTNLRBA,1,1*57
$GPZDA,163628.00,23,12,2013,,*6C
$GPGGA,163628.00,3917.26235,N,08203.79547,W,1,06,1.37,00284,M,-033,M,,*5B
$GPGLL,3917.26235,N,08203.79547,W,163628.00,A,A*7E
$GPVTG,297.7,T,304.9,M,000.4,N,000.8,K,A*2A
$GPGSA,A,3,02,26,10,15,05,29,,,,,,,2.34,1.37,1.90*07
$GPGSV,3,1,09,02,48,086,31,26,41,145,37,10,16,054,37,15,21,183,33*7B
$GPGSV,3,2,09,05,73,032,41,30,,000,30,29,57,299,30,25,19,247,00*72
$GPGSV,3,3,09,46,45,205,36,,,,,,,,,,,,*41
$GPGST,163628.00,,069.44,064.78,028.9,008.12,008.27,009.57*4D
$GPRMC,163628.00,A,3917.26235,N,08203.79547,W,000.4,297.7,231213,07.2,W,A*0A
$PTNLRTF,V,A,146204,06,3,3917.26235,N,08203.79547,W,00284,-000.186,+000.098,-000.027,0,1*58
$PTNLRBA,1,1*57
$GPZDA,163629.00,23,12,2013,,*6D
$GPGGA,163629.00,3917.26215,N,08203.79508,W,1,06,1.37,00284,M,-033,M,,*53
$GPGLL,3917.26215,N,08203.79508,W,163629.00,A,A*76
$GPVTG,133.2,T,140.4,M,000.4,N,000.7,K,A*22
$GPGSA,A,3,02,26,10,15,05,29,,,,,,,2.34,1.37,1.90*07
$GPGSV,3,1,09,02,48,086,33,26,41,145,37,10,16,054,34,15,21,183,33*7A
$GPGSV,3,2,09,05,73,032,41,30,,000,31,29,57,299,31,25,19,247,16*75
$GPGSV,3,3,09,46,45,205,35,,,,,,,,,,,,*42
$GPGST,163629.00,,068.97,064.26,027.0,008.08,008.25,009.43*42
$GPRMC,163629.00,A,3917.26215,N,08203.79508,W,000.4,133.2,231213,07.2,W,A*0A
$PTNLRTF,V,A,146205,06,3,3917.26215,N,08203.79508,W,00284,+000.147,-000.138,-000.016,0,1*54
$PTNLRBA,1,1*57
$GPZDA,163630.00,23,12,2013,,*65
$GPGGA,163630.00,3917.26224,N,08203.79501,W,1,06,1.37,00283,M,-033,M,,*57
$GPGLL,3917.26224,N,08203.79501,W,163630.00,A,A*75
$GPVTG,000.0,T,007.2,M,000.0,N,000.0,K,A*26
$GPGSA,A,3,02,26,10,15,05,29,,,,,,,2.34,1.37,1.90*07
$GPGSV,3,1,09,02,48,086,37,26,41,145,37,10,16,054,34,15,21,183,34*79
$GPGSV,3,2,09,05,73,032,41,30,,000,27,29,57,299,33,25,19,247,00*77
$GPGSV,3,3,09,46,45,205,35,,,,,,,,,,,,*42
$GPGST,163630.00,,066.35,061.85,026.3,007.92,008.09,009.20*45
$GPRMC,163630.00,A,3917.26224,N,08203.79501,W,000.0,000.0,231213,07.2,W,A*0E
$PTNLRTF,V,A,146206,06,3,3917.26224,N,08203.79501,W,00283,+000.000,+000.000,+000.000,0,1*54
$PTNLRBA,1,1*57
$GPZDA,163632.00,23,12,2013,,*67
$GPGGA,163632.00,3917.26217,N,08203.79484,W,2,06,1.37,00283,M,-033,M,,*5A
$GPGLL,3917.26217,N,08203.79484,W,163632.00,A,D*7E
$GPVTG,300.3,T,307.5,M,000.19,N,000.36,K,D*2A
$GPGSA,A,3,02,26,10,15,05,29,,,,,,,2.34,1.37,1.90*07
$GPGSV,3,1,09,02,48,086,33,26,41,145,32,10,16,054,34,15,21,183,32*7E
$GPGSV,3,2,09,05,73,032,39,30,,000,26,29,57,299,31,25,19,247,14*7E
$GPGSV,3,3,09,46,45,205,33,,,,,,,,,,,,*44
$GPGST,163632.00,,072.03,067.59,024.5,008.27,008.44,009.35*48
$GPRMC,163632.00,A,3917.26217,N,08203.79484,W,000.19,300.3,231213,07.2,W,D*3D
$PTNLRTF,V,A,146208,06,3,3917.26217,N,08203.79484,W,00283,-000.086,+000.050,-000.012,0,1*5E
$PTNLRBA,1,1*57
$GPZDA,163633.00,23,12,2013,,*66
$GPGGA,163633.00,3917.26209,N,08203.79457,W,2,06,1.37,00283,M,-033,M,,*5A
$GPGLL,3917.26209,N,08203.79457,W,163633.00,A,D*7E
$GPVTG,116.8,T,124.1,M,000.93,N,001.72,K,D*20
$GPGSA,A,3,02,26,10,15,05,29,,,,,,,2.34,1.37,1.90*07
$GPGSV,3,1,09,02,48,086,35,26,41,145,30,10,16,054,28,15,21,183,31*74
$GPGSV,3,2,09,05,73,032,34,30,,000,25,29,57,299,28,25,19,247,00*7D
$GPGSV,3,3,09,46,45,205,29,,,,,,,,,,,,*4F
$GPGST,163633.00,,067.90,063.52,024.7,008.02,008.19,009.10*42
$GPRMC,163633.00,A,3917.26209,N,08203.79457,W,000.93,116.8,231213,07.2,W,D*31
$PTNLRTF,V,A,146209,06,3,3917.26209,N,08203.79457,W,00283,+000.425,-000.215,+000.010,0,1*54
$PTNLRBA,1,1*57
$GPZDA,163635.00,23,12,2013,,*60
$GPGGA,163635.00,3917.26226,N,08203.79475,W,2,05,2.89,00282,M,-033,M,,*55
$GPGLL,3917.26226,N,08203.79475,W,163635.00,A,D*75
$GPVTG,321.8,T,329.0,M,000.46,N,000.85,K,D*29
$GPGSA,A,3,02,26,15,05,29,,,,,,,,6.98,2.89,6.36*09
$GPGSV,3,1,09,02,48,086,27,26,41,145,35,10,16,054,25,15,21,183,28*77
$GPGSV,3,2,09,05,73,032,29,30,,000,32,29,57,299,26,25,19,247,12*7A
$GPGSV,3,3,09,46,45,205,22,,,,,,,,,,,,*44
$GPGST,163635.00,,062.80,058.16,023.3,007.67,007.88,008.76*41
$GPRMC,163635.00,A,3917.26226,N,08203.79475,W,000.46,321.8,231213,07.2,W,D*34
$PTNLRTF,V,A,146211,05,3,3917.26226,N,08203.79475,W,00282,-000.145,+000.185,-000.000,0,1*5C
$PTNLRBA,1,1*57
$GPZDA,163636.00,23,12,2013,,*63
$GPGGA,163636.00,3917.26241,N,08203.79511,W,2,06,1.37,00282,M,-033,M,,*51
$GPGLL,3917.26241,N,08203.79511,W,163636.00,A,D*74
$GPVTG,309.7,T,316.9,M,000.35,N,000.65,K,D*23
$GPGSA,A,3,02,26,10,15,05,29,,,,,,,2.34,1.37,1.90*07
$GPGSV,3,1,09,02,48,086,28,26,41,145,35,10,16,054,30,15,21,183,30*75
$GPGSV,3,2,09,05,73,032,31,30,,000,30,29,57,299,26,25,19,247,00*72
$GPGSV,3,3,09,46,45,205,20,,,,,,,,,,,,*46
$GPGST,163636.00,,062.13,057.35,022.0,007.62,007.84,008.68*42
$GPRMC,163636.00,A,3917.26241,N,08203.79511,W,000.35,309.7,231213,07.2,W,D*34
$PTNLRTF,V,A,146212,06,3,3917.26241,N,08203.79511,W,00282,-000.139,+000.115,+000.016,0,1*5D
$PTNLRBA,1,1*57
$GPZDA,163638.00,23,12,2013,,*6D
$GPGGA,163638.00,3917.26236,N,08203.79524,W,2,06,1.37,00283,M,-033,M,,*58
$GPGLL,3917.26236,N,08203.79524,W,163638.00,A,D*7C
$GPVTG,057.0,T,064.3,M,000.23,N,000.43,K,D*23
$GPGSA,A,3,02,26,10,15,05,29,,,,,,,2.34,1.37,1.90*07
$GPGSV,3,1,09,02,48,086,34,26,41,145,38,10,16,054,37,15,21,183,35*77
$GPGSV,3,2,09,05,73,032,40,30,,000,26,29,57,299,32,25,19,247,13*74
$GPGSV,3,3,09,46,45,205,34,,,,,,,,,,,,*43
$GPGST,163638.00,,057.41,052.59,021.1,007.29,007.54,008.27*49
$GPRMC,163638.00,A,3917.26236,N,08203.79524,W,000.23,057.0,231213,07.2,W,D*34
$PTNLRTF,V,A,146214,06,3,3917.26236,N,08203.79524,W,00283,+000.099,+000.064,-000.010,0,1*56
$PTNLRBA,1,1*57
$GPZDA,163639.00,23,12,2013,,*6C
$GPGGA,163639.00,3917.26266,N,08203.79556,W,2,06,1.37,00282,M,-033,M,,*58
$GPGLL,3917.26266,N,08203.79556,W,163639.00,A,D*7D
$GPVTG,000.0,T,007.2,M,000.00,N,000.00,K,D*23
$GPGSA,A,3,02,26,10,15,05,29,,,,,,,2.34,1.37,1.90*07
$GPGSV,3,1,09,02,48,086,35,26,41,145,38,10,16,054,38,15,21,183,35*79
$GPGSV,3,2,09,05,73,032,40,30,,000,30,29,57,299,32,25,19,247,15*75
$GPGSV,3,3,09,46,45,205,33,,,,,,,,,,,,*44
$GPGST,163639.00,,054.18,049.40,021.0,007.07,007.32,008.00*4D
$GPRMC,163639.00,A,3917.26266,N,08203.79556,W,000.00,000.0,231213,07.2,W,D*36
$PTNLRTF,V,A,146215,06,3,3917.26266,N,08203.79556,W,00282,+000.000,+000.000,+000.000,0,1*53
$PTNLRBA,1,1*57
$GPZDA,163640.00,23,12,2013,,*62
$GPGGA,163640.00,3917.26263,N,08203.79574,W,2,06,1.37,00281,M,-033,M,,*50
$GPGLL,3917.26263,N,08203.79574,W,163640.00,A,D*76
$GPVTG,000.0,T,007.2,M,000.00,N,000.00,K,D*23
$GPGSA,A,3,02,26,10,15,05,29,,,,,,,2.34,1.37,1.90*07
$GPGSV,3,1,09,02,47,086,35,26,41,145,38,10,15,054,38,15,21,183,35*75
$GPGSV,3,2,09,05,72,032,41,30,,000,32,29,58,299,31,25,19,247,11*7F
$GPGSV,3,3,09,46,45,205,34,,,,,,,,,,,,*43
$GPGST,163640.00,,049.82,045.07,021.0,006.76,007.01,007.66*4B
$GPRMC,163640.00,A,3917.26263,N,08203.79574,W,000.00,000.0,231213,07.2,W,D*3D
$PTNLRTF,V,A,146217,06,3,3917.26263,N,08203.79574,W,00281,+000.000,+000.000,+000.000,0,1*57
$PTNLRBA,1,1*57
$GPZDA,163642.00,23,12,2013,,*60
$GPGGA,163642.00,3917.26274,N,08203.79598,W,2,06,1.37,00281,M,-033,M,,*56
$GPGLL,3917.26274,N,08203.79598,W,163642.00,A,D*70
$GPVTG,000.0,T,007.2,M,000.00,N,000.00,K,D*23
$GPGSA,A,3,02,26,10,15,05,29,,,,,,,2.34,1.37,1.90*07
$GPGSV,3,1,09,02,47,086,35,26,41,145,38,10,15,054,38,15,21,183,36*76
$GPGSV,3,2,09,05,72,032,41,30,,000,32,29,58,299,33,25,19,247,13*7F
$GPGSV,3,3,09,46,45,205,34,,,,,,,,,,,,*43
$GPGST,163642.00,,045.62,041.04,021.4,006.45,006.71,007.28*44
$GPRMC,163642.00,A,3917.26274,N,08203.79598,W,000.00,000.0,231213,07.2,W,D*3B
$PTNLRTF,V,A,146218,06,3,3917.26274,N,08203.79598,W,00281,+000.000,+000.000,+000.000,0,1*5C
$PTNLRBA,1,1*57
$GPZDA,163643.00,23,12,2013,,*61
$GPGGA,163643.00,3917.26282,N,08203.79594,W,2,06,1.37,00281,M,-033,M,,*52
$GPGLL,3917.26282,N,08203.79594,W,163643.00,A,D*74
$GPVTG,000.0,T,007.2,M,000.00,N,000.00,K,D*23
$GPGSA,A,3,02,26,10,15,05,29,,,,,,,2.34,1.37,1.90*07
$GPGSV,3,1,09,02,47,086,35,26,41,145,37,10,15,054,38,15,21,183,36*79
$GPGSV,3,2,09,05,72,032,41,30,,000,32,29,58,299,29,25,19,247,14*73
$GPGSV,3,3,09,46,45,205,34,,,,,,,,,,,,*43
$GPGST,163643.00,,043.12,038.62,021.1,006.26,006.52,007.06*47
$GPRMC,163643.00,A,3917.26282,N,08203.79594,W,000.00,000.0,231213,07.2,W,D*3F
$PTNLRTF,V,A,146219,06,3,3917.26282,N,08203.79594,W,00281,+000.000,+000.000,+000.000,0,1*58
$PTNLRBA,1,1*57
$GPZDA,163645.00,23,12,2013,,*67
$GPGGA,163645.00,3917.26278,N,08203.79565,W,2,05,2.89,00282,M,-033,M,,*59
$GPGLL,3917.26278,N,08203.79565,W,163645.00,A,D*79
$GPVTG,296.1,T,303.3,M,000.06,N,000.11,K,D*2F
$GPGSA,A,3,02,26,15,05,29,,,,,,,,6.99,2.89,6.37*09
$GPGSV,3,1,09,02,47,086,35,26,41,145,39,10,15,054,37,15,21,183,35*7B
$GPGSV,3,2,09,05,72,032,40,30,,000,31,29,58,299,30,25,19,247,00*7C
$GPGSV,3,3,09,46,45,205,33,,,,,,,,,,,,*44
$GPGST,163645.00,,037.43,033.21,020.7,005.81,006.07,006.60*42
$GPRMC,163645.00,A,3917.26278,N,08203.79565,W,000.06,296.1,231213,07.2,W,D*38
$PTNLRTF,V,A,146221,05,3,3917.26278,N,08203.79565,W,00282,-000.028,+000.014,+000.012,0,1*52
$PTNLRBA,1,1*57
$GPZDA,163646.00,23,12,2013,,*64
$GPGGA,163646.00,3917.26275,N,08203.79548,W,2,06,1.37,00282,M,-033,M,,*5D
$GPGLL,3917.26275,N,08203.79548,W,163646.00,A,D*78
$GPVTG,114.2,T,121.5,M,000.32,N,000.60,K,D*20
$GPGSA,A,3,02,26,10,15,05,29,,,,,,,2.34,1.37,1.90*07
$GPGSV,3,1,09,02,47,086,35,26,41,145,38,10,15,054,36,15,21,183,35*7B
$GPGSV,3,2,09,05,72,032,40,30,,000,30,29,58,299,29,25,19,247,00*75
$GPGSV,3,3,09,46,45,205,34,,,,,,,,,,,,*43
$GPGST,163646.00,,034.83,030.64,020.7,005.58,005.86,006.38*4F
$GPRMC,163646.00,A,3917.26275,N,08203.79548,W,000.32,114.2,231213,07.2,W,D*34
$PTNLRTF,V,A,146222,06,3,3917.26275,N,08203.79548,W,00282,+000.152,-000.069,-000.029,0,1*58
$PTNLRBA,1,1*57
$GPZDA,163648.00,23,12,2013,,*6A
$GPGGA,163648.00,3917.26303,N,08203.79542,W,2,06,1.37,00281,M,-033,M,,*5A
$GPGLL,3917.26303,N,08203.79542,W,163648.00,A,D*7C
$GPVTG,000.0,T,007.2,M,000.00,N,000.00,K,D*23
$GPGSA,A,3,02,26,10,15,05,29,,,,,,,2.34,1.37,1.90*07
$GPGSV,3,1,09,02,47,086,33,26,41,145,38,10,15,054,37,15,21,183,35*7C
$GPGSV,3,2,09,05,72,032,41,30,,000,31,29,58,299,31,25,19,247,00*7C
$GPGSV,3,3,09,46,45,205,34,,,,,,,,,,,,*43
$GPGST,163648.00,,034.99,030.99,020.9,005.61,005.87,006.33*46
$GPRMC,163648.00,A,3917.26303,N,08203.79542,W,000.00,000.0,231213,07.2,W,D*37
$PTNLRTF,V,A,146224,06,3,3917.26303,N,08203.79542,W,00281,+000.000,+000.000,+000.000,0,1*55
$PTNLRBA,1,1*57
$GPZDA,163649.00,23,12,2013,,*6B
$GPGGA,163649.00,3917.26322,N,08203.79527,W,2,06,1.37,00281,M,-033,M,,*5B
$GPGLL,3917.26322,N,08203.79527,W,163649.00,A,D*7D
$GPVTG,000.0,T,007.2,M,000.00,N,000.00,K,D*23
$GPGSA,A,3,02,26,10,15,05,29,,,,,,,2.34,1.37,1.90*07
$GPGSV,3,1,09,02,47,086,34,26,41,145,38,10,15,054,37,15,21,183,35*7B
$GPGSV,3,2,09,05,72,032,41,30,,000,30,29,58,299,32,25,19,247,00*7E
$GPGSV,3,3,09,46,45,205,34,,,,,,,,,,,,*43
$GPGST,163649.00,,034.42,030.51,020.9,005.57,005.82,006.26*41
$GPRMC,163649.00,A,3917.26322,N,08203.79527,W,000.00,000.0,231213,07.2,W,D*36
$PTNLRTF,V,A,146225,06,3,3917.26322,N,08203.79527,W,00281,+000.000,+000.000,+000.000,0,1*54
$PTNLRBA,1,1*57
$GPZDA,163651.00,23,12,2013,,*62
$GPGGA,163651.00,3917.26308,N,08203.79515,W,2,06,1.37,00282,M,-033,M,,*58
$GPGLL,3917.26308,N,08203.79515,W,163651.00,A,D*7D
$GPVTG,345.5,T,352.7,M,000.13,N,000.25,K,D*27
$GPGSA,A,3,02,26,10,15,05,29,,,,,,,2.34,1.37,1.90*07
$GPGSV,3,1,09,02,47,086,36,26,41,145,38,10,15,054,38,15,21,183,36*75
$GPGSV,3,2,09,05,72,032,41,30,,000,32,29,58,299,32,25,19,247,00*7C
$GPGSV,3,3,09,46,45,205,33,,,,,,,,,,,,*44
$GPGST,163651.00,,037.00,033.28,021.0,005.81,006.04,006.43*4D
$GPRMC,163651.00,A,3917.26308,N,08203.79515,W,000.13,345.5,231213,07.2,W,D*33
$PTNLRTF,V,A,146227,06,3,3917.26308,N,08203.79515,W,00282,-000.017,+000.066,-000.047,0,1*59
$PTNLRBA,1,1*57
$GPZDA,163652.00,23,12,2013,,*61
$GPGGA,163652.00,3917.26303,N,08203.79506,W,2,06,1.37,00282,M,-033,M,,*52
$GPGLL,3917.26303,N,08203.79506,W,163652.00,A,D*77
$GPVTG,359.0,T,006.2,M,000.05,N,000.09,K,D*21
$GPGSA,A,3,02,26,10,15,05,29,,,,,,,2.34,1.37,1.90*07
$GPGSV,3,1,09,02,47,086,35,26,41,145,38,10,15,054,39,15,21,183,35*74
$GPGSV,3,2,09,05,72,032,41,30,,000,32,29,58,299,32,25,19,247,11*7C
$GPGSV,3,3,09,46,45,205,33,,,,,,,,,,,,*44
$GPGST,163652.00,,034.80,031.12,021.0,005.62,005.86,006.24*4B
$GPRMC,163652.00,A,3917.26303,N,08203.79506,W,000.05,359.0,231213,07.2,W,D*36
$PTNLRTF,V,A,146228,06,3,3917.26303,N,08203.79506,W,00282,-000.000,+000.026,+000.028,0,1*52
$PTNLRBA,1,1*57
$GPZDA,163653.00,23,12,2013,,*60
$GPGGA,163653.00,3917.26304,N,08203.79518,W,2,06,1.37,00282,M,-033,M,,*5B
$GPGLL,3917.26304,N,08203.79518,W,163653.00,A,D*7E
$GPVTG,000.0,T,007.2,M,000.00,N,000.00,K,D*23
$GPGSA,A,3,02,26,10,15,05,29,,,,,,,2.34,1.37,1.90*07
$GPGSV,3,1,09,02,47,086,35,26,41,145,38,10,15,054,38,15,21,183,35*75
$GPGSV,3,2,09,05,72,032,41,30,,000,32,29,58,299,32,25,19,247,00*7C
$GPGSV,3,3,09,46,45,205,33,,,,,,,,,,,,*44
$GPGST,163653.00,,034.98,031.46,021.0,005.65,005.88,006.24*4B
$GPRMC,163653.00,A,3917.26304,N,08203.79518,W,000.00,000.0,231213,07.2,W,D*35
$PTNLRTF,V,A,146229,06,3,3917.26304,N,08203.79518,W,00282,+000.000,+000.000,+000.000,0,1*53
$PTNLRBA,1,1*57
$GPZDA,163655.00,23,12,2013,,*66
$GPGGA,163655.00,3917.26305,N,08203.79507,W,2,05,1.60,00282,M,-033,M,,*53
$GPGLL,3917.26305,N,08203.79507,W,163655.00,A,D*77
$GPVTG,000.0,T,007.2,M,000.00,N,000.00,K,D*23
$GPGSA,A,3,02,10,15,05,29,,,,,,,,2.59,1.60,2.04*04
$GPGSV,3,1,09,02,47,086,34,26,41,145,36,10,15,054,37,15,21,183,35*75
$GPGSV,3,2,09,05,72,032,41,30,,000,32,29,58,299,33,25,19,247,00*7D
$GPGSV,3,3,09,46,45,205,33,,,,,,,,,,,,*44
$GPGST,163655.00,,032.63,029.25,021.3,005.45,005.67,006.02*47
$GPRMC,163655.00,A,3917.26305,N,08203.79507,W,000.00,000.0,231213,07.2,W,D*3C
$PTNLRTF,V,A,146231,05,3,3917.26305,N,08203.79507,W,00282,+000.000,+000.000,+000.000,0,1*56
$PTNLRBA,1,1*57
$GPZDA,163656.00,23,12,2013,,*65
$GPGGA,163656.00,3917.26294,N,08203.79499,W,2,06,1.37,00283,M,-033,M,,*5F
$GPGLL,3917.26294,N,08203.79499,W,163656.00,A,D*7B
$GPVTG,000.0,T,007.2,M,000.00,N,000.00,K,D*23
$GPGSA,A,3,02,26,10,15,05,29,,,,,,,2.34,1.37,1.90*07
$GPGSV,3,1,09,02,47,086,34,26,41,145,37,10,15,054,38,15,21,183,36*78
$GPGSV,3,2,09,05,72,032,41,30,,000,32,29,58,299,33,25,19,247,00*7D
$GPGSV,3,3,09,46,45,205,33,,,,,,,,,,,,*44
$GPGST,163656.00,,031.68,028.38,021.3,005.37,005.59,005.93*42
$GPRMC,163656.00,A,3917.26294,N,08203.79499,W,000.00,000.0,231213,07.2,W,D*30
$PTNLRTF,V,A,146232,06,3,3917.26294,N,08203.79499,W,00283,+000.000,+000.000,+000.000,0,1*58
$PTNLRBA,1,1*57
$GPZDA,163658.00,23,12,2013,,*6B
$GPGGA,163658.00,3917.26268,N,08203.79516,W,2,06,1.37,00283,M,-033,M,,*54
$GPGLL,3917.26268,N,08203.79516,W,163658.00,A,D*70
$GPVTG,000.0,T,007.2,M,000.00,N,000.00,K,D*23
$GPGSA,A,3,02,26,10,15,05,29,,,,,,,2.34,1.37,1.90*07
$GPGSV,3,1,09,02,47,086,32,26,41,145,38,10,15,054,38,15,21,183,35*72
$GPGSV,3,2,09,05,72,032,41,30,,000,31,29,58,299,32,25,19,247,00*7F
$GPGSV,3,3,09,46,45,205,32,,,,,,,,,,,,*45
$GPGST,163658.00,,034.54,031.37,021.3,005.64,005.84,006.14*4B
$GPRMC,163658.00,A,3917.26268,N,08203.79516,W,000.00,000.0,231213,07.2,W,D*3B
$PTNLRTF,V,A,146234,06,3,3917.26268,N,08203.79516,W,00283,+000.000,+000.000,+000.000,0,1*5B
$PTNLRBA,1,1*57
$GPZDA,163659.00,23,12,2013,,*6A
$GPGGA,163659.00,3917.26260,N,08203.79523,W,2,06,1.37,00283,M,-033,M,,*5B
$GPGLL,3917.26260,N,08203.79523,W,163659.00,A,D*7F
$GPVTG,000.0,T,007.2,M,000.00,N,000.00,K,D*23
$GPGSA,A,3,02,26,10,15,05,29,,,,,,,2.34,1.37,1.90*07
$GPGSV,3,1,09,02,47,086,33,26,41,145,38,10,15,054,38,15,21,183,35*73
$GPGSV,3,2,09,05,72,032,41,30,,000,31,29,58,299,32,25,19,247,00*7F
$GPGSV,3,3,09,46,45,205,33,,,,,,,,,,,,*44
$GPGST,163659.00,,038.31,035.21,021.3,005.97,006.16,006.43*40
$GPRMC,163659.00,A,3917.26260,N,08203.79523,W,000.00,000.0,231213,07.2,W,D*34
$PTNLRTF,V,A,146235,06,3,3917.26260,N,08203.79523,W,00283,+000.000,+000.000,+000.000,0,1*54
$PTNLRBA,1,1*57
$GPZDA,163701.00,23,12,2013,,*66
$GPGGA,163701.00,3917.26264,N,08203.79542,W,2,06,1.37,00282,M,-033,M,,*55
$GPGLL,3917.26264,N,08203.79542,W,163701.00,A,D*70
$GPVTG,298.6,T,305.8,M,000.81,N,001.51,K,D*21
$GPGSA,A,3,02,26,10,15,05,29,,,,,,,2.34,1.37,1.90*07
$GPGSV,3,1,09,02,47,086,32,26,41,145,38,10,15,054,38,15,21,183,35*72
$GPGSV,3,2,09,05,72,032,41,30,,000,31,29,58,299,32,25,19,247,00*7F
$GPGSV,3,3,09,46,45,205,33,,,,,,,,,,,,*44
$GPGST,163701.00,,043.37,040.35,021.2,006.38,006.56,006.79*4B
$GPRMC,163701.00,A,3917.26264,N,08203.79542,W,000.81,298.6,231213,07.2,W,D*37
$PTNLRTF,V,A,146237,06,3,3917.26264,N,08203.79542,W,00282,-000.368,+000.201,-000.014,0,1*5F
$PTNLRBA,1,1*57
$GPZDA,163702.00,23,12,2013,,*65
$GPGGA,163702.00,3917.26263,N,08203.79556,W,2,06,1.37,00282,M,-033,M,,*54
$GPGLL,3917.26263,N,08203.79556,W,163702.00,A,D*71
$GPVTG,289.7,T,296.9,M,000.21,N,000.39,K,D*2F
$GPGSA,A,3,02,26,10,15,05,29,,,,,,,2.34,1.37,1.90*07
$GPGSV,3,1,09,02,47,086,31,26,41,145,39,10,15,054,38,15,21,183,34*71
$GPGSV,3,2,09,05,72,032,41,30,,000,32,29,58,299,31,25,19,247,00*7F
$GPGSV,3,3,09,46,45,205,35,,,,,,,,,,,,*42
$GPGST,163702.00,,043.76,040.74,021.0,006.41,006.59,006.81*4C
$GPRMC,163702.00,A,3917.26263,N,08203.79556,W,000.21,289.7,231213,07.2,W,D*3D
$PTNLRTF,V,A,146238,06,3,3917.26263,N,08203.79556,W,00282,-000.102,+000.037,-000.008,0,1*56
$PTNLRBA,1,1*57
$GPZDA,163704.00,23,12,2013,,*63
$GPGGA,163704.00,3917.26263,N,08203.79567,W,2,06,1.37,00282,M,-033,M,,*50
$GPGLL,3917.26263,N,08203.79567,W,163704.00,A,D*75
$GPVTG,000.0,T,007.2,M,000.00,N,000.00,K,D*23
$GPGSA,A,3,02,26,10,15,05,29,,,,,,,2.34,1.37,1.90*07
$GPGSV,3,1,09,02,47,086,32,26,41,145,38,10,15,054,39,15,21,183,34*72
$GPGSV,3,2,09,05,72,032,42,30,,000,32,29,58,299,29,25,19,247,16*72
$GPGSV,3,3,09,46,45,205,34,,,,,,,,,,,,*43
$GPGST,163704.00,,050.20,047.31,021.0,006.90,007.06,007.26*46
$GPRMC,163704.00,A,3917.26263,N,08203.79567,W,000.00,000.0,231213,07.2,W,D*3E
$PTNLRTF,V,A,146240,06,3,3917.26263,N,08203.79567,W,00282,+000.000,+000.000,+000.000,0,1*54
$PTNLRBA,1,1*57
$GPZDA,163705.00,23,12,2013,,*62
$GPGGA,163705.00,3917.26259,N,08203.79579,W,2,06,1.37,00282,M,-033,M,,*57
$GPGLL,3917.26259,N,08203.79579,W,163705.00,A,D*72
$GPVTG,000.0,T,007.2,M,000.00,N,000.00,K,D*23
$GPGSA,A,3,02,26,10,15,05,29,,,,,,,2.34,1.37,1.90*07
$GPGSV,2,1,08,02,47,086,35,26,41,145,40,10,15,054,38,15,21,183,34*7B
$GPGSV,2,2,08,05,72,032,41,30,,000,31,29,58,299,29,46,45,205,33*7F
$GPGST,163705.00,,051.84,048.99,020.8,007.02,007.17,007.36*47
$GPRMC,163705.00,A,3917.26259,N,08203.79579,W,000.00,000.0,231213,07.2,W,D*39
$PTNLRTF,V,A,146241,06,3,3917.26259,N,08203.79579,W,00282,+000.000,+000.000,+000.000,0,1*53
$PTNLRBA,1,1*57
$GPZDA,163706.00,23,12,2013,,*61
$GPGGA,163706.00,3917.26257,N,08203.79587,W,2,06,1.37,00282,M,-033,M,,*5B
$GPGLL,3917.26257,N,08203.79587,W,163706.00,A,D*7E
$GPVTG,000.0,T,007.2,M,000.00,N,000.00,K,D*23
$GPGSA,A,3,02,26,10,15,05,29,,,,,,,2.34,1.37,1.90*07
$GPGSV,2,1,08,02,47,086,32,26,41,145,37,10,15,054,38,15,21,183,33*7B
$GPGSV,2,2,08,05,72,032,41,30,,000,31,29,58,299,30,46,45,205,34*70
$GPGST,163706.00,,052.47,049.66,020.6,007.07,007.22,007.40*45
$GPRMC,163706.00,A,3917.26257,N,08203.79587,W,000.00,000.0,231213,07.2,W,D*35
$PTNLRTF,V,A,146242,06,3,3917.26257,N,08203.79587,W,00282,+000.000,+000.000,+000.000,0,1*5F
$PTNLRBA,1,1*57
$GPZDA,163708.00,23,12,2013,,*6F
$GPGGA,163708.00,3917.26260,N,08203.79611,W,2,06,1.37,00282,M,-033,M,,*5D
$GPGLL,3917.26260,N,08203.79611,W,163708.00,A,D*78
$GPVTG,000.0,T,007.2,M,000.00,N,000.00,K,D*23
$GPGSA,A,3,02,26,10,15,05,29,,,,,,,2.34,1.37,1.90*07
$GPGSV,2,1,08,02,47,086,34,26,41,145,39,10,15,054,38,15,21,183,35*75
$GPGSV,2,2,08,05,72,032,41,30,,000,31,29,58,299,31,46,45,205,34*71
$GPGST,163708.00,,053.81,051.09,020.5,007.17,007.31,007.48*48
$GPRMC,163708.00,A,3917.26260,N,08203.79611,W,000.00,000.0,231213,07.2,W,D*33
$PTNLRTF,V,A,146244,06,3,3917.26260,N,08203.79611,W,00282,+000.000,+000.000,+000.000,0,1*51
$PTNLRBA,1,1*57
$GPZDA,163709.00,23,12,2013,,*6E
$GPGGA,163709.00,3917.26261,N,08203.79622,W,2,06,1.37,00282,M,-033,M,,*5D
$GPGLL,3917.26261,N,08203.79622,W,163709.00,A,D*78
$GPVTG,000.0,T,007.2,M,000.00,N,000.00,K,D*23
$GPGSA,A,3,02,26,10,15,05,29,,,,,,,2.34,1.37,1.90*07
$GPGSV,2,1,08,02,47,086,33,26,41,145,38,10,15,054,38,15,21,183,35*73
$GPGSV,2,2,08,05,72,032,40,30,,000,30,29,58,299,32,46,45,205,33*75
$GPGST,163709.00,,052.37,049.70,020.5,007.07,007.21,007.38*45
$GPRMC,163709.00,A,3917.26261,N,08203.79622,W,000.00,000.0,231213,07.2,W,D*33
$PTNLRTF,V,A,146245,06,3,3917.26261,N,08203.79622,W,00282,+000.000,+000.000,+000.000,0,1*51
$PTNLRBA,1,1*57
$GPZDA,163711.00,23,12,2013,,*67
$GPGGA,163711.00,3917.26262,N,08203.79652,W,2,06,1.37,00282,M,-033,M,,*50
$GPGLL,3917.26262,N,08203.79652,W,163711.00,A,D*75
$GPVTG,281.7,T,288.9,M,000.46,N,000.85,K,D*2E
$GPGSA,A,3,02,26,10,15,05,29,,,,,,,2.34,1.37,1.90*07
$GPGSV,2,1,08,02,47,086,31,26,41,145,38,10,15,054,37,15,21,183,31*7A
$GPGSV,2,2,08,05,72,032,42,30,,000,33,29,58,299,34,46,45,205,33*72
$GPGST,163711.00,,050.36,047.76,020.2,006.93,007.07,007.24*45
$GPRMC,163711.00,A,3917.26262,N,08203.79652,W,000.46,281.7,231213,07.2,W,D*30
$PTNLRTF,V,A,146247,06,3,3917.26262,N,08203.79652,W,00282,-000.232,+000.048,-000.018,0,1*51
$PTNLRBA,1,1*57
$GPZDA,163712.00,23,12,2013,,*64
$GPGGA,163712.00,3917.26254,N,08203.79655,W,2,06,1.37,00282,M,-033,M,,*51
$GPGLL,3917.26254,N,08203.79655,W,163712.00,A,D*74
$GPVTG,248.8,T,256.0,M,000.13,N,000.23,K,D*22
$GPGSA,A,3,02,26,10,15,05,29,,,,,,,2.34,1.37,1.90*07
$GPGSV,2,1,08,02,47,086,33,26,41,145,38,10,15,054,38,15,21,183,32*74
$GPGSV,2,2,08,05,72,032,42,30,,000,32,29,58,299,33,46,45,205,33*74
$GPGST,163712.00,,050.56,048.00,019.8,006.95,007.09,007.24*46
$GPRMC,163712.00,A,3917.26254,N,08203.79655,W,000.13,248.8,231213,07.2,W,D*3B
$PTNLRTF,V,A,146248,06,3,3917.26254,N,08203.79655,W,00282,-000.061,-000.024,+000.003,0,1*58
$PTNLRBA,1,1*57
$GPZDA,163713.00,23,12,2013,,*65
$GPGGA,163713.00,3917.26250,N,08203.79638,W,2,04,2.24,00282,M,-033,M,,*5C
$GPGLL,3917.26250,N,08203.79638,W,163713.00,A,D*7A
$GPVTG,119.5,T,126.7,M,000.47,N,000.87,K,D*24
$GPGSA,A,3,02,26,10,15,05,29,,,,,,,2.34,1.37,1.90*07
$GPGSV,2,1,08,02,47,086,42,26,41,145,40,10,15,054,37,15,21,183,31*71
$GPGSV,2,2,08,05,72,032,38,30,,000,30,29,58,299,34,46,45,205,29*77
$GPGST,163713.00,,050.32,047.80,021.0,006.94,007.07,007.22*48
$GPRMC,163713.00,A,3917.26250,N,08203.79638,W,000.47,119.5,231213,07.2,W,D*3E
$PTNLRTF,V,A,146250,06,3,3917.26250,N,08203.79638,W,00282,+000.210,-000.119,-000.001,0,1*57
$PTNLRBA,1,1*57
$GPZDA,163715.00,23,12,2013,,*63
$GPGGA,163715.00,3917.26247,N,08203.79595,W,2,06,1.37,00283,M,-033,M,,*5A
$GPGLL,3917.26247,N,08203.79595,W,163715.00,A,D*7E
$GPVTG,000.0,T,007.2,M,000.00,N,000.00,K,D*23
$GPGSA,A,3,02,26,10,15,05,29,,,,,,,2.34,1.37,1.90*07
$GPGSV,2,1,08,02,47,086,41,26,41,145,40,10,15,054,37,15,21,183,31*72
$GPGSV,2,2,08,05,72,032,37,30,,000,29,29,58,299,34,46,45,205,28*71
$GPGST,163715.00,,050.66,048.27,020.8,006.97,007.10,007.24*47
$GPRMC,163715.00,A,3917.26247,N,08203.79595,W,000.00,000.0,231213,07.2,W,D*35
$PTNLRTF,V,A,146251,06,3,3917.26247,N,08203.79595,W,00283,+000.000,+000.000,+000.000,0,1*5E
$PTNLRBA,1,1*57
$GPZDA,163716.00,23,12,2013,,*60
$GPGGA,163716.00,3917.26240,N,08203.79574,W,2,06,1.37,00283,M,-033,M,,*51
$GPGLL,3917.26240,N,08203.79574,W,163716.00,A,D*75
$GPVTG,000.0,T,007.2,M,000.00,N,000.00,K,D*23
$GPGSA,A,3,02,26,10,15,05,29,,,,,,,2.34,1.37,1.90*07
$GPGSV,3,1,09,02,47,087,41,26,41,145,39,10,15,054,37,15,22,183,31*7E
$GPGSV,3,2,09,05,72,032,39,30,,000,28,29,58,299,34,25,19,246,27*7A
$GPGSV,3,3,09,46,45,205,30,,,,,,,,,,,,*47
$GPGST,163716.00,,050.22,047.92,020.8,006.94,007.07,007.21*45
$GPRMC,163716.00,A,3917.26240,N,08203.79574,W,000.00,000.0,231213,07.2,W,D*3E
$PTNLRTF,V,A,146252,06,3,3917.26240,N,08203.79574,W,00283,+000.000,+000.000,+000.000,0,1*55
$PTNLRBA,1,1*57
$GPZDA,163718.00,23,12,2013,,*6E
$GPGGA,163718.00,3917.26233,N,08203.79565,W,2,06,1.37,00283,M,-033,M,,*5B
$GPGLL,3917.26233,N,08203.79565,W,163718.00,A,D*7F
$GPVTG,255.6,T,262.8,M,000.58,N,001.08,K,D*28
$GPGSA,A,3,02,26,10,15,05,29,,,,,,,2.34,1.37,1.90*07
$GPGSV,3,1,09,02,47,087,35,26,41,145,35,10,15,054,32,15,22,183,32*77
$GPGSV,3,2,09,05,72,032,41,30,,000,34,29,58,299,35,25,19,246,26*78
$GPGSV,3,3,09,46,45,205,31,,,,,,,,,,,,*46
$GPGST,163718.00,,050.37,048.23,020.4,006.96,007.08,007.22*48
$GPRMC,163718.00,A,3917.26233,N,08203.79565,W,000.58,255.6,231213,07.2,W,D*3D
$PTNLRTF,V,A,146254,06,3,3917.26233,N,08203.79565,W,00283,-000.290,-000.075,-000.021,0,1*5B
$PTNLRBA,1,1*57
$GPZDA,163719.00,23,12,2013,,*6F
$GPGGA,163719.00,3917.26237,N,08203.79566,W,2,06,1.37,00284,M,-033,M,,*5A
$GPGLL,3917.26237,N,08203.79566,W,163719.00,A,D*79
$GPVTG,343.1,T,350.4,M,000.17,N,000.31,K,D*25
$GPGSA,A,3,02,26,10,15,05,29,,,,,,,2.34,1.37,1.90*07
$GPGSV,3,1,09,02,47,087,34,26,41,145,36,10,15,054,32,15,22,183,34*73
$GPGSV,3,2,09,05,72,032,40,30,,000,34,29,58,299,34,25,19,246,26*78
$GPGSV,3,3,09,46,45,205,30,,,,,,,,,,,,*47
$GPGST,163719.00,,048.66,046.56,020.0,006.84,006.96,007.10*48
$GPRMC,163719.00,A,3917.26237,N,08203.79566,W,000.17,343.1,231213,07.2,W,D*31
$PTNLRTF,V,A,146255,06,3,3917.26237,N,08203.79566,W,00284,-000.025,+000.084,-000.041,0,1*58
$PTNLRBA,1,1*57
$GPZDA,163721.00,23,12,2013,,*64
$GPGGA,163721.00,3917.26223,N,08203.79531,W,2,06,1.37,00284,M,-033,M,,*56
$GPGLL,3917.26223,N,08203.79531,W,163721.00,A,D*75
$GPVTG,000.0,T,007.2,M,000.00,N,000.00,K,D*23
$GPGSA,A,3,02,26,10,15,05,29,,,,,,,2.34,1.37,1.90*07
$GPGSV,3,1,09,02,47,087,32,26,41,145,37,10,15,054,33,15,22,183,31*70
$GPGSV,3,2,09,05,72,032,40,30,,000,34,29,58,299,35,25,19,246,27*78
$GPGSV,3,3,09,46,45,205,32,,,,,,,,,,,,*45
$GPGST,163721.00,,055.71,053.76,020.2,007.35,007.45,007.59*44
$GPRMC,163721.00,A,3917.26223,N,08203.79531,W,000.00,000.0,231213,07.2,W,D*3E
$PTNLRTF,V,A,146257,06,3,3917.26223,N,08203.79531,W,00284,+000.000,+000.000,+000.000,0,1*53
$PTNLRBA,1,1*57
$GPZDA,163722.00,23,12,2013,,*67
$GPGGA,163722.00,3917.26225,N,08203.79529,W,2,06,1.37,00285,M,-033,M,,*5B
