‚‚’Êšbj±-033,M,,*54
$GPGLL,3917.26431,N,08203.79787,W,025436.00,A,A*7C
$GPVTG,000.0,T,007.2,M,000.0,N,000.0,K,A*26
$GPGSA,A,3,09,08,07,23,13,19,16,11,06,27,,,1.63,0.90,1.36*02
$GPGSV,3,1,11,09,08,306,28,08,14,304,34,07,45,313,36,23,39,193,38*71
$GPGSV,3,2,11,13,60,238,38,19,61,154,32,16,38,053,39,11,14,166,34*73
$GPGSV,3,3,11,03,72,089,18,06,47,057,38,27,57,067,46,,,,*4F
$GPGST,025436.00,,118.91,118.83,045.8,010.90,010.90,010.94*49
$GPRMC,025436.00,A,3917.26431,N,08203.79787,W,000.0,000.0,070214,07.2,W,A*07
$PTNLRTF,V,A,442492,10,3,3917.26431,N,08203.79787,W,00293,+000.000,+000.000,+0$GPZDA,025437.00,07,02,2014,,*63
$GPGGA,025437.00,3917.26433,N,08203.79787,W,1,11,0.90,00293,M,-033,M,,*56
$GPGLL,3917.26433,N,08203.79787,W,025437.00,A,A*7F
$GPVTG,000.0,T,007.2,M,000.0,N,000.0,K,A*26
$GPGSA,A,3,09,08,07,23,13,19,16,11,03,06,27,,1.56,0.90,1.28*08
$GPGSV,3,1,11,09,08,306,31,08,14,304,35,07,45,313,36,23,39,193,37*77
$GPGSV,3,2,11,13,60,238,38,19,61,154,33,16,38,053,38,11,14,166,34*73
$GPGSV,3,3,11,03,72,089,23,06,47,057,38,27,57,067,46,,,,*47
$GPGST,025437.00,,131.21,131.13,045.8,011.45,011.45,011.48*4A
$GPRMC,025437.00,A,3917.26433,N,08203.79787,W,000.0,000.0,070214,07.2,W,A*04
$PTNLRTF,V,A,442493,11,3,3917.26433,N,08203.79787,W,00293,+000.000,+000.000,+000.000,0,1*54
$PTNLRBA,1,1*57
$GPZDA,025439.00,07,02,2014,,*6D
$GPGGA,025439.00,3917.26435,N,08203.79786,W,1,11,0.90,00293,M,-033,M,,*5F
$GPGLL,3917.26435,N,08203.79786,W,025439.00,A,A*76
$GPVTG,000.0,T,007.2,M,000.0,N,000.0,K,A*26
$GPGSA,A,3,09,08,07,23,13,19,16,11,03,06,27,,1.56,0.90,1.28*08
$GPGSV,3,1,11,09,08,306,27,08,14,304,35,07,45,313,35,23,39,193,37*73
$GPGSV,3,2,11,13,60,238,38,19,61,154,32,16,38,053,39,11,14,166,35*72
$GPGSV,3,3,11,03,72,089,19,06,47,057,40,27,57,067,46,,,,*41
$GPGST,025439.00,,145.42,145.34,045.7,012.06,012.06,012.09*4D
$GPRMC,025439.00,A,3917.26435,N,08203.79786,W,000.0,000.0,070214,07.2,W,A*0D
$PTNLRTF,V,A,442495,11,3,3917.26435,N,08203.79786,W,00293,+000.000,+000.000,+000.000,0,1*55
$PTNLRBA,1,1*57
$GPZDA,025440.00,07,02,2014,,*63
$GPGGA,025440.00,3917.26437,N,08203.79787,W,1,11,0.90,00293,M,-033,M,,*52
$GPGLL,3917.26437,N,08203.79787,W,025440.00,A,A*7B
$GPVTG,000.0,T,007.2,M,000.0,N,000.0,K,A*26
$GPGSA,A,3,09,08,07,23,13,19,16,11,03,06,27,,1.56,0.90,1.28*08
$GPGSV,3,1,11,09,08,306,29,08,14,304,36,07,45,313,35,23,39,193,37*7E
$GPGSV,3,2,11,13,60,238,39,19,61,154,32,16,38,053,38,11,14,166,35*72
$GPGSV,3,3,11,03,72,089,22,06,47,057,40,27,57,067,47,,,,*48
$GPGST,025440.00,,142.94,142.87,045.6,011.95,011.95,011.98*4A
$GPRMC,025440.00,A,3917.26437,N,08203.79787,W,000.0,000.0,070214,07.2,W,A*00
$PTNLRTF,V,A,442496,11,3,3917.26437,N,08203.79787,W,00293,+000.000,+000.000,+000.000,0,1*55
$PTNLRBA,1,1*57
$GPZDA,025442.00,07,02,2014,,*61
$GPGGA,025442.00,3917.26440,N,08203.79789,W,1,11,0.90,00293,M,-033,M,,*5E
$GPGLL,3917.26440,N,08203.79789,W,025442.00,A,A*77
$GPVTG,000.0,T,007.2,M,000.0,N,000.0,K,A*26
$GPGSA,A,3,09,08,07,23,13,19,16,11,03,06,27,,1.56,0.90,1.28*08
$GPGSV,3,1,11,09,08,306,29,08,14,304,34,07,45,313,34,23,39,193,37*7D
$GPGSV,3,2,11,13,60,238,38,19,61,154,31,16,38,053,38,11,14,166,35*70
$GPGSV,3,3,11,03,72,089,27,06,47,057,40,27,57,067,46,,,,*4C
$GPGST,025442.00,,155.95,155.88,045.5,012.49,012.49,012.51*43
$GPRMC,025442.00,A,3917.26440,N,08203.79789,W,000.0,000.0,070214,07.2,W,A*0C
$PTNLRTF,V,A,442498,11,3,3917.26440,N,08203.79789,W,00293,+000.000,+000.000,+000.000,0,1*55
$PTNLRBA,1,1*57
$GPZDA,025443.00,07,02,2014,,*60
$GPGGA,025443.00,3917.26441,N,08203.79790,W,1,11,0.90,00293,M,-033,M,,*56
$GPGLL,3917.26441,N,08203.79790,W,025443.00,A,A*7F
$GPVTG,000.0,T,007.2,M,000.0,N,000.0,K,A*26
$GPGSA,A,3,09,08,07,23,13,19,16,11,03,06,27,,1.56,0.90,1.28*08
$GPGSV,3,1,11,09,08,306,31,08,14,304,34,07,45,313,35,23,39,193,37*75
$GPGSV,3,2,11,13,60,238,39,19,61,154,31,16,38,053,38,11,14,166,35*71
$GPGSV,3,3,11,03,72,089,25,06,47,057,40,27,57,067,46,,,,*4E
$GPGST,025443.00,,148.92,148.85,045.4,012.20,012.20,012.23*4C
$GPRMC,025443.00,A,3917.26441,N,08203.79790,W,000.0,000.0,070214,07.2,W,A*04
$PTNLRTF,V,A,442499,11,3,3917.26441,N,08203.79790,W,00293,+000.000,+000.000,+000.000,0,1*5D
$PTNLRBA,1,1*57
$GPZDA,025445.00,07,02,2014,,*66
$GPGGA,025445.00,3917.26444,N,08203.79792,W,1,11,0.90,00293,M,-033,M,,*57
$GPGLL,3917.26444,N,08203.79792,W,025445.00,A,A*7E
$GPVTG,000.0,T,007.2,M,000.0,N,000.0,K,A*26
$GPGSA,A,3,09,08,07,23,13,19,16,11,03,06,27,,1.56,0.90,1.28*08
$GPGSV,3,1,11,09,08,306,29,08,14,304,34,07,45,313,34,23,39,193,37*7D
$GPGSV,3,2,11,13,60,238,40,19,61,154,30,16,38,053,39,11,14,166,35*7F
$GPGSV,3,3,11,03,72,089,27,06,47,057,40,27,57,067,46,,,,*4C
$GPGST,025445.00,,150.87,150.81,045.2,012.28,012.28,012.31*4F
$GPRMC,025445.00,A,3917.26444,N,08203.79792,W,000.0,000.0,070214,07.2,W,A*05
$PTNLRTF,V,A,442501,11,3,3917.26444,N,08203.79792,W,00293,+000.000,+000.000,+000.000,0,1*5A
$PTNLRBA,1,1*57
$GPZDA,025446.00,07,02,2014,,*65
$GPGGA,025446.00,3917.26444,N,08203.79793,W,1,11,0.90,00293,M,-033,M,,*55
$GPGLL,3917.26444,N,08203.79793,W,025446.00,A,A*7C
$GPVTG,000.0,T,007.2,M,000.0,N,000.0,K,A*26
$GPGSA,A,3,09,08,07,23,13,19,16,11,03,06,27,,1.56,0.90,1.28*08
$GPGSV,3,1,11,09,09,306,29,08,15,304,34,07,45,313,34,23,39,193,37*7D
$GPGSV,3,2,11,13,60,238,38,19,62,154,30,16,38,053,39,11,14,166,35*73
$GPGSV,3,3,11,03,72,088,25,06,47,056,39,27,57,067,46,,,,*40
$GPGST,025446.00,,147.70,147.63,045.1,012.15,012.15,012.18*40
$GPRMC,025446.00,A,3917.26444,N,08203.79793,W,000.0,000.0,070214,07.2,W,A*07
$PTNLRTF,V,A,442502,11,3,3917.26444,N,08203.79793,W,00293,+000.000,+000.000,+000.000,0,1*58
$PTNLRBA,1,1*57
$GPZDA,025448.00,07,02,2014,,*6B
$GPGGA,025448.00,3917.26445,N,08203.79795,W,1,11,0.90,00293,M,-033,M,,*5C
$GPGLL,3917.26445,N,08203.79795,W,025448.00,A,A*75
$GPVTG,000.0,T,007.2,M,000.0,N,000.0,K,A*26
$GPGSA,A,3,09,08,07,23,13,19,16,11,03,06,27,,1.56,0.90,1.28*08
$GPGSV,3,1,11,09,09,306,30,08,15,304,35,07,45,313,36,23,39,193,37*76
$GPGSV,3,2,11,13,60,238,38,19,62,154,29,16,38,053,40,11,14,166,35*75
$GPGSV,3,3,11,03,72,088,29,06,47,056,39,27,57,067,47,,,,*4D
$GPGST,025448.00,,146.38,146.31,044.9,012.10,012.10,012.12*46
$GPRMC,025448.00,A,3917.26445,N,08203.79795,W,000.0,000.0,070214,07.2,W,A*0E
$PTNLRTF,V,A,442504,11,3,3917.26445,N,08203.79795,W,00293,+000.000,+000.000,+000.000,0,1*59
$PTNLRBA,1,1*57
$GPZDA,025449.00,07,02,2014,,*6A
$GPGGA,025449.00,3917.26445,N,08203.79796,W,1,11,0.90,00293,M,-033,M,,*5E
$GPGLL,3917.26445,N,08203.79796,W,025449.00,A,A*77
$GPVTG,000.0,T,007.2,M,000.0,N,000.0,K,A*26
$GPGSA,A,3,09,08,07,23,13,19,16,11,03,06,27,,1.56,0.90,1.28*08
$GPGSV,3,1,11,09,09,306,30,08,15,304,35,07,45,313,36,23,39,193,37*76
$GPGSV,3,2,11,13,60,238,38,19,62,154,29,16,38,053,39,11,14,166,35*7B
$GPGSV,3,3,11,03,72,088,29,06,47,056,39,27,57,067,46,,,,*4C
$GPGST,025449.00,,145.04,144.98,044.8,012.04,012.04,012.07*4F
$GPRMC,025449.00,A,3917.26445,N,08203.79796,W,000.0,000.0,070214,07.2,W,A*0C
$PTNLRTF,V,A,442505,11,3,3917.26445,N,08203.79796,W,00293,+000.000,+000.000,+000.000,0,1*5B
$PTNLRBA,1,1*57
$GPZDA,025451.00,07,02,2014,,*63
$GPGGA,025451.00,3917.26444,N,08203.79809,W,1,11,0.90,00293,M,-033,M,,*5F
$GPGLL,3917.26444,N,08203.79809,W,025451.00,A,A*76
$GPVTG,166.9,T,174.1,M,000.3,N,000.5,K,A*2E
$GPGSA,A,3,09,08,07,23,13,19,16,11,03,06,27,,1.57,0.90,1.28*09
$GPGSV,3,1,11,09,09,306,31,08,15,304,32,07,45,313,34,23,39,193,36*73
$GPGSV,3,2,11,13,60,238,38,19,62,154,29,16,38,053,39,11,14,166,34*7A
$GPGSV,3,3,11,03,72,088,28,06,47,056,40,27,57,067,47,,,,*42
$GPGST,025451.00,,133.79,133.70,048.0,011.57,011.56,011.59*46
$GPRMC,025451.00,A,3917.26444,N,08203.79809,W,000.3,166.9,070214,07.2,W,A*06
$PTNLRTF,V,A,442507,11,3,3917.26444,N,08203.79809,W,00293,+000.034,-000.147,-000.036,0,1*51
$PTNLRBA,1,1*57
$GPZDA,025452.00,07,02,2014,,*60
$GPGGA,025452.00,3917.26451,N,08203.79812,W,1,11,0.90,00294,M,-033,M,,*55
$GPGLL,3917.26451,N,08203.79812,W,025452.00,A,A*7B
$GPVTG,000.0,T,007.2,M,000.0,N,000.0,K,A*26
$GPGSA,A,3,09,08,07,23,13,19,16,11,03,06,27,,1.57,0.90,1.28*09
$GPGSV,3,1,11,09,09,306,31,08,15,304,32,07,45,313,35,23,39,193,36*72
$GPGSV,3,2,11,13,60,238,38,19,62,154,29,16,38,053,39,11,14,166,34*7A
$GPGSV,3,3,11,03,72,088,30,06,47,056,39,27,57,067,47,,,,*45
$GPGST,025452.00,,129.38,129.29,049.1,011.37,011.37,011.40*45
$GPRMC,025452.00,A,3917.26451,N,08203.79812,W,000.0,000.0,070214,07.2,W,A*00
$PTNLRTF,V,A,442508,11,3,3917.26451,N,08203.79812,W,00294,+000.000,+000.000,+000.000,0,1*57
$PTNLRBA,1,1*57
$GPZDA,025454.00,07,02,2014,,*66
$GPGGA,025454.00,3917.26464,N,08203.79818,W,1,11,0.90,00294,M,-033,M,,*5F
$GPGLL,3917.26464,N,08203.79818,W,025454.00,A,A*71
$GPVTG,341.7,T,348.9,M,000.5,N,000.8,K,A*29
$GPGSA,A,3,09,08,07,23,13,19,16,11,03,06,27,,1.57,0.90,1.28*09
$GPGSV,3,1,11,09,09,306,31,08,15,304,33,07,45,313,34,23,39,193,36*72
$GPGSV,3,2,11,13,60,238,38,19,62,154,30,16,38,053,39,11,14,166,33*75
$GPGSV,3,3,11,03,72,088,31,06,47,056,39,27,57,067,46,,,,*45
$GPGST,025454.00,,122.50,122.39,049.5,011.07,011.07,011.09*45
$GPRMC,025454.00,A,3917.26464,N,08203.79818,W,000.5,341.7,070214,07.2,W,A*0E
$PTNLRTF,V,A,442510,11,3,3917.26464,N,08203.79818,W,00294,-000.074,+000.222,+000.014,0,1*50
$PTNLRBA,1,1*57
$GPZDA,025455.00,07,02,2014,,*67
$GPGGA,025455.00,3917.26464,N,08203.79826,W,1,11,0.90,00294,M,-033,M,,*53
$GPGLL,3917.26464,N,08203.79826,W,025455.00,A,A*7D
$GPVTG,276.6,T,283.8,M,000.1,N,000.3,K,A*25
$GPGSA,A,3,09,08,07,23,13,19,16,11,03,06,27,,1.57,0.90,1.28*09
$GPGSV,3,1,11,09,09,306,31,08,15,304,33,07,45,313,35,23,39,193,36*73
$GPGSV,3,2,11,13,60,238,39,19,62,154,30,16,38,053,39,11,14,166,33*74
$GPGSV,3,3,11,03,72,088,31,06,47,056,39,27,57,067,46,,,,*45
$GPGST,025455.00,,120.92,120.81,051.3,010.99,010.99,011.02*4D
$GPRMC,025455.00,A,3917.26464,N,08203.79826,W,000.1,276.6,070214,07.2,W,A*02
$PTNLRTF,V,A,442511,11,3,3917.26464,N,08203.79826,W,00294,-000.072,+000.008,+000.019,0,1*5D
$PTNLRBA,1,1*57
$GPZDA,025457.00,07,02,2014,,*65
$GPGGA,025457.00,3917.26464,N,08203.79836,W,1,11,0.90,00294,M,-033,M,,*50
$GPGLL,3917.26464,N,08203.79836,W,025457.00,A,A*7E
$GPVTG,279.4,T,286.6,M,000.4,N,000.8,K,A*2D
$GPGSA,A,3,09,08,07,23,13,19,16,11,03,06,27,,1.57,0.90,1.28*09
$GPGSV,3,1,11,09,09,306,30,08,15,304,33,07,45,313,34,23,39,193,36*73
$GPGSV,3,2,11,13,60,238,38,19,62,154,30,16,38,053,38,11,14,166,33*74
$GPGSV,3,3,11,03,72,088,31,06,47,056,39,27,57,067,46,,,,*45
$GPGST,025457.00,,116.21,116.10,049.2,010.78,010.78,010.81*4D
$GPRMC,025457.00,A,3917.26464,N,08203.79836,W,000.4,279.4,070214,07.2,W,A*09
$PTNLRTF,V,A,442513,11,3,3917.26464,N,08203.79836,W,00294,-000.206,+000.034,+000.018,0,1*51
$PTNLRBA,1,1*57
$GPZDA,025458.00,07,02,2014,,*6A
$GPGGA,025458.00,3917.26463,N,08203.79836,W,1,10,1.03,00294,M,-033,M,,*52
$GPGLL,3917.26463,N,08203.79836,W,025458.00,A,A*76
$GPVTG,078.5,T,085.7,M,000.0,N,000.1,K,A*22
$GPGSA,A,3,09,08,07,23,13,19,11,03,06,27,,,1.69,1.03,1.34*05
$GPGSV,3,1,11,09,09,306,30,08,15,304,32,07,45,313,35,23,39,193,36*73
$GPGSV,3,2,11,13,60,238,38,19,62,154,31,16,38,053,39,11,14,166,33*74
$GPGSV,3,3,11,03,72,088,31,06,47,056,39,27,57,067,47,,,,*44
$GPGST,025458.00,,113.04,112.92,048.5,010.63,010.63,010.66*41
$GPRMC,025458.00,A,3917.26463,N,08203.79836,W,000.0,078.5,070214,07.2,W,A*07
$PTNLRTF,V,A,442514,10,3,3917.26463,N,08203.79836,W,00294,+000.019,+000.004,-000.024,0,1*50
$PTNLRBA,1,1*57
$GPZDA,025500.00,07,02,2014,,*66
$GPGGA,025500.00,3917.26454,N,08203.79830,W,1,11,0.90,00293,M,-033,M,,*51
$GPGLL,3917.26454,N,08203.79830,W,025500.00,A,A*78
$GPVTG,164.7,T,171.9,M,000.2,N,000.3,K,A*28
$GPGSA,A,3,09,08,07,23,13,19,16,11,03,06,27,,1.57,0.90,1.28*09
$GPGSV,3,1,11,09,09,306,30,08,15,304,32,07,45,313,37,23,39,193,36*71
$GPGSV,3,2,11,13,60,238,39,19,62,154,33,16,38,053,38,11,14,166,31*74
$GPGSV,3,3,11,03,72,088,30,06,47,056,39,27,57,067,46,,,,*44
$GPGST,025500.00,,114.86,114.72,048.8,010.71,010.71,010.74*46
$GPRMC,025500.00,A,3917.26454,N,08203.79830,W,000.2,164.7,070214,07.2,W,A*05
$PTNLRTF,V,A,442516,11,3,3917.26454,N,08203.79830,W,00293,+000.024,-000.087,-000.003,0,1*50
$PTNLRBA,1,1*57
$GPZDA,025501.00,07,02,2014,,*67
$GPGGA,025501.00,3917.26457,N,08203.79833,W,1,11,0.90,00293,M,-033,M,,*50
$GPGLL,3917.26457,N,08203.79833,W,025501.00,A,A*79
$GPVTG,000.0,T,007.2,M,000.0,N,000.0,K,A*26
$GPGSA,A,3,09,08,07,23,13,19,16,11,03,06,27,,1.57,0.90,1.28*09
$GPGSV,3,1,11,09,09,306,30,08,15,304,32,07,45,313,36,23,39,193,36*70
$GPGSV,3,2,11,13,60,238,38,19,62,154,32,16,38,053,39,11,14,166,32*76
$GPGSV,3,3,11,03,72,088,31,06,47,056,40,27,57,067,46,,,,*4B
$GPGST,025501.00,,115.96,115.83,049.0,010.77,010.77,010.79*4C
$GPRMC,025501.00,A,3917.26457,N,08203.79833,W,000.0,000.0,070214,07.2,W,A*02
$PTNLRTF,V,A,442517,11,3,3917.26457,N,08203.79833,W,00293,+000.000,+000.000,+000.000,0,1*5B
$PTNLRBA,1,1*57
$GPZDA,025503.00,07,02,2014,,*65
$GPGGA,025503.00,3917.26456,N,08203.79836,W,1,11,0.90,00294,M,-033,M,,*51
$GPGLL,3917.26456,N,08203.79836,W,025503.00,A,A*7F
$GPVTG,000.0,T,007.2,M,000.0,N,000.0,K,A*26
$GPGSA,A,3,09,08,07,23,13,19,16,11,03,06,27,,1.57,0.90,1.28*09
$GPGSV,3,1,11,09,09,306,32,08,15,304,32,07,45,313,36,23,39,193,36*72
$GPGSV,3,2,11,13,60,238,38,19,62,154,32,16,38,053,39,11,14,166,31*75
$GPGSV,3,3,11,03,72,088,31,06,47,056,40,27,57,067,46,,,,*4B
$GPGST,025503.00,,104.85,104.72,049.0,010.24,010.24,010.26*48
$GPRMC,025503.00,A,3917.26456,N,08203.79836,W,000.0,000.0,070214,07.2,W,A*04
$PTNLRTF,V,A,442519,11,3,3917.26456,N,08203.79836,W,00294,+000.000,+000.000,+000.000,0,1*56
$PTNLRBA,1,1*57
$GPZDA,025504.00,07,02,2014,,*62
$GPGGA,025504.00,3917.26454,N,08203.79838,W,1,11,0.90,00294,M,-033,M,,*5A
$GPGLL,3917.26454,N,08203.79838,W,025504.00,A,A*74
$GPVTG,000.0,T,007.2,M,000.0,N,000.0,K,A*26
$GPGSA,A,3,09,08,07,23,13,19,16,11,03,06,27,,1.57,0.90,1.28*09
$GPGSV,3,1,11,09,09,306,32,08,15,304,34,07,45,313,35,23,39,193,37*76
$GPGSV,3,2,11,13,60,238,37,19,62,154,33,16,38,053,39,11,14,166,32*78
$GPGSV,3,3,11,03,72,088,31,06,47,056,40,27,57,067,46,,,,*4B
$GPGST,025504.00,,105.00,104.87,049.0,010.24,010.24,010.27*48
$GPRMC,025504.00,A,3917.26454,N,08203.79838,W,000.0,000.0,070214,07.2,W,A*0F
$PTNLRTF,V,A,442520,11,3,3917.26454,N,08203.79838,W,00294,+000.000,+000.000,+000.000,0,1*50
$PTNLRBA,1,1*57
$GPZDA,025506.00,07,02,2014,,*60
$GPGGA,025506.00,3917.26450,N,08203.79843,W,1,10,0.98,00294,M,-033,M,,*59
$GPGLL,3917.26450,N,08203.79843,W,025506.00,A,A*7E
$GPVTG,000.0,T,007.2,M,000.0,N,000.0,K,A*26
$GPGSA,A,3,09,08,07,13,19,16,11,03,06,27,,,1.61,0.98,1.28*05
$GPGSV,3,1,11,09,09,306,33,08,15,304,34,07,45,313,37,23,39,193,36*74
$GPGSV,3,2,11,13,60,238,38,19,62,154,33,16,38,053,39,11,14,166,32*77
$GPGSV,3,3,11,03,72,088,30,06,47,056,40,27,57,067,46,,,,*4A
$GPGST,025506.00,,100.07,099.95,049.1,010.00,010.00,010.03*49
$GPRMC,025506.00,A,3917.26450,N,08203.79843,W,000.0,000.0,070214,07.2,W,A*05
$PTNLRTF,V,A,442522,10,3,3917.26450,N,08203.79843,W,00294,+000.000,+000.000,+000.000,0,1*5B
$PTNLRBA,1,1*57
$GPZDA,025507.00,07,02,2014,,*61
$GPGGA,025507.00,3917.26449,N,08203.79844,W,1,11,0.90,00294,M,-033,M,,*5E
$GPGLL,3917.26449,N,08203.79844,W,025507.00,A,A*70
$GPVTG,000.0,T,007.2,M,000.0,N,000.0,K,A*26
$GPGSA,A,3,09,08,07,23,13,19,16,11,03,06,27,,1.57,0.90,1.28*09
$GPGSV,3,1,11,09,09,306,33,08,15,304,34,07,45,313,36,23,39,193,37*74
$GPGSV,3,2,11,13,60,238,38,19,62,154,34,16,38,053,39,11,14,166,32*70
$GPGSV,3,3,11,03,72,088,32,06,47,056,40,27,57,067,46,,,,*48
$GPGST,025507.00,,095.19,095.07,049.1,009.75,009.75,009.78*49
$GPRMC,025507.00,A,3917.26449,N,08203.79844,W,000.0,000.0,070214,07.2,W,A*0B
$PTNLRTF,V,A,442523,11,3,3917.26449,N,08203.79844,W,00294,+000.000,+000.000,+000.000,0,1*54
$PTNLRBA,1,1*57
$GPZDA,025509.00,07,02,2014,,*6F
$GPGGA,025509.00,3917.26444,N,08203.79848,W,1,11,0.90,00294,M,-033,M,,*51
$GPGLL,3917.26444,N,08203.79848,W,025509.00,A,A*7F
$GPVTG,000.0,T,007.2,M,000.0,N,000.0,K,A*26
$GPGSA,A,3,09,08,07,23,13,19,16,11,03,06,27,,1.57,0.90,1.28*09
$GPGSV,3,1,11,09,09,306,33,08,15,304,35,07,45,313,36,23,39,193,37*75
$GPGSV,3,2,11,13,60,238,38,19,62,154,33,16,38,053,39,11,14,166,33*76
$GPGSV,3,3,11,03,72,088,34,06,47,056,40,27,57,067,46,,,,*4E
$GPGST,025509.00,,092.01,091.89,049.1,009.59,009.59,009.62*40
$GPRMC,025509.00,A,3917.26444,N,08203.79848,W,000.0,000.0,070214,07.2,W,A*04
$PTNLRTF,V,A,442525,11,3,3917.26444,N,08203.79848,W,00294,+000.000,+000.000,+000.000,0,1*53
$PTNLRBA,1,1*57
$GPZDA,025510.00,07,02,2014,,*67
$GPGGA,025510.00,3917.26441,N,08203.79847,W,1,11,0.90,00294,M,-033,M,,*53
$GPGLL,3917.26441,N,08203.79847,W,025510.00,A,A*7D
$GPVTG,000.0,T,007.2,M,000.0,N,000.0,K,A*26
$GPGSA,A,3,09,08,07,23,13,19,16,11,03,06,27,,1.57,0.90,1.28*09
$GPGSV,3,1,11,09,09,306,32,08,15,304,35,07,45,313,36,23,39,193,36*75
$GPGSV,3,2,11,13,60,238,39,19,62,154,32,16,38,053,39,11,14,166,32*77
$GPGSV,3,3,11,03,72,088,34,06,47,056,41,27,57,067,46,,,,*4F
$GPGST,025510.00,,088.66,088.55,049.2,009.41,009.41,009.44*4C
$GPRMC,025510.00,A,3917.26441,N,08203.79847,W,000.0,000.0,070214,07.2,W,A*06
$PTNLRTF,V,A,442526,11,3,3917.26441,N,08203.79847,W,00294,+000.000,+000.000,+000.000,0,1*5A
$PTNLRBA,1,1*57
$GPZDA,025512.00,07,02,2014,,*65
$GPGGA,025512.00,3917.26437,N,08203.79847,W,1,11,0.90,00294,M,-033,M,,*50
$GPGLL,3917.26437,N,08203.79847,W,025512.00,A,A*7E
$GPVTG,000.0,T,007.2,M,000.0,N,000.0,K,A*26
$GPGSA,A,3,09,08,07,23,13,19,16,11,03,06,27,,1.57,0.90,1.28*09
$GPGSV,3,1,11,09,09,306,31,08,15,304,35,07,45,313,37,23,39,193,36*77
$GPGSV,3,2,11,13,60,238,39,19,62,154,35,16,38,053,40,11,14,166,32*7E
$GPGSV,3,3,11,03,72,088,33,06,47,056,40,27,57,067,46,,,,*49
$GPGST,025512.00,,083.98,083.87,049.3,009.16,009.16,009.19*49
$GPRMC,025512.00,A,3917.26437,N,08203.79847,W,000.0,000.0,070214,07.2,W,A*05
$PTNLRTF,V,A,442528,11,3,3917.26437,N,08203.79847,W,00294,+000.000,+000.000,+000.000,0,1*55
$PTNLRBA,1,1*57
$GPZDA,025513.00,07,02,2014,,*64
$GPGGA,025513.00,3917.26435,N,08203.79847,W,1,11,0.90,00294,M,-033,M,,*53
$GPGLL,3917.26435,N,08203.79847,W,025513.00,A,A*7D
$GPVTG,000.0,T,007.2,M,000.0,N,000.0,K,A*26
$GPGSA,A,3,09,08,07,23,13,19,16,11,03,06,27,,1.57,0.90,1.28*09
$GPGSV,3,1,11,09,09,306,32,08,15,304,35,07,45,313,37,23,39,193,37*75
$GPGSV,3,2,11,13,60,238,38,19,62,154,33,16,38,053,40,11,14,166,34*7F
$GPGSV,3,3,11,03,72,088,29,06,47,056,39,27,57,067,46,,,,*4C
$GPGST,025513.00,,082.84,082.73,049.3,009.10,009.10,009.13*44
$GPRMC,025513.00,A,3917.26435,N,08203.79847,W,000.0,000.0,070214,07.2,W,A*06
$PTNLRTF,V,A,442529,11,3,3917.26435,N,08203.79847,W,00294,+000.000,+000.000,+000.000,0,1*56
$PTNLRBA,1,1*57
$GPZDA,025515.00,07,02,2014,,*62
$GPGGA,025515.00,3917.26432,N,08203.79847,W,1,11,0.90,00294,M,-033,M,,*52
$GPGLL,3917.26432,N,08203.79847,W,025515.00,A,A*7C
$GPVTG,000.0,T,007.2,M,000.0,N,000.0,K,A*26
$GPGSA,A,3,09,08,07,23,13,19,16,11,03,06,27,,1.57,0.90,1.28*09
$GPGSV,3,1,11,09,09,306,32,08,15,304,34,07,45,313,37,23,39,193,37*74
$GPGSV,3,2,11,13,60,238,40,19,62,154,34,16,38,053,38,11,14,166,33*7F
$GPGSV,3,3,11,03,72,088,31,06,47,056,39,27,57,067,45,,,,*46
$GPGST,025515.00,,083.87,083.77,049.2,009.16,009.15,009.19*4D
$GPRMC,025515.00,A,3917.26432,N,08203.79847,W,000.0,000.0,070214,07.2,W,A*07
$PTNLRTF,V,A,442531,11,3,3917.26432,N,08203.79847,W,00294,+000.000,+000.000,+000.000,0,1*58
$PTNLRBA,1,1*57
$GPZDA,025516.00,07,02,2014,,*61
$GPGGA,025516.00,3917.26432,N,08203.79845,W,1,11,0.90,00294,M,-033,M,,*53
$GPGLL,3917.26432,N,08203.79845,W,025516.00,A,A*7D
$GPVTG,000.0,T,007.2,M,000.0,N,000.0,K,A*26
$GPGSA,A,3,09,08,07,23,13,19,16,11,03,06,27,,1.57,0.90,1.28*09
$GPGSV,3,1,11,09,09,306,32,08,15,304,34,07,45,313,37,23,39,193,37*74
$GPGSV,3,2,11,13,60,238,40,19,62,154,34,16,38,053,38,11,14,166,33*7F
$GPGSV,3,3,11,03,72,088,33,06,47,056,39,27,57,067,45,,,,*44
$GPGST,025516.00,,083.19,083.09,049.2,009.12,009.12,009.15*4F
$GPRMC,025516.00,A,3917.26432,N,08203.79845,W,000.0,000.0,070214,07.2,W,A*06
$PTNLRTF,V,A,442532,11,3,3917.26432,N,08203.79845,W,00294,+000.000,+000.000,+000.000,0,1*59
$PTNLRBA,1,1*57
$GPZDA,025518.00,07,02,2014,,*6F
$GPGGA,025518.00,3917.26431,N,08203.79846,W,1,11,0.90,00294,M,-033,M,,*5D
$GPGLL,3917.26431,N,08203.79846,W,025518.00,A,A*73
$GPVTG,000.0,T,007.2,M,000.0,N,000.0,K,A*26
$GPGSA,A,3,09,08,07,23,13,19,16,11,03,06,27,,1.57,0.90,1.28*09
$GPGSV,3,1,11,09,09,306,33,08,15,304,36,07,45,313,36,23,39,193,38*79
$GPGSV,3,2,11,13,60,238,39,19,62,154,35,16,38,053,39,11,14,166,34*76
$GPGSV,3,3,11,03,72,088,33,06,47,056,40,27,57,067,45,,,,*4A
$GPGST,025518.00,,078.41,078.30,049.1,008.85,008.85,008.88*40
$GPRMC,025518.00,A,3917.26431,N,08203.79846,W,000.0,000.0,070214,07.2,W,A*08
$PTNLRTF,V,A,442534,11,3,3917.26431,N,08203.79846,W,00294,+000.000,+000.000,+000.000,0,1*5F
$PTNLRBA,1,1*57
$GPZDA,025519.00,07,02,2014,,*6E
$GPGGA,025519.00,3917.26431,N,08203.79847,W,1,11,0.90,00294,M,-033,M,,*5D
$GPGLL,3917.26431,N,08203.79847,W,025519.00,A,A*73
$GPVTG,000.0,T,007.2,M,000.0,N,000.0,K,A*26
$GPGSA,A,3,09,08,07,23,13,19,16,11,03,06,27,,1.57,0.90,1.28*09
$GPGSV,3,1,11,09,09,306,34,08,15,304,35,07,45,313,36,23,39,193,37*72
$GPGSV,3,2,11,13,60,238,39,19,62,154,35,16,38,053,39,11,14,166,34*76
$GPGSV,3,3,11,03,72,088,33,06,47,056,40,27,57,067,45,,,,*4A
$GPGST,025519.00,,074.87,074.77,049.1,008.65,008.65,008.68*46
$GPRMC,025519.00,A,3917.26431,N,08203.79847,W,000.0,000.0,070214,07.2,W,A*08
$PTNLRTF,V,A,442535,11,3,3917.26431,N,08203.79847,W,00294,+000.000,+000.000,+000.000,0,1*5F
$PTNLRBA,1,1*57
$GPZDA,025521.00,07,02,2014,,*65
$GPGGA,025521.00,3917.26430,N,08203.79849,W,1,11,0.90,00294,M,-033,M,,*59
$GPGLL,3917.26430,N,08203.79849,W,025521.00,A,A*77
$GPVTG,000.0,T,007.2,M,000.0,N,000.0,K,A*26
$GPGSA,A,3,09,08,07,23,13,19,16,11,03,06,27,,1.57,0.90,1.28*09
$GPGSV,3,1,11,09,09,306,33,08,15,304,34,07,45,313,35,23,39,193,37*77
$GPGSV,3,2,11,13,60,238,38,19,62,154,34,16,38,053,39,11,14,166,34*76
$GPGSV,3,3,11,03,72,088,34,06,47,056,39,27,57,067,45,,,,*43
$GPGST,025521.00,,069.55,069.45,048.9,008.34,008.34,008.37*40
$GPRMC,025521.00,A,3917.26430,N,08203.79849,W,000.0,000.0,070214,07.2,W,A*0C
$PTNLRTF,V,A,442537,11,3,3917.26430,N,08203.79849,W,00294,+000.000,+000.000,+000.000,0,1*52
$PTNLRBA,1,1*57
$GPZDA,025522.00,07,02,2014,,*66
$GPGGA,025522.00,3917.26430,N,08203.79848,W,1,11,0.90,00294,M,-033,M,,*5B
$GPGLL,3917.26430,N,08203.79848,W,025522.00,A,A*75
$GPVTG,000.0,T,007.2,M,000.0,N,000.0,K,A*26
$GPGSA,A,3,09,08,07,23,13,19,16,11,03,06,27,,1.57,0.90,1.28*09
$GPGSV,3,1,11,09,09,306,33,08,15,304,34,07,45,313,35,23,39,193,37*77
$GPGSV,3,2,11,13,60,238,38,19,62,154,34,16,38,053,40,11,14,166,34*78
$GPGSV,3,3,11,03,72,088,34,06,47,056,38,27,57,067,46,,,,*41
$GPGST,025522.00,,067.53,067.43,048.8,008.21,008.21,008.25*41
$GPRMC,025522.00,A,3917.26430,N,08203.79848,W,000.0,000.0,070214,07.2,W,A*0E
$PTNLRTF,V,A,442538,11,3,3917.26430,N,08203.79848,W,00294,+000.000,+000.000,+000.000,0,1*5C
$PTNLRBA,1,1*57
$GPZDA,025524.00,07,02,2014,,*60
$GPGGA,025524.00,3917.26429,N,08203.79850,W,1,11,0.90,00294,M,-033,M,,*5C
$GPGLL,3917.26429,N,08203.79850,W,025524.00,A,A*72
$GPVTG,000.0,T,007.2,M,000.0,N,000.0,K,A*26
$GPGSA,A,3,09,08,07,23,13,19,16,11,03,06,27,,1.57,0.90,1.29*08
$GPGSV,3,1,11,09,09,306,34,08,15,304,33,07,45,313,36,23,39,193,36*75
$GPGSV,3,2,11,13,60,238,38,19,62,154,35,16,38,053,40,11,14,166,34*79
$GPGSV,3,3,11,03,72,088,34,06,47,056,38,27,57,067,46,,,,*41
$GPGST,025524.00,,066.40,066.30,048.7,008.15,008.15,008.18*40
$GPRMC,025524.00,A,3917.26429,N,08203.79850,W,000.0,000.0,070214,07.2,W,A*09
$PTNLRTF,V,A,442540,11,3,3917.26429,N,08203.79850,W,00294,+000.000,+000.000,+000.000,0,1*52
$PTNLRBA,1,1*57
$GPZDA,025525.00,07,02,2014,,*61
$GPGGA,025525.00,3917.26427,N,08203.79849,W,1,11,0.90,00294,M,-033,M,,*5B
$GPGLL,3917.26427,N,08203.79849,W,025525.00,A,A*75
$GPVTG,000.0,T,007.2,M,000.0,N,000.0,K,A*26
$GPGSA,A,3,09,08,07,23,13,19,16,11,03,06,27,,1.57,0.90,1.29*08
$GPGSV,3,1,11,09,09,306,34,08,15,304,34,07,45,314,34,23,38,193,36*76
$GPGSV,3,2,11,13,60,237,38,19,62,153,36,16,37,053,39,11,14,166,34*73
$GPGSV,3,3,11,03,72,087,34,06,46,056,38,27,57,066,45,,,,*4D
$GPGST,025525.00,,065.79,065.69,048.6,008.11,008.11,008.14*4A
$GPRMC,025525.00,A,3917.26427,N,08203.79849,W,000.0,000.0,070214,07.2,W,A*0E
$PTNLRTF,V,A,442541,11,3,3917.26427,N,08203.79849,W,00294,+000.000,+000.000,+000.000,0,1*55
$PTNLRBA,1,1*57
$GPZDA,025527.00,07,02,2014,,*63
$GPGGA,025527.00,3917.26429,N,08203.79847,W,1,11,0.90,00294,M,-033,M,,*59
$GPGLL,3917.26429,N,08203.79847,W,025527.00,A,A*77
$GPVTG,000.0,T,007.2,M,000.0,N,000.0,K,A*26
$GPGSA,A,3,09,08,07,23,13,19,16,11,03,06,27,,1.57,0.90,1.29*08
$GPGSV,3,1,11,09,09,306,34,08,15,304,33,07,45,314,35,23,38,193,36*70
$GPGSV,3,2,11,13,60,237,38,19,62,153,35,16,37,053,38,11,14,166,34*71
$GPGSV,3,3,11,03,72,087,34,06,46,056,39,27,57,066,45,,,,*4C
$GPGST,025527.00,,061.83,061.74,048.4,007.86,007.86,007.90*40
$GPRMC,025527.00,A,3917.26429,N,08203.79847,W,000.0,000.0,070214,07.2,W,A*0C
$PTNLRTF,V,A,442543,11,3,3917.26429,N,08203.79847,W,00294,+000.000,+000.000,+000.000,0,1*57
$PTNLRBA,1,1*57
$GPZDA,025528.00,07,02,2014,,*6C
$GPGGA,025528.00,3917.26430,N,08203.79846,W,1,11,0.90,00294,M,-033,M,,*5F
$GPGLL,3917.26430,N,08203.79846,W,025528.00,A,A*71
$GPVTG,000.0,T,007.2,M,000.0,N,000.0,K,A*26
$GPGSA,A,3,09,08,07,23,13,19,16,11,03,06,27,,1.57,0.90,1.29*08
$GPGSV,3,1,11,09,09,306,34,08,15,304,33,07,45,314,34,23,38,193,37*70
$GPGSV,3,2,11,13,60,237,38,19,62,153,34,16,37,053,38,11,14,166,34*70
$GPGSV,3,3,11,03,72,087,34,06,46,056,40,27,57,066,45,,,,*42
$GPGST,025528.00,,061.29,061.20,048.3,007.83,007.83,007.86*4E
$GPRMC,025528.00,A,3917.26430,N,08203.79846,W,000.0,000.0,070214,07.2,W,A*0A
$PTNLRTF,V,A,442544,11,3,3917.26430,N,08203.79846,W,00294,+000.000,+000.000,+000.000,0,1*59
$PTNLRBA,1,1*57
$GPZDA,025530.00,07,02,2014,,*65
$GPGGA,025530.00,3917.26431,N,08203.79852,W,1,11,0.90,00294,M,-033,M,,*52
$GPGLL,3917.26431,N,08203.79852,W,025530.00,A,A*7C
$GPVTG,190.9,T,198.1,M,000.3,N,000.6,K,A*26
$GPGSA,A,3,09,08,07,23,13,19,16,11,03,06,27,,1.57,0.90,1.29*08
$GPGSV,3,1,11,09,09,306,34,08,15,304,32,07,45,314,34,23,38,193,36*70
$GPGSV,3,2,11,13,60,237,37,19,62,153,35,16,37,053,38,11,14,166,35*7F
$GPGSV,3,3,11,03,72,087,33,06,46,056,40,27,57,066,46,,,,*46
$GPGST,025530.00,,062.29,062.18,052.0,007.89,007.89,007.92*41
$GPRMC,025530.00,A,3917.26431,N,08203.79852,W,000.3,190.9,070214,07.2,W,A*05
$PTNLRTF,V,A,442546,11,3,3917.26431,N,08203.79852,W,00294,-000.029,-000.152,+000.003,0,1*51
$PTNLRBA,1,1*57
$GPZDA,025531.00,07,02,2014,,*64
$GPGGA,025531.00,3917.26440,N,08203.79849,W,1,11,0.90,00294,M,-033,M,,*5F
$GPGLL,3917.26440,N,08203.79849,W,025531.00,A,A*71
$GPVTG,000.0,T,007.2,M,000.0,N,000.0,K,A*26
$GPGSA,A,3,09,08,07,23,13,19,16,11,03,06,27,,1.57,0.90,1.29*08
$GPGSV,3,1,11,09,09,306,34,08,15,304,31,07,45,314,34,23,38,193,36*73
$GPGSV,3,2,11,13,60,237,37,19,62,153,34,16,37,053,38,11,14,166,35*7E
$GPGSV,3,3,11,03,72,087,33,06,46,056,40,27,57,066,45,,,,*45
$GPGST,025531.00,,065.28,065.18,054.3,008.08,008.08,008.11*40
$GPRMC,025531.00,A,3917.26440,N,08203.79849,W,000.0,000.0,070214,07.2,W,A*0A
$PTNLRTF,V,A,442547,11,3,3917.26440,N,08203.79849,W,00294,+000.000,+000.000,+000.000,0,1*52
$PTNLRBA,1,1*57
$GPZDA,025533.00,07,02,2014,,*66
$GPGGA,025533.00,3917.26442,N,08203.79849,W,1,11,0.90,00294,M,-033,M,,*5F
$GPGLL,3917.26442,N,08203.79849,W,025533.00,A,A*71
$GPVTG,000.0,T,007.2,M,000.0,N,000.0,K,A*26
$GPGSA,A,3,09,08,07,23,13,19,16,11,03,06,27,,1.57,0.90,1.29*08
$GPGSV,3,1,11,09,09,306,34,08,15,304,32,07,45,314,35,23,38,193,36*71
$GPGSV,3,2,11,13,60,237,37,19,62,153,35,16,37,053,38,11,14,166,34*7E
$GPGSV,3,3,11,03,72,087,34,06,46,056,40,27,57,066,45,,,,*42
$GPGST,025533.00,,068.23,068.14,053.3,008.26,008.26,008.29*49
$GPRMC,025533.00,A,3917.26442,N,08203.79849,W,000.0,000.0,070214,07.2,W,A*0A
$PTNLRTF,V,A,442549,11,3,3917.26442,N,08203.79849,W,00294,+000.000,+000.000,+000.000,0,1*5E
$PTNLRBA,1,1*57
$GPZDA,025534.00,07,02,2014,,*61
$GPGGA,025534.00,3917.26443,N,08203.79848,W,1,11,0.90,00294,M,-033,M,,*58
$GPGLL,3917.26443,N,08203.79848,W,025534.00,A,A*76
$GPVTG,000.0,T,007.2,M,000.0,N,000.0,K,A*26
$GPGSA,A,3,09,08,07,23,13,19,16,11,03,06,27,,1.57,0.90,1.29*08
$GPGSV,3,1,11,09,09,306,34,08,15,304,31,07,45,314,34,23,38,193,35*70
$GPGSV,3,2,11,13,60,237,37,19,62,153,35,16,37,053,38,11,14,166,34*7E
$GPGSV,3,3,11,03,72,087,35,06,46,056,40,27,57,066,45,,,,*43
$GPGST,025534.00,,072.52,072.43,052.8,008.51,008.51,008.54*4A
$GPRMC,025534.00,A,3917.26443,N,08203.79848,W,000.0,000.0,070214,07.2,W,A*0D
$PTNLRTF,V,A,442550,11,3,3917.26443,N,08203.79848,W,00294,+000.000,+000.000,+000.000,0,1*56
$PTNLRBA,1,1*57
$GPZDA,025536.00,07,02,2014,,*63
$GPGGA,025536.00,3917.26443,N,08203.79846,W,1,11,0.90,00294,M,-033,M,,*54
$GPGLL,3917.26443,N,08203.79846,W,025536.00,A,A*7A
$GPVTG,000.0,T,007.2,M,000.0,N,000.0,K,A*26
$GPGSA,A,3,09,08,07,23,13,19,16,11,03,06,27,,1.57,0.90,1.29*08
$GPGSV,3,1,11,09,09,306,35,08,15,304,31,07,45,314,34,23,38,193,35*71
$GPGSV,3,2,11,13,60,237,37,19,62,153,36,16,37,053,38,11,14,166,34*7D
$GPGSV,3,3,11,03,72,087,35,06,46,056,39,27,57,066,46,,,,*4E
$GPGST,025536.00,,068.50,068.40,051.8,008.27,008.27,008.31*49
$GPRMC,025536.00,A,3917.26443,N,08203.79846,W,000.0,000.0,070214,07.2,W,A*01
$PTNLRTF,V,A,442552,11,3,3917.26443,N,08203.79846,W,00294,+000.000,+000.000,+000.000,0,1*5A
$PTNLRBA,1,1*57
$GPZDA,025537.00,07,02,2014,,*62
$GPGGA,025537.00,3917.26445,N,08203.79845,W,1,11,0.90,00294,M,-033,M,,*50
$GPGLL,3917.26445,N,08203.79845,W,025537.00,A,A*7E
$GPVTG,000.0,T,007.2,M,000.0,N,000.0,K,A*26
$GPGSA,A,3,09,08,07,23,13,19,16,11,03,06,27,,1.57,0.90,1.29*08
$GPGSV,3,1,11,09,09,306,34,08,15,304,33,07,45,314,35,23,38,193,34*72
$GPGSV,3,2,11,13,60,237,37,19,62,153,36,16,37,053,37,11,14,166,34*72
$GPGSV,3,3,11,03,72,087,35,06,46,056,39,27,57,066,46,,,,*4E
$GPGST,025537.00,,067.92,067.83,051.5,008.24,008.24,008.27*43
$GPRMC,025537.00,A,3917.26445,N,08203.79845,W,000.0,000.0,070214,07.2,W,A*05
$PTNLRTF,V,A,442553,11,3,3917.26445,N,08203.79845,W,00294,+000.000,+000.000,+000.000,0,1*5E
$PTNLRBA,1,1*57
$GPZDA,025539.00,07,02,2014,,*6C
$GPGGA,025539.00,3917.26444,N,08203.79832,W,1,11,0.90,00294,M,-033,M,,*5F
$GPGLL,3917.26444,N,08203.79832,W,025539.00,A,A*71
$GPVTG,108.7,T,116.0,M,000.4,N,000.7,K,A*28
$GPGSA,A,3,09,08,07,23,13,19,16,11,03,06,27,,1.57,0.90,1.29*08
$GPGSV,3,1,11,09,09,306,34,08,15,304,33,07,45,314,35,23,38,193,34*72
$GPGSV,3,2,11,13,60,237,36,19,62,153,35,16,37,053,39,11,14,166,35*7F
$GPGSV,3,3,11,03,72,087,36,06,46,056,39,27,57,066,45,,,,*4E
$GPGST,025539.00,,063.67,063.58,050.7,007.98,007.98,008.01*46
$GPRMC,025539.00,A,3917.26444,N,08203.79832,W,000.4,108.7,070214,07.2,W,A*00
$PTNLRTF,V,A,442555,11,3,3917.26444,N,08203.79832,W,00294,+000.171,-000.058,+000.004,0,1*51
$PTNLRBA,1,1*57
$GPZDA,025540.00,07,02,2014,,*62
$GPGGA,025540.00,3917.26441,N,08203.79829,W,1,11,0.90,00294,M,-033,M,,*5E
$GPGLL,3917.26441,N,08203.79829,W,025540.00,A,A*70
$GPVTG,142.7,T,149.9,M,000.1,N,000.2,K,A*25
$GPGSA,A,3,09,08,07,23,13,19,16,11,03,06,27,,1.57,0.90,1.29*08
$GPGSV,3,1,11,09,09,306,34,08,15,304,33,07,45,314,34,23,38,193,34*73
$GPGSV,3,2,11,13,60,237,36,19,62,153,35,16,37,053,39,11,14,166,35*7F
$GPGSV,3,3,11,03,72,087,35,06,46,056,39,27,57,066,46,,,,*4E
$GPGST,025540.00,,064.94,064.84,050.8,008.06,008.06,008.09*42
$GPRMC,025540.00,A,3917.26441,N,08203.79829,W,000.1,142.7,070214,07.2,W,A*0A
$PTNLRTF,V,A,442556,11,3,3917.26441,N,08203.79829,W,00294,+000.032,-000.042,-000.011,0,1*52
$PTNLRBA,1,1*57
$GPZDA,025542.00,07,02,2014,,*60
$GPGGA,025542.00,3917.26442,N,08203.79828,W,1,11,0.90,00294,M,-033,M,,*5E
$GPGLL,3917.26442,N,08203.79828,W,025542.00,A,A*70
$GPVTG,000.0,T,007.2,M,000.0,N,000.0,K,A*26
$GPGSA,A,3,09,08,07,23,13,19,16,11,03,06,27,,1.57,0.90,1.29*08
$GPGSV,3,1,11,09,09,306,35,08,15,304,34,07,45,314,33,23,38,193,33*75
$GPGSV,3,2,11,13,60,237,37,19,62,153,35,16,37,053,38,11,14,166,34*7E
$GPGSV,3,3,11,03,72,087,35,06,46,056,40,27,57,066,45,,,,*43
$GPGST,025542.00,,067.51,067.42,049.9,008.21,008.21,008.24*45
$GPRMC,025542.00,A,3917.26442,N,08203.79828,W,000.0,000.0,070214,07.2,W,A*0B
$PTNLRTF,V,A,442558,11,3,3917.26442,N,08203.79828,W,00294,+000.000,+000.000,+000.000,0,1*59
$PTNLRBA,1,1*57
$GPZDA,025543.00,07,02,2014,,*61
$GPGGA,025543.00,3917.26442,N,08203.79827,W,1,11,0.90,00294,M,-033,M,,*50
$GPGLL,3917.26442,N,08203.79827,W,025543.00,A,A*7E
$GPVTG,000.0,T,007.2,M,000.0,N,000.0,K,A*26
$GPGSA,A,3,09,08,07,23,13,19,16,11,03,06,27,,1.57,0.90,1.29*08
$GPGSV,3,1,11,09,09,306,35,08,15,304,35,07,45,314,33,23,38,193,32*75
$GPGSV,3,2,11,13,60,237,37,19,62,153,36,16,37,053,37,11,14,166,34*72
$GPGSV,3,3,11,03,72,087,35,06,46,056,40,27,57,066,45,,,,*43
$GPGST,025543.00,,064.79,064.70,049.8,008.05,008.05,008.08*40
$GPRMC,025543.00,A,3917.26442,N,08203.79827,W,000.0,000.0,070214,07.2,W,A*05
$PTNLRTF,V,A,442559,11,3,3917.26442,N,08203.79827,W,00294,+000.000,+000.000,+000.000,0,1*57
$PTNLRBA,1,1*57
$GPZDA,025545.00,07,02,2014,,*67
$GPGGA,025545.00,3917.26443,N,08203.79828,W,1,11,0.90,00294,M,-033,M,,*58
$GPGLL,3917.26443,N,08203.79828,W,025545.00,A,A*76
$GPVTG,000.0,T,007.2,M,000.0,N,000.0,K,A*26
$GPGSA,A,3,09,08,07,23,13,19,16,11,03,06,27,,1.57,0.90,1.29*08
$GPGSV,3,1,11,09,09,306,34,08,15,304,35,07,45,314,33,23,38,193,33*75
$GPGSV,3,2,11,13,60,237,37,19,62,153,35,16,37,053,38,11,14,166,34*7E
$GPGSV,3,3,11,03,72,087,35,06,46,056,40,27,57,066,45,,,,*43
$GPGST,025545.00,,061.07,060.98,049.7,007.81,007.81,007.84*4C
$GPRMC,025545.00,A,3917.26443,N,08203.79828,W,000.0,000.0,070214,07.2,W,A*0D
$PTNLRTF,V,A,442561,11,3,3917.26443,N,08203.79828,W,00294,+000.000,+000.000,+000.000,0,1*52
$PTNLRBA,1,1*57
$GPZDA,025546.00,07,02,2014,,*64
$GPGGA,025546.00,3917.26443,N,08203.79829,W,1,11,0.90,00294,M,-033,M,,*5A
$GPGLL,3917.26443,N,08203.79829,W,025546.00,A,A*74
$GPVTG,000.0,T,007.2,M,000.0,N,000.0,K,A*26
$GPGSA,A,3,09,08,07,23,13,19,16,11,03,06,27,,1.57,0.90,1.29*08
$GPGSV,3,1,11,09,09,306,34,08,15,304,34,07,45,314,34,23,38,193,33*73
$GPGSV,3,2,11,13,60,237,37,19,62,153,36,16,37,053,38,11,14,166,34*7D
$GPGSV,3,3,11,03,72,087,35,06,46,056,40,27,57,066,45,,,,*43
$GPGST,025546.00,,059.43,059.34,049.6,007.71,007.71,007.74*46
$GPRMC,025546.00,A,3917.26443,N,08203.79829,W,000.0,000.0,070214,07.2,W,A*0F
$PTNLRTF,V,A,442562,11,3,3917.26443,N,08203.79829,W,00294,+000.000,+000.000,+000.000,0,1*50
$PTNLRBA,1,1*57
$GPZDA,025548.00,07,02,2014,,*6A
$GPGGA,025548.00,3917.26443,N,08203.79831,W,1,11,0.90,00294,M,-033,M,,*5D
$GPGLL,3917.26443,N,08203.79831,W,025548.00,A,A*73
$GPVTG,000.0,T,007.2,M,000.0,N,000.0,K,A*26
$GPGSA,A,3,09,08,07,23,13,19,16,11,03,06,27,,1.57,0.90,1.29*08
$GPGSV,3,1,11,09,09,306,34,08,15,304,36,07,45,314,34,23,38,193,33*71
$GPGSV,3,2,11,13,60,237,37,19,62,153,37,16,37,053,39,11,14,166,34*7D
$GPGSV,3,3,11,03,72,087,34,06,46,056,40,27,57,066,45,,,,*42
$GPGST,025548.00,,058.17,058.09,049.6,007.62,007.62,007.66*44
$GPRMC,025548.00,A,3917.26443,N,08203.79831,W,000.0,000.0,070214,07.2,W,A*08
$PTNLRTF,V,A,442564,11,3,3917.26443,N,08203.79831,W,00294,+000.000,+000.000,+000.000,0,1*5F
$PTNLRBA,1,1*57
$GPZDA,025549.00,07,02,2014,,*6B
$GPGGA,025549.00,3917.26443,N,08203.79830,W,1,11,0.90,00294,M,-033,M,,*5D
$GPGLL,3917.26443,N,08203.79830,W,025549.00,A,A*73
$GPVTG,000.0,T,007.2,M,000.0,N,000.0,K,A*26
$GPGSA,A,3,09,08,07,23,13,19,16,11,03,06,27,,1.57,0.90,1.29*08
$GPGSV,3,1,11,09,09,306,33,08,15,304,38,07,45,314,34,23,38,193,33*78
$GPGSV,3,2,11,13,60,237,36,19,62,153,37,16,37,053,39,11,14,166,34*7C
$GPGSV,3,3,11,03,72,087,34,06,46,056,40,27,57,066,45,,,,*42
$GPGST,025549.00,,057.15,057.07,049.6,007.56,007.56,007.59*45
$GPRMC,025549.00,A,3917.26443,N,08203.79830,W,000.0,000.0,070214,07.2,W,A*08
$PTNLRTF,V,A,442565,11,3,3917.26443,N,08203.79830,W,00294,+000.000,+000.000,+000.000,0,1*5F
$PTNLRBA,1,1*57
$GPZDA,025551.00,07,02,2014,,*62
$GPGGA,025551.00,3917.26443,N,08203.79831,W,1,11,0.90,00294,M,-033,M,,*55
$GPGLL,3917.26443,N,08203.79831,W,025551.00,A,A*7B
$GPVTG,000.0,T,007.2,M,000.0,N,000.0,K,A*26
$GPGSA,A,3,09,08,07,23,13,19,16,11,03,06,27,,1.57,0.90,1.29*08
$GPGSV,3,1,11,09,09,306,35,08,15,304,37,07,45,314,34,23,38,193,34*76
$GPGSV,3,2,11,13,60,237,36,19,62,153,37,16,37,053,39,11,14,166,34*7C
$GPGSV,3,3,11,03,72,087,35,06,46,056,40,27,57,066,45,,,,*43
$GPGST,025551.00,,053.78,053.70,049.6,007.33,007.33,007.36*4E
$GPRMC,025551.00,A,3917.26443,N,08203.79831,W,000.0,000.0,070214,07.2,W,A*00
$PTNLRTF,V,A,442567,11,3,3917.26443,N,08203.79831,W,00294,+000.000,+000.000,+000.000,0,1*5C
$PTNLRBA,1,1*57
$GPZDA,025552.00,07,02,2014,,*61
$GPGGA,025552.00,3917.26442,N,08203.79829,W,1,11,0.90,00294,M,-033,M,,*5E
$GPGLL,3917.26442,N,08203.79829,W,025552.00,A,A*70
$GPVTG,000.0,T,007.2,M,000.0,N,000.0,K,A*26
$GPGSA,A,3,09,08,07,23,13,19,16,11,03,06,27,,1.57,0.90,1.29*08
$GPGSV,3,1,11,09,09,306,35,08,15,304,37,07,45,314,34,23,38,193,34*76
$GPGSV,3,2,11,13,60,237,36,19,62,153,37,16,37,053,39,11,14,166,33*7B
$GPGSV,3,3,11,03,72,087,35,06,46,056,40,27,57,066,45,,,,*43
$GPGST,025552.00,,052.86,052.78,049.6,007.27,007.27,007.30*42
$GPRMC,025552.00,A,3917.26442,N,08203.79829,W,000.0,000.0,070214,07.2,W,A*0B
$PTNLRTF,V,A,442568,11,3,3917.26442,N,08203.79829,W,00294,+000.000,+000.000,+000.000,0,1*5B
$PTNLRBA,1,1*57
$GPZDA,025554.00,07,02,2014,,*67
$GPGGA,025554.00,3917.26441,N,08203.79828,W,1,11,0.90,00294,M,-033,M,,*5A
$GPGLL,3917.26441,N,08203.79828,W,025554.00,A,A*74
$GPVTG,000.0,T,007.2,M,000.0,N,000.0,K,A*26
$GPGSA,A,3,09,08,07,23,13,19,16,11,03,06,27,,1.57,0.90,1.29*08
$GPGSV,3,1,11,09,09,306,35,08,15,304,37,07,45,314,33,23,38,193,34*71
$GPGSV,3,2,11,13,60,237,36,19,62,153,36,16,37,053,39,11,14,166,33*7A
$GPGSV,3,3,11,03,72,087,35,06,46,056,41,27,57,066,45,,,,*42
$GPGST,025554.00,,055.09,055.01,049.5,007.42,007.42,007.45*4C
$GPRMC,025554.00,A,3917.26441,N,08203.79828,W,000.0,000.0,070214,07.2,W,A*0F
$PTNLRTF,V,A,442570,11,3,3917.26441,N,08203.79828,W,00294,+000.000,+000.000,+000.000,0,1*50
$PTNLRBA,1,1*57
$GPZDA,025555.00,07,02,2014,,*66
$GPGGA,025555.00,3917.26440,N,08203.79827,W,1,11,0.90,00294,M,-033,M,,*55
$GPGLL,3917.26440,N,08203.79827,W,025555.00,A,A*7B
$GPVTG,000.0,T,007.2,M,000.0,N,000.0,K,A*26
$GPGSA,A,3,09,08,07,23,13,19,16,11,03,06,27,,1.57,0.90,1.29*08
$GPGSV,3,1,11,09,09,306,34,08,15,304,37,07,45,314,32,23,38,193,34*71
$GPGSV,3,2,11,13,60,237,36,19,62,153,37,16,37,053,38,11,14,166,33*7A
$GPGSV,3,3,11,03,72,087,35,06,46,056,41,27,57,066,45,,,,*42
$GPGST,025555.00,,055.19,055.12,049.5,007.43,007.43,007.46*4D
$GPRMC,025555.00,A,3917.26440,N,08203.79827,W,000.0,000.0,070214,07.2,W,A*00
$PTNLRTF,V,A,442571,11,3,3917.26440,N,08203.79827,W,00294,+000.000,+000.000,+000.000,0,1*5F
$PTNLRBA,1,1*57
$GPZDA,025557.00,07,02,2014,,*64
$GPGGA,025557.00,3917.26436,N,08203.79826,W,1,11,0.90,00294,M,-033,M,,*57
$GPGLL,3917.26436,N,08203.79826,W,025557.00,A,A*79
$GPVTG,000.0,T,007.2,M,000.0,N,000.0,K,A*26
$GPGSA,A,3,09,08,07,23,13,19,16,11,03,06,27,,1.57,0.90,1.29*08
$GPGSV,3,1,11,09,09,306,35,08,15,304,36,07,45,314,33,23,38,193,34*70
$GPGSV,3,2,11,13,60,237,35,19,62,153,36,16,37,053,39,11,14,166,34*7E
$GPGSV,3,3,11,03,72,087,35,06,46,056,41,27,57,066,45,,,,*42
$GPGST,025557.00,,057.94,057.86,049.6,007.61,007.61,007.64*44
$GPRMC,025557.00,A,3917.26436,N,08203.79826,W,000.0,000.0,070214,07.2,W,A*02
$PTNLRTF,V,A,442573,11,3,3917.26436,N,08203.79826,W,00294,+000.000,+000.000,+000.000,0,1*5D
$PTNLRBA,1,1*57
$GPZDA,025558.00,07,02,2014,,*6B
$GPGGA,025558.00,3917.26433,N,08203.79825,W,1,11,0.90,00294,M,-033,M,,*5E
$GPGLL,3917.26433,N,08203.79825,W,025558.00,A,A*70
$GPVTG,000.0,T,007.2,M,000.0,N,000.0,K,A*26
$GPGSA,A,3,09,08,07,23,13,19,16,11,03,06,27,,1.57,0.90,1.29*08
$GPGSV,3,1,11,09,09,306,35,08,15,304,36,07,45,314,33,23,38,193,34*70
$GPGSV,3,2,11,13,60,237,35,19,62,153,36,16,37,053,39,11,14,166,34*7E
$GPGSV,3,3,11,03,72,087,36,06,46,056,41,27,57,066,45,,,,*41
$GPGST,025558.00,,060.13,060.05,049.7,007.75,007.75,007.78*43
$GPRMC,025558.00,A,3917.26433,N,08203.79825,W,000.0,000.0,070214,07.2,W,A*0B
$PTNLRTF,V,A,442574,11,3,3917.26433,N,08203.79825,W,00294,+000.000,+000.000,+000.000,0,1*5C
$PTNLRBA,1,1*57
$GPZDA,025601.00,07,02,2014,,*64
$GPGGA,025601.00,3917.26427,N,08203.79823,W,1,11,0.90,00294,M,-033,M,,*52
$GPGLL,3917.26427,N,08203.79823,W,025601.00,A,A*7C
$GPVTG,000.0,T,007.2,M,000.0,N,000.0,K,A*26
$GPGSA,A,3,09,08,07,23,13,19,16,11,03,06,27,,1.57,0.90,1.29*08
$GPGSV,3,1,11,09,09,306,35,08,15,304,36,07,45,314,34,23,38,193,33*70
$GPGSV,3,2,11,13,60,237,35,19,62,153,36,16,37,053,38,11,14,166,34*7F
$GPGSV,3,3,11,03,72,087,36,06,46,056,40,27,57,066,44,,,,*41
$GPGST,025601.00,,059.80,059.73,049.8,007.73,007.73,007.76*46
$GPRMC,025601.00,A,3917.26427,N,08203.79823,W,000.0,000.0,070214,07.2,W,A*07
$PTNLRTF,V,A,442577,11,3,3917.26427,N,08203.79823,W,00294,+000.000,+000.000,+000.000,0,1*5C
$PTNLRBA,1,1*57
$GPZDA,025602.00,07,02,2014,,*67
$GPGGA,025602.00,3917.26426,N,08203.79823,W,1,11,0.89,00294,M,-033,M,,*58
$GPGLL,3917.26426,N,08203.79823,W,025602.00,A,A*7E
$GPVTG,000.0,T,007.2,M,000.0,N,000.0,K,A*26
$GPGSA,A,3,09,08,07,23,13,19,16,11,03,06,27,,1.57,0.89,1.29*00
$GPGSV,3,1,11,09,09,306,34,08,15,304,36,07,45,314,34,23,38,193,33*71
$GPGSV,3,2,11,13,60,237,35,19,62,153,37,16,37,053,38,11,14,166,34*7E
$GPGSV,3,3,11,03,72,087,36,06,46,056,40,27,57,066,45,,,,*40
$GPGST,025602.00,,059.67,059.59,049.8,007.72,007.72,007.75*47
$GPRMC,025602.00,A,3917.26426,N,08203.79823,W,000.0,000.0,070214,07.2,W,A*05
$PTNLRTF,V,A,442578,11,3,3917.26426,N,08203.79823,W,00294,+000.000,+000.000,+000.000,0,1*52
$PTNLRBA,1,1*57
$GPZDA,025603.00,07,02,2014,,*66
$GPGGA,025603.00,3917.26425,N,08203.79823,W,1,11,0.89,00294,M,-033,M,,*5A
$GPGLL,3917.26425,N,08203.79823,W,025603.00,A,A*7C
$GPVTG,000.0,T,007.2,M,000.0,N,000.0,K,A*26
$GPGSA,A,3,09,08,07,23,13,19,16,11,03,06,27,,1.57,0.89,1.29*00
$GPGSV,3,1,11,09,09,306,34,08,15,304,37,07,45,314,34,23,38,193,33*70
$GPGSV,3,2,11,13,60,237,37,19,62,153,37,16,37,053,38,11,14,166,34*7C
$GPGSV,3,3,11,03,72,087,35,06,46,056,40,27,57,066,44,,,,*42
$GPGST,025603.00,,057.31,057.23,049.8,007.57,007.57,007.60*4C
$GPRMC,025603.00,A,3917.26425,N,08203.79823,W,000.0,000.0,070214,07.2,W,A*07
$PTNLRTF,V,A,442579,11,3,3917.26425,N,08203.79823,W,00294,+000.000,+000.000,+000.000,0,1*50
$PTNLRBA,1,1*57
$GPZDA,025604.00,07,02,2014,,*61
$GPGGA,025604.00,3917.26425,N,08203.79823,W,1,11,0.89,00294,M,-033,M,,*5D
$GPGLL,3917.26425,N,08203.79823,W,025604.00,A,A*7B
$GPVTG,000.0,T,007.2,M,000.0,N,000.0,K,A*26
$GPGSA,A,3,09,08,07,23,13,19,16,11,03,06,27,,1.57,0.89,1.29*00
$GPGSV,3,1,11,09,09,306,33,08,15,304,37,07,46,314,33,23,38,193,34*74
$GPGSV,3,2,11,13,60,237,36,19,62,153,37,16,37,054,37,11,14,165,34*76
$GPGSV,3,3,11,03,72,086,36,06,46,056,40,27,56,066,44,,,,*41
$GPGST,025604.00,,055.51,055.43,049.8,007.45,007.45,007.48*41
$GPRMC,025604.00,A,3917.26425,N,08203.79823,W,000.0,000.0,070214,07.2,W,A*00
$PTNLRTF,V,A,442580,11,3,3917.26425,N,08203.79823,W,00294,+000.000,+000.000,+000.000,0,1*56
$PTNLRBA,1,1*57
$GPZDA,025606.00,07,02,2014,,*63
$GPGGA,025606.00,3917.26422,N,08203.79823,W,1,11,0.89,00294,M,-033,M,,*58
$GPGLL,3917.26422,N,08203.79823,W,025606.00,A,A*7E
$GPVTG,000.0,T,007.2,M,000.0,N,000.0,K,A*26
$GPGSA,A,3,09,08,07,23,13,19,16,11,03,06,27,,1.57,0.89,1.29*00
$GPGSV,3,1,11,09,09,306,33,08,15,304,37,07,46,314,32,23,38,193,34*75
$GPGSV,3,2,11,13,60,237,37,19,62,153,36,16,37,054,37,11,14,165,35*77
$GPGSV,3,3,11,03,72,086,36,06,46,056,41,27,56,066,44,,,,*40
$GPGST,025606.00,,056.20,056.13,049.6,007.49,007.49,007.53*44
$GPRMC,025606.00,A,3917.26422,N,08203.79823,W,000.0,000.0,070214,07.2,W,A*05
$PTNLRTF,V,A,442582,11,3,3917.26422,N,08203.79823,W,00294,+000.000,+000.000,+000.000,0,1*53
$PTNLRBA,1,1*57
$GPZDA,025607.00,07,02,2014,,*62
$GPGGA,025607.00,3917.26422,N,08203.79824,W,1,11,0.89,00294,M,-033,M,,*5E
$GPGLL,3917.26422,N,08203.79824,W,025607.00,A,A*78
$GPVTG,000.0,T,007.2,M,000.0,N,000.0,K,A*26
$GPGSA,A,3,09,08,07,23,13,19,16,11,03,06,27,,1.57,0.89,1.29*00
$GPGSV,3,1,11,09,09,306,33,08,15,304,37,07,46,314,31,23,38,193,34*76
$GPGSV,3,2,11,13,60,237,37,19,62,153,37,16,37,054,38,11,14,165,34*78
$GPGSV,3,3,11,03,72,086,37,06,46,056,40,27,56,066,44,,,,*40
$GPGST,025607.00,,058.06,057.99,049.6,007.62,007.62,007.65*49
$GPRMC,025607.00,A,3917.26422,N,08203.79824,W,000.0,000.0,070214,07.2,W,A*03
$PTNLRTF,V,A,442583,11,3,3917.26422,N,08203.79824,W,00294,+000.000,+000.000,+000.000,0,1*55
$PTNLRBA,1,1*57
$GPZDA,025609.00,07,02,2014,,*6C
$GPGGA,025609.00,3917.26422,N,08203.79824,W,1,11,0.89,00294,M,-033,M,,*50
$GPGLL,3917.26422,N,08203.79824,W,025609.00,A,A*76
$GPVTG,000.0,T,007.2,M,000.0,N,000.0,K,A*26
$GPGSA,A,3,09,08,07,23,13,19,16,11,03,06,27,,1.57,0.89,1.29*00
$GPGSV,3,1,11,09,09,306,34,08,15,304,38,07,46,314,32,23,38,193,35*7C
$GPGSV,3,2,11,13,60,237,37,19,62,153,37,16,37,054,37,11,14,165,35*76
$GPGSV,3,3,11,03,72,086,37,06,46,056,40,27,56,066,44,,,,*40
$GPGST,025609.00,,059.57,059.50,049.4,007.72,007.72,007.75*4A
$GPRMC,025609.00,A,3917.26422,N,08203.79824,W,000.0,000.0,070214,07.2,W,A*0D
$PTNLRTF,V,A,442585,11,3,3917.26422,N,08203.79824,W,00294,+000.000,+000.000,+000.000,0,1*53
$PTNLRBA,1,1*57
$GPZDA,025610.00,07,02,2014,,*64
$GPGGA,025610.00,3917.26421,N,08203.79823,W,1,11,0.89,00294,M,-033,M,,*5C
$GPGLL,3917.26421,N,08203.79823,W,025610.00,A,A*7A
$GPVTG,000.0,T,007.2,M,000.0,N,000.0,K,A*26
$GPGSA,A,3,09,08,07,23,13,19,16,11,03,06,27,,1.57,0.89,1.29*00
$GPGSV,3,1,11,09,09,306,32,08,15,304,37,07,46,314,32,23,38,193,35*75
$GPGSV,3,2,11,13,60,237,37,19,62,153,37,16,37,054,37,11,14,165,34*77
$GPGSV,3,3,11,03,72,086,37,06,46,056,40,27,56,066,44,,,,*40
$GPGST,025610.00,,059.60,059.53,049.3,007.72,007.72,007.75*42
$GPRMC,025610.00,A,3917.26421,N,08203.79823,W,000.0,000.0,070214,07.2,W,A*01
$PTNLRTF,V,A,442586,11,3,3917.26421,N,08203.79823,W,00294,+000.000,+000.000,+000.000,0,1*54
$PTNLRBA,1,1*57
$GPZDA,025612.00,07,02,2014,,*66
$GPGGA,025612.00,3917.26423,N,08203.79820,W,1,11,0.89,00294,M,-033,M,,*5F
$GPGLL,3917.26423,N,08203.79820,W,025612.00,A,A*79
$GPVTG,000.0,T,007.2,M,000.0,N,000.0,K,A*26
$GPGSA,A,3,09,08,07,23,13,19,16,11,03,06,27,,1.57,0.89,1.29*00
$GPGSV,3,1,11,09,09,306,32,08,15,304,37,07,46,314,33,23,38,193,35*74
$GPGSV,3,2,11,13,60,237,36,19,62,153,37,16,37,054,37,11,14,165,34*76
$GPGSV,3,3,11,03,72,086,36,06,46,056,40,27,56,066,44,,,,*41
$GPGST,025612.00,,058.60,058.53,049.2,007.65,007.65,007.68*4D
$GPRMC,025612.00,A,3917.26423,N,08203.79820,W,000.0,000.0,070214,07.2,W,A*02
$PTNLRTF,V,A,442588,11,3,3917.26423,N,08203.79820,W,00294,+000.000,+000.000,+000.000,0,1*5B
$PTNLRBA,1,1*57
$GPZDA,025613.00,07,02,2014,,*67
$GPGGA,025613.00,3917.26424,N,08203.79820,W,1,11,0.89,00294,M,-033,M,,*59
$GPGLL,3917.26424,N,08203.79820,W,025613.00,A,A*7F
$GPVTG,000.0,T,007.2,M,000.0,N,000.0,K,A*26
$GPGSA,A,3,09,08,07,23,13,19,16,11,03,06,27,,1.57,0.89,1.29*00
$GPGSV,3,1,11,09,09,306,33,08,15,304,38,07,46,314,32,23,38,193,36*78
$GPGSV,3,2,11,13,60,237,36,19,62,153,37,16,37,054,36,11,14,165,34*77
$GPGSV,3,3,11,03,72,086,36,06,46,056,40,27,56,066,44,,,,*41
$GPGST,025613.00,,061.40,061.34,049.2,007.83,007.83,007.86*4F
$GPRMC,025613.00,A,3917.26424,N,08203.79820,W,000.0,000.0,070214,07.2,W,A*04
$PTNLRTF,V,A,442589,11,3,3917.26424,N,08203.79820,W,00294,+000.000,+000.000,+000.000,0,1*5D
$PTNLRBA,1,1*57
$GPZDA,025615.00,07,02,2014,,*61
$GPGGA,025615.00,3917.26426,N,08203.79820,W,1,11,0.89,00294,M,-033,M,,*5D
$GPGLL,3917.26426,N,08203.79820,W,025615.00,A,A*7B
$GPVTG,000.0,T,007.2,M,000.0,N,000.0,K,A*26
$GPGSA,A,3,09,08,07,23,13,19,16,11,03,06,27,,1.57,0.89,1.29*00
$GPGSV,3,1,11,09,09,306,32,08,15,304,37,07,46,314,33,23,38,193,35*74
$GPGSV,3,2,11,13,60,237,36,19,62,153,37,16,37,054,36,11,14,165,34*77
$GPGSV,3,3,11,03,72,086,36,06,46,056,41,27,56,066,44,,,,*40
$GPGST,025615.00,,065.28,065.22,049.1,008.08,008.08,008.11*42
$GPRMC,025615.00,A,3917.26426,N,08203.79820,W,000.0,000.0,070214,07.2,W,A*00
$PTNLRTF,V,A,442591,11,3,3917.26426,N,08203.79820,W,00294,+000.000,+000.000,+000.000,0,1*56
$PTNLRBA,1,1*57
$GPZDA,025616.00,07,02,2014,,*62
$GPGGA,025616.00,3917.26427,N,08203.79821,W,1,11,0.89,00294,M,-033,M,,*5E
$GPGLL,3917.26427,N,08203.79821,W,025616.00,A,A*78
$GPVTG,000.0,T,007.2,M,000.0,N,000.0,K,A*26
$GPGSA,A,3,09,08,07,23,13,19,16,11,03,06,27,,1.57,0.89,1.29*00
$GPGSV,3,1,11,09,09,306,32,08,15,304,36,07,46,314,33,23,38,193,35*75
$GPGSV,3,2,11,13,60,237,36,19,62,153,37,16,37,054,37,11,14,165,34*76
$GPGSV,3,3,11,03,72,086,36,06,46,056,41,27,56,066,45,,,,*41
$GPGST,025616.00,,064.92,064.86,049.0,008.06,008.06,008.08*47
$GPRMC,025616.00,A,3917.26427,N,08203.79821,W,000.0,000.0,070214,07.2,W,A*03
$PTNLRTF,V,A,442592,11,3,3917.26427,N,08203.79821,W,00294,+000.000,+000.000,+000.000,0,1*55
$PTNLRBA,1,1*57
$GPZDA,025618.00,07,02,2014,,*6C
$GPGGA,025618.00,3917.26428,N,08203.79825,W,1,11,0.89,00294,M,-033,M,,*5B
$GPGLL,3917.26428,N,08203.79825,W,025618.00,A,A*7D
$GPVTG,000.0,T,007.2,M,000.0,N,000.0,K,A*26
$GPGSA,A,3,09,08,07,23,13,19,16,11,03,06,27,,1.57,0.89,1.29*00
$GPGSV,3,1,11,09,09,306,31,08,15,304,36,07,46,314,33,23,38,193,35*76
$GPGSV,3,2,11,13,60,237,35,19,62,153,36,16,37,054,37,11,14,165,34*74
$GPGSV,3,3,11,03,72,086,36,06,46,056,40,27,56,066,44,,,,*41
$GPGST,025618.00,,069.55,069.49,048.7,008.34,008.34,008.37*4B
$GPRMC,025618.00,A,3917.26428,N,08203.79825,W,000.0,000.0,070214,07.2,W,A*06
$PTNLRTF,V,A,442594,11,3,3917.26428,N,08203.79825,W,00294,+000.000,+000.000,+000.000,0,1*58
$PTNLRBA,1,1*57
$GPZDA,025619.00,07,02,2014,,*6D
$GPGGA,025619.00,3917.26429,N,08203.79825,W,1,11,0.89,00294,M,-033,M,,*5B
$GPGLL,3917.26429,N,08203.79825,W,025619.00,A,A*7D
$GPVTG,000.0,T,007.2,M,000.0,N,000.0,K,A*26
$GPGSA,A,3,09,08,07,23,13,19,16,11,03,06,27,,1.57,0.89,1.29*00
$GPGSV,3,1,11,09,09,306,32,08,15,304,36,07,46,314,34,23,38,193,34*73
$GPGSV,3,2,11,13,60,237,36,19,62,153,36,16,37,054,37,11,14,165,34*77
$GPGSV,3,3,11,03,72,086,37,06,46,056,40,27,56,066,44,,,,*40
$GPGST,025619.00,,069.76,069.69,048.7,008.35,008.35,008.38*46
$GPRMC,025619.00,A,3917.26429,N,08203.79825,W,000.0,000.0,070214,07.2,W,A*06
$PTNLRTF,V,A,442595,11,3,3917.26429,N,08203.79825,W,00294,+000.000,+000.000,+000.000,0,1*58
$PTNLRBA,1,1*57
$GPZDA,025621.00,07,02,2014,,*66
$GPGGA,025621.00,3917.26428,N,08203.79827,W,1,11,0.89,00294,M,-033,M,,*53
$GPGLL,3917.26428,N,08203.79827,W,025621.00,A,A*75
$GPVTG,000.0,T,007.2,M,000.0,N,000.0,K,A*26
$GPGSA,A,3,09,08,07,23,13,19,16,11,03,06,27,,1.57,0.89,1.29*00
$GPGSV,3,1,11,09,09,306,33,08,15,304,36,07,46,314,33,23,38,193,35*74
$GPGSV,3,2,11,13,60,237,37,19,62,153,36,16,37,054,37,11,14,165,34*76
$GPGSV,3,3,11,03,72,086,36,06,46,056,39,27,56,066,44,,,,*4F
$GPGST,025621.00,,068.35,068.28,048.5,008.27,008.26,008.29*4C
$GPRMC,025621.00,A,3917.26428,N,08203.79827,W,000.0,000.0,070214,07.2,W,A*0E
$PTNLRTF,V,A,442597,11,3,3917.26428,N,08203.79827,W,00294,+000.000,+000.000,+000.000,0,1*59
$PTNLRBA,1,1*57
$GPZDA,025622.00,07,02,2014,,*65
$GPGGA,025622.00,3917.26428,N,08203.79827,W,1,11,0.89,00294,M,-033,M,,*50
$GPGLL,3917.26428,N,08203.79827,W,025622.00,A,A*76
$GPVTG,000.0,T,007.2,M,000.0,N,000.0,K,A*26
$GPGSA,A,3,09,08,07,23,13,19,16,11,03,06,27,,1.57,0.89,1.29*00
$GPGSV,3,1,11,09,09,306,33,08,15,304,37,07,46,314,33,23,38,193,34*74
$GPGSV,3,2,11,13,60,237,37,19,62,153,36,16,37,054,37,11,14,165,34*76
$GPGSV,3,3,11,03,72,086,36,06,46,056,40,27,56,066,44,,,,*41
$GPGST,025622.00,,068.69,068.62,048.6,008.29,008.29,008.31*43
$GPRMC,025622.00,A,3917.26428,N,08203.79827,W,000.0,000.0,070214,07.2,W,A*0D
$PTNLRTF,V,A,442598,11,3,3917.26428,N,08203.79827,W,00294,+000.000,+000.000,+000.000,0,1*56
$PTNLRBA,1,1*57
$GPZDA,025624.00,07,02,2014,,*63
$GPGGA,025624.00,3917.26428,N,08203.79824,W,1,11,0.89,00294,M,-033,M,,*55
$GPGLL,3917.26428,N,08203.79824,W,025624.00,A,A*73
$GPVTG,000.0,T,007.2,M,000.0,N,000.0,K,A*26
$GPGSA,A,3,09,08,07,23,13,19,16,11,03,06,27,,1.57,0.89,1.29*00
$GPGSV,3,1,11,09,09,306,34,08,15,304,37,07,46,314,34,23,38,193,34*74
$GPGSV,3,2,11,13,60,237,37,19,62,153,36,16,37,054,37,11,14,165,34*76
$GPGSV,3,3,11,03,72,086,36,06,46,056,40,27,56,066,43,,,,*46
$GPGST,025624.00,,065.17,065.11,048.6,008.07,008.07,008.10*4B
$GPRMC,025624.00,A,3917.26428,N,08203.79824,W,000.0,000.0,070214,07.2,W,A*08
$PTNLRTF,V,A,442600,11,3,3917.26428,N,08203.79824,W,00294,+000.000,+000.000,+000.000,0,1*57
$PTNLRBA,1,1*57
$GPZDA,025625.00,07,02,2014,,*62
$GPGGA,025625.00,3917.26427,N,08203.79823,W,1,11,0.89,00294,M,-033,M,,*5C
$GPGLL,3917.26427,N,08203.79823,W,025625.00,A,A*7A
$GPVTG,000.0,T,007.2,M,000.0,N,000.0,K,A*26
$GPGSA,A,3,09,08,07,23,13,19,16,11,03,06,27,,1.57,0.89,1.29*00
$GPGSV,3,1,11,09,09,306,33,08,15,304,37,07,46,314,33,23,38,193,34*74
$GPGSV,3,2,11,13,60,237,37,19,62,153,36,16,37,054,37,11,14,165,33*71
$GPGSV,3,3,11,03,72,086,36,06,46,056,40,27,56,066,43,,,,*46
$GPGST,025625.00,,065.49,065.42,048.6,008.09,008.09,008.12*45
$GPRMC,025625.00,A,3917.26427,N,08203.79823,W,000.0,000.0,070214,07.2,W,A*01
$PTNLRTF,V,A,442601,11,3,3917.26427,N,08203.79823,W,00294,+000.000,+000.000,+000.000,0,1*5E
$PTNLRBA,1,1*57
$GPZDA,025627.00,07,02,2014,,*60
$GPGGA,025627.00,3917.26426,N,08203.79820,W,1,11,0.89,00294,M,-033,M,,*5C
$GPGLL,3917.26426,N,08203.79820,W,025627.00,A,A*7A
$GPVTG,000.0,T,007.2,M,000.0,N,000.0,K,A*26
$GPGSA,A,3,09,08,07,23,13,19,16,11,03,06,27,,1.57,0.89,1.29*00
$GPGSV,3,1,11,09,09,306,34,08,15,304,37,07,46,314,32,23,38,193,33*75
$GPGSV,3,2,11,13,60,237,38,19,62,153,37,16,37,054,37,11,14,165,33*7F
$GPGSV,3,3,11,03,72,086,36,06,46,056,41,27,56,066,43,,,,*47
$GPGST,025627.00,,067.96,067.90,048.6,008.24,008.24,008.27*4C
$GPRMC,025627.00,A,3917.26426,N,08203.79820,W,000.0,000.0,070214,07.2,W,A*01
$PTNLRTF,V,A,442603,11,3,3917.26426,N,08203.79820,W,00294,+000.000,+000.000,+000.000,0,1*5E
$PTNLRBA,1,1*57
$GPZDA,025628.00,07,02,2014,,*6F
$GPGGA,025628.00,3917.26425,N,08203.79819,W,1,11,0.89,00294,M,-033,M,,*5A
$GPGLL,3917.26425,N,08203.79819,W,025628.00,A,A*7C
$GPVTG,000.0,T,007.2,M,000.0,N,000.0,K,A*26
$GPGSA,A,3,09,08,07,23,13,19,16,11,03,06,27,,1.57,0.89,1.29*00
$GPGSV,3,1,11,09,09,306,34,08,15,304,37,07,46,314,31,23,38,193,33*76
$GPGSV,3,2,11,13,60,237,37,19,62,153,37,16,37,054,38,11,14,165,34*78
$GPGSV,3,3,11,03,72,086,36,06,46,056,40,27,56,066,43,,,,*46
$GPGST,025628.00,,068.79,068.72,048.7,008.29,008.29,008.32*4B
$GPRMC,025628.00,A,3917.26425,N,08203.79819,W,000.0,000.0,070214,07.2,W,A*07
$PTNLRTF,V,A,442604,11,3,3917.26425,N,08203.79819,W,00294,+000.000,+000.000,+000.000,0,1*50
$PTNLRBA,1,1*57
$GPZDA,025630.00,07,02,2014,,*66
$GPGGA,025630.00,3917.26426,N,08203.79819,W,1,11,0.89,00294,M,-033,M,,*50
$GPGLL,3917.26426,N,08203.79819,W,025630.00,A,A*76
$GPVTG,000.0,T,007.2,M,000.0,N,000.0,K,A*26
$GPGSA,A,3,09,08,07,23,13,19,16,11,03,06,27,,1.57,0.89,1.29*00
$GPGSV,3,1,11,09,09,306,33,08,15,304,37,07,46,314,29,23,38,193,33*78
$GPGSV,3,2,11,13,60,237,37,19,62,153,37,16,37,054,37,11,14,165,33*70
$GPGSV,3,3,11,03,72,086,37,06,46,056,40,27,56,066,43,,,,*47
$GPGST,025630.00,,096.49,096.42,048.8,009.82,009.82,009.84*41
$GPRMC,025630.00,A,3917.26426,N,08203.79819,W,000.0,000.0,070214,07.2,W,A*0D
$PTNLRTF,V,A,442606,11,3,3917.26426,N,08203.79819,W,00294,+000.000,+000.000,+000.000,0,1*51
$PTNLRBA,1,1*57
$GPZDA,025631.00,07,02,2014,,*67
$GPGGA,025631.00,3917.26427,N,08203.79820,W,1,11,0.89,00294,M,-033,M,,*5A
$GPGLL,3917.26427,N,08203.79820,W,025631.00,A,A*7C
$GPVTG,000.0,T,007.2,M,000.0,N,000.0,K,A*26
$GPGSA,A,3,09,08,07,23,13,19,16,11,03,06,27,,1.57,0.89,1.29*00
$GPGSV,3,1,11,09,09,306,33,08,15,304,37,07,46,314,29,23,38,193,33*78
$GPGSV,3,2,11,13,60,237,38,19,62,153,37,16,37,054,38,11,14,165,33*70
$GPGSV,3,3,11,03,72,086,36,06,46,056,40,27,56,066,43,,,,*46
$GPGST,025631.00,,098.05,097.99,048.8,009.90,009.90,009.92*46
$GPRMC,025631.00,A,3917.26427,N,08203.79820,W,000.0,000.0,070214,07.2,W,A*07
$PTNLRTF,V,A,442607,11,3,3917.26427,N,08203.79820,W,00294,+000.000,+000.000,+000.000,0,1*5B
$PTNLRBA,1,1*57
$GPZDA,025633.00,07,02,2014,,*65
$GPGGA,025633.00,3917.26428,N,08203.79822,W,1,11,0.89,00294,M,-033,M,,*55
$GPGLL,3917.26428,N,08203.79822,W,025633.00,A,A*73
$GPVTG,000.0,T,007.2,M,000.0,N,000.0,K,A*26
$GPGSA,A,3,09,08,07,23,13,19,16,11,03,06,27,,1.57,0.89,1.29*00
$GPGSV,3,1,11,09,09,306,33,08,15,304,37,07,46,314,30,23,38,193,32*71
$GPGSV,3,2,11,13,60,237,37,19,62,153,38,16,37,054,38,11,14,165,33*70
$GPGSV,3,3,11,03,72,086,37,06,46,056,40,27,56,066,43,,,,*47
$GPGST,025633.00,,099.67,099.61,048.9,009.98,009.98,010.00*4A
$GPRMC,025633.00,A,3917.26428,N,08203.79822,W,000.0,000.0,070214,07.2,W,A*08
$PTNLRTF,V,A,442609,11,3,3917.26428,N,08203.79822,W,00294,+000.000,+000.000,+000.000,0,1*58
$PTNLRBA,1,1*57
$GPZDA,025634.00,07,02,2014,,*62
$GPGGA,025634.00,3917.26429,N,08203.79822,W,1,11,0.89,00294,M,-033,M,,*53
$GPGLL,3917.26429,N,08203.79822,W,025634.00,A,A*75
$GPVTG,000.0,T,007.2,M,000.0,N,000.0,K,A*26
$GPGSA,A,3,09,08,07,23,13,19,16,11,03,06,27,,1.57,0.89,1.29*00
$GPGSV,3,1,11,09,09,306,34,08,15,304,37,07,46,314,31,23,38,193,33*76
$GPGSV,3,2,11,13,60,237,37,19,62,153,37,16,37,054,37,11,14,165,33*70
$GPGSV,3,3,11,03,72,086,37,06,46,056,40,27,56,066,43,,,,*47
$GPGST,025634.00,,099.15,099.09,048.9,009.96,009.96,009.98*4F
$GPRMC,025634.00,A,3917.26429,N,08203.79822,W,000.0,000.0,070214,07.2,W,A*0E
$PTNLRTF,V,A,442610,11,3,3917.26429,N,08203.79822,W,00294,+000.000,+000.000,+000.000,0,1*51
$PTNLRBA,1,1*57
$GPZDA,025636.00,07,02,2014,,*60
$GPGGA,025636.00,3917.26430,N,08203.79823,W,1,11,0.89,00294,M,-033,M,,*58
$GPGLL,3917.26430,N,08203.79823,W,025636.00,A,A*7E
$GPVTG,000.0,T,007.2,M,000.0,N,000.0,K,A*26
$GPGSA,A,3,09,08,07,23,13,19,16,11,03,06,27,,1.57,0.89,1.29*00
$GPGSV,3,1,11,09,09,306,34,08,15,304,38,07,46,314,33,23,38,193,33*7B
$GPGSV,3,2,11,13,60,237,37,19,62,153,37,16,37,054,37,11,14,165,33*70
$GPGSV,3,3,11,03,72,086,37,06,46,056,40,27,56,066,43,,,,*47
$GPGST,025636.00,,090.98,090.92,049.0,009.54,009.54,009.56*40
$GPRMC,025636.00,A,3917.26430,N,08203.79823,W,000.0,000.0,070214,07.2,W,A*05
$PTNLRTF,V,A,442612,11,3,3917.26430,N,08203.79823,W,00294,+000.000,+000.000,+000.000,0,1*5A
$PTNLRBA,1,1*57
$GPZDA,025637.00,07,02,2014,,*61
$GPGGA,025637.00,3917.26430,N,08203.79824,W,1,11,0.89,00294,M,-033,M,,*5E
$GPGLL,3917.26430,N,08203.79824,W,025637.00,A,A*78
$GPVTG,000.0,T,007.2,M,000.0,N,000.0,K,A*26
$GPGSA,A,3,09,08,07,23,13,19,16,11,03,06,27,,1.57,0.89,1.29*00
$GPGSV,3,1,11,09,09,306,34,08,15,304,38,07,46,314,33,23,38,193,34*7C
$GPGSV,3,2,11,13,60,237,37,19,62,153,37,16,37,054,37,11,14,165,33*70
$GPGSV,3,3,11,03,72,086,37,06,46,056,40,27,56,066,43,,,,*47
$GPGST,025637.00,,092.94,092.88,049.1,009.64,009.64,009.66*44
$GPRMC,025637.00,A,3917.26430,N,08203.79824,W,000.0,000.0,070214,07.2,W,A*03
$PTNLRTF,V,A,442613,11,3,3917.26430,N,08203.79824,W,00294,+000.000,+000.000,+000.000,0,1*5C
$PTNLRBA,1,1*57
$GPZDA,025639.00,07,02,2014,,*6F
$GPGGA,025639.00,3917.26429,N,08203.79824,W,1,11,0.89,00294,M,-033,M,,*58
$GPGLL,3917.26429,N,08203.79824,W,025639.00,A,A*7E
$GPVTG,000.0,T,007.2,M,000.0,N,000.0,K,A*26
$GPGSA,A,3,09,08,07,23,13,19,16,11,03,06,27,,1.57,0.89,1.29*00
$GPGSV,3,1,11,09,09,306,33,08,15,304,38,07,46,314,32,23,38,193,33*7D
$GPGSV,3,2,11,13,60,237,37,19,62,153,38,16,37,054,37,11,14,165,33*7F
$GPGSV,3,3,11,03,72,086,37,06,46,056,40,27,56,066,43,,,,*47
$GPGST,025639.00,,085.23,085.17,049.1,009.23,009.23,009.25*47
$GPRMC,025639.00,A,3917.26429,N,08203.79824,W,000.0,000.0,070214,07.2,W,A*05
$PTNLRTF,V,A,442615,11,3,3917.26429,N,08203.79824,W,00294,+000.000,+000.000,+000.000,0,1*52
$PTNLRBA,1,1*57
$GPZDA,025640.00,07,02,2014,,*61
$GPGGA,025640.00,3917.26430,N,08203.79824,W,1,11,0.89,00294,M,-033,M,,*5E
$GPGLL,3917.26430,N,08203.79824,W,025640.00,A,A*78
$GPVTG,000.0,T,007.2,M,000.0,N,000.0,K,A*26
$GPGSA,A,3,09,08,07,23,13,19,16,11,03,06,27,,1.57,0.89,1.29*00
$GPGSV,3,1,11,09,09,306,33,08,15,304,38,07,46,314,32,23,38,193,33*7D
$GPGSV,3,2,11,13,60,237,36,19,62,153,38,16,37,054,38,11,14,165,34*76
$GPGSV,3,3,11,03,72,086,37,06,46,056,40,27,56,066,43,,,,*47
$GPGST,025640.00,,081.89,081.83,049.2,009.05,009.05,009.07*47
$GPRMC,025640.00,A,3917.26430,N,08203.79824,W,000.0,000.0,070214,07.2,W,A*03
$PTNLRTF,V,A,442616,11,3,3917.26430,N,08203.79824,W,00294,+000.000,+000.000,+000.000,0,1*59
$PTNLRBA,1,1*57
$GPZDA,025642.00,07,02,2014,,*63
$GPGGA,025642.00,3917.26428,N,08203.79823,W,1,11,0.89,00294,M,-033,M,,*52
$GPGLL,3917.26428,N,08203.79823,W,025642.00,A,A*74
$GPVTG,000.0,T,007.2,M,000.0,N,000.0,K,A*26
$GPGSA,A,3,09,08,07,23,13,19,16,11,03,06,27,,1.57,0.89,1.30*08
$GPGSV,3,1,11,09,09,306,33,08,15,304,39,07,46,314,34,23,38,193,33*7A
$GPGSV,3,2,11,13,60,237,37,19,62,153,39,16,37,054,39,11,14,165,34*77
$GPGSV,3,3,11,03,72,086,37,06,46,056,39,27,56,066,43,,,,*49
