$GPZDA,033051.00,07,02,2014,,*60
$GPGGA,033051.00,3917.26420,N,08203.79794,W,1,11,0.81,00301,M,-033,M,,*5F
$GPGLL,3917.26420,N,08203.79794,W,033051.00,A,A*7C
$GPVTG,000.0,T,007.2,M,000.0,N,000.0,K,A*26
$GPGSA,A,3,09,08,07,23,13,19,16,11,03,06,27,,1.69,0.81,1.49*03
$GPGSV,3,1,11,09,22,312,36,08,27,311,39,07,61,319,30,23,22,188,34*7C
$GPGSV,3,2,11,13,47,216,36,19,73,112,31,16,25,064,33,11,28,158,29*7A
$GPGSV,3,3,11,03,59,056,39,06,33,048,39,27,44,051,43,,,,*49
$GPGST,033051.00,,081.99,081.91,061.2,009.05,009.05,009.08*41
$GPRMC,033051.00,A,3917.26420,N,08203.79794,W,000.0,000.0,070214,0$GPZDA,033053.00,07,02,2014,,*62
$GPGGA,033053.00,3917.26422,N,08203.79795,W,1,10,0.87,00301,M,-033,M,,*59
$GPGLL,3917.26422,N,08203.79795,W,033053.00,A,A*7D
$GPVTG,000.0,T,007.2,M,000.0,N,000.0,K,A*26
$GPGSA,A,3,09,08,07,23,19,16,11,03,06,27,,,1.77,0.87,1.55*05
$GPGSV,3,1,11,09,22,312,35,08,27,311,39,07,61,319,30,23,22,188,34*7F
$GPGSV,3,2,11,13,47,216,37,19,73,112,32,16,25,064,34,11,28,158,29*7F
$GPGSV,3,3,11,03,59,056,39,06,33,048,39,27,44,051,43,,,,*49
$GPGST,033053.00,,077.97,077.89,061.2,008.83,008.83,008.85*40
$GPRMC,033053.00,A,3917.26422,N,08203.79795,W,000.0,000.0,070214,07.2,W,A*06
$PTNLRTF,V,A,444669,10,3,3917.26422,N,08203.79795,W,00301,+000.000,+000.000,+000.000,0,1*5D
$PTNLRBA,1,1*57
$GPZDA,033054.00,07,02,2014,,*65
$GPGGA,033054.00,3917.26423,N,08203.79796,W,1,11,0.81,00301,M,-033,M,,*5B
$GPGLL,3917.26423,N,08203.79796,W,033054.00,A,A*78
$GPVTG,000.0,T,007.2,M,000.0,N,000.0,K,A*26
$GPGSA,A,3,09,08,07,23,13,19,16,11,03,06,27,,1.69,0.81,1.49*03
$GPGSV,3,1,11,09,22,312,35,08,27,311,40,07,61,319,30,23,22,188,34*71
$GPGSV,3,2,11,13,47,216,37,19,73,112,32,16,25,064,34,11,28,158,28*7E
$GPGSV,3,3,11,03,59,056,39,06,33,048,39,27,44,051,44,,,,*4E
$GPGST,033054.00,,079.86,079.79,061.2,008.94,008.93,008.96*4D
$GPRMC,033054.00,A,3917.26423,N,08203.79796,W,000.0,000.0,070214,07.2,W,A*03
$PTNLRTF,V,A,444670,11,3,3917.26423,N,08203.79796,W,00301,+000.000,+000.000,+000.000,0,1*56
$PTNLRBA,1,1*57
$GPZDA,033056.00,07,02,2014,,*67
$GPGGA,033056.00,3917.26427,N,08203.79799,W,1,11,0.81,00301,M,-033,M,,*52
$GPGLL,3917.26427,N,08203.79799,W,033056.00,A,A*71
$GPVTG,000.0,T,007.2,M,000.0,N,000.0,K,A*26
$GPGSA,A,3,09,08,07,23,13,19,16,11,03,06,27,,1.69,0.81,1.49*03
$GPGSV,3,1,11,09,22,312,35,08,27,311,40,07,61,319,30,23,22,188,34*71
$GPGSV,3,2,11,13,47,216,37,19,73,112,32,16,25,064,34,11,28,158,29*7F
$GPGSV,3,3,11,03,59,056,38,06,33,048,39,27,44,051,43,,,,*48
$GPGST,033056.00,,080.00,079.93,061.2,008.94,008.94,008.97*45
$GPRMC,033056.00,A,3917.26427,N,08203.79799,W,000.0,000.0,070214,07.2,W,A*0A
$PTNLRTF,V,A,444672,11,3,3917.26427,N,08203.79799,W,00301,+000.000,+000.000,+000.000,0,1*5F
$PTNLRBA,1,1*57
$GPZDA,033057.00,07,02,2014,,*66
$GPGGA,033057.00,3917.26429,N,08203.79801,W,1,11,0.81,00301,M,-033,M,,*53
$GPGLL,3917.26429,N,08203.79801,W,033057.00,A,A*70
$GPVTG,000.0,T,007.2,M,000.0,N,000.0,K,A*26
$GPGSA,A,3,09,08,07,23,13,19,16,11,03,06,27,,1.69,0.81,1.49*03
$GPGSV,3,1,11,09,22,312,35,08,27,311,40,07,61,319,30,23,22,188,34*71
$GPGSV,3,2,11,13,47,216,37,19,73,112,32,16,25,064,34,11,28,158,28*7E
$GPGSV,3,3,11,03,59,056,38,06,33,048,39,27,44,051,43,,,,*48
$GPGST,033057.00,,080.24,080.17,061.1,008.96,008.95,008.98*47
$GPRMC,033057.00,A,3917.26429,N,08203.79801,W,000.0,000.0,070214,07.2,W,A*0B
$PTNLRTF,V,A,444673,11,3,3917.26429,N,08203.79801,W,00301,+000.000,+000.000,+000.000,0,1*5E
$PTNLRBA,1,1*57
$GPZDA,033059.00,07,02,2014,,*68
$GPGGA,033059.00,3917.26432,N,08203.79805,W,1,11,0.81,00301,M,-033,M,,*53
$GPGLL,3917.26432,N,08203.79805,W,033059.00,A,A*70
$GPVTG,000.0,T,007.2,M,000.0,N,000.0,K,A*26
$GPGSA,A,3,09,08,07,23,13,19,16,11,03,06,27,,1.69,0.81,1.49*03
$GPGSV,3,1,11,09,22,312,35,08,27,311,40,07,61,319,30,23,22,188,34*71
$GPGSV,3,2,11,13,47,216,36,19,73,112,31,16,25,064,34,11,28,158,27*73
$GPGSV,3,3,11,03,59,056,38,06,33,048,39,27,44,051,43,,,,*48
$GPGST,033059.00,,085.63,085.56,061.0,009.25,009.25,009.27*48
$GPRMC,033059.00,A,3917.26432,N,08203.79805,W,000.0,000.0,070214,07.2,W,A*0B
$PTNLRTF,V,A,444675,11,3,3917.26432,N,08203.79805,W,00301,+000.000,+000.000,+000.000,0,1*56
$PTNLRBA,1,1*57
$GPZDA,033100.00,07,02,2014,,*65
$GPGGA,033100.00,3917.26433,N,08203.79808,W,1,11,0.81,00301,M,-033,M,,*52
$GPGLL,3917.26433,N,08203.79808,W,033100.00,A,A*71
$GPVTG,000.0,T,007.2,M,000.0,N,000.0,K,A*26
$GPGSA,A,3,09,08,07,23,13,19,16,11,03,06,27,,1.69,0.81,1.49*03
$GPGSV,3,1,11,09,22,312,35,08,27,311,40,07,61,319,30,23,22,188,34*71
$GPGSV,3,2,11,13,47,216,36,19,73,112,32,16,25,064,33,11,28,158,28*78
$GPGSV,3,3,11,03,59,056,38,06,33,048,39,27,44,051,43,,,,*48
$GPGST,033100.00,,088.01,087.94,060.9,009.38,009.38,009.40*49
$GPRMC,033100.00,A,3917.26433,N,08203.79808,W,000.0,000.0,070214,07.2,W,A*0A
$PTNLRTF,V,A,444676,11,3,3917.26433,N,08203.79808,W,00301,+000.000,+000.000,+000.000,0,1*59
$PTNLRBA,1,1*57
$GPZDA,033102.00,07,02,2014,,*67
$GPGGA,033102.00,3917.26434,N,08203.79810,W,1,11,0.81,00301,M,-033,M,,*5E
$GPGLL,3917.26434,N,08203.79810,W,033102.00,A,A*7D
$GPVTG,000.0,T,007.2,M,000.0,N,000.0,K,A*26
$GPGSA,A,3,09,08,07,23,13,19,16,11,03,06,27,,1.69,0.81,1.49*03
$GPGSV,3,1,11,09,22,312,35,08,27,311,40,07,61,319,31,23,22,188,34*70
$GPGSV,3,2,11,13,47,216,36,19,73,112,31,16,25,064,32,11,28,158,27*75
$GPGSV,3,3,11,03,59,056,40,06,33,048,39,27,44,051,43,,,,*47
$GPGST,033102.00,,085.46,085.39,060.9,009.24,009.24,009.26*40
$GPRMC,033102.00,A,3917.26434,N,08203.79810,W,000.0,000.0,070214,07.2,W,A*06
$PTNLRTF,V,A,444678,11,3,3917.26434,N,08203.79810,W,00301,+000.000,+000.000,+000.000,0,1*59
$PTNLRBA,1,1*57
$GPZDA,033103.00,07,02,2014,,*66
$GPGGA,033103.00,3917.26435,N,08203.79811,W,1,10,0.87,00301,M,-033,M,,*58
$GPGLL,3917.26435,N,08203.79811,W,033103.00,A,A*7C
$GPVTG,000.0,T,007.2,M,000.0,N,000.0,K,A*26
$GPGSA,A,3,09,08,07,23,19,16,11,03,06,27,,,1.77,0.87,1.55*05
$GPGSV,3,1,11,09,22,312,35,08,27,311,40,07,61,319,29,23,22,188,34*79
$GPGSV,3,2,11,13,47,216,36,19,73,112,31,16,25,064,32,11,28,158,28*7A
$GPGSV,3,3,11,03,59,056,39,06,33,048,39,27,44,051,43,,,,*49
$GPGST,033103.00,,085.43,085.37,061.0,009.24,009.24,009.26*42
$GPRMC,033103.00,A,3917.26435,N,08203.79811,W,000.0,000.0,070214,07.2,W,A*07
$PTNLRTF,V,A,444679,10,3,3917.26435,N,08203.79811,W,00301,+000.000,+000.000,+000.000,0,1*59
$PTNLRBA,1,1*57
$GPZDA,033105.00,07,02,2014,,*60
$GPGGA,033105.00,3917.26434,N,08203.79814,W,1,11,0.81,00301,M,-033,M,,*5D
$GPGLL,3917.26434,N,08203.79814,W,033105.00,A,A*7E
$GPVTG,000.0,T,007.2,M,000.0,N,000.0,K,A*26
$GPGSA,A,3,09,08,07,23,13,19,16,11,03,06,27,,1.69,0.81,1.49*03
$GPGSV,3,1,11,09,22,312,36,08,27,311,41,07,61,319,30,23,22,188,34*73
$GPGSV,3,2,11,13,47,216,35,19,73,112,31,16,25,064,32,11,28,158,29*78
$GPGSV,3,3,11,03,59,056,38,06,33,048,40,27,44,051,44,,,,*41
$GPGST,033105.00,,092.02,091.95,061.1,009.59,009.59,009.61*48
$GPRMC,033105.00,A,3917.26434,N,08203.79814,W,000.0,000.0,070214,07.2,W,A*05
$PTNLRTF,V,A,444681,11,3,3917.26434,N,08203.79814,W,00301,+000.000,+000.000,+000.000,0,1*5B
$PTNLRBA,1,1*57
$GPZDA,033106.00,07,02,2014,,*63
$GPGGA,033106.00,3917.26435,N,08203.79815,W,1,11,0.81,00301,M,-033,M,,*5E
$GPGLL,3917.26435,N,08203.79815,W,033106.00,A,A*7D
$GPVTG,000.0,T,007.2,M,000.0,N,000.0,K,A*26
$GPGSA,A,3,09,08,07,23,13,19,16,11,03,06,27,,1.69,0.81,1.49*03
$GPGSV,3,1,11,09,22,312,35,08,27,311,40,07,61,319,30,23,22,188,34*71
$GPGSV,3,2,11,13,47,216,35,19,73,112,31,16,25,064,31,11,28,158,30*73
$GPGSV,3,3,11,03,59,056,38,06,33,048,39,27,44,051,43,,,,*48
$GPGST,033106.00,,093.72,093.66,061.1,009.68,009.68,009.70*43
$GPRMC,033106.00,A,3917.26435,N,08203.79815,W,000.0,000.0,070214,07.2,W,A*06
$PTNLRTF,V,A,444682,11,3,3917.26435,N,08203.79815,W,00301,+000.000,+000.000,+000.000,0,1*58
$PTNLRBA,1,1*57
$GPZDA,033108.00,07,02,2014,,*6D
$GPGGA,033108.00,3917.26436,N,08203.79819,W,1,11,0.81,00301,M,-033,M,,*5F
$GPGLL,3917.26436,N,08203.79819,W,033108.00,A,A*7C
$GPVTG,000.0,T,007.2,M,000.0,N,000.0,K,A*26
$GPGSA,A,3,09,08,07,23,13,19,16,11,03,06,27,,1.69,0.81,1.49*03
$GPGSV,3,1,11,09,22,312,35,08,27,311,40,07,61,319,32,23,22,188,34*73
$GPGSV,3,2,11,13,47,216,35,19,73,112,31,16,25,064,31,11,28,158,30*73
$GPGSV,3,3,11,03,59,056,38,06,33,048,39,27,44,051,44,,,,*4F
$GPGST,033108.00,,091.85,091.78,061.1,009.58,009.58,009.60*4B
$GPRMC,033108.00,A,3917.26436,N,08203.79819,W,000.0,000.0,070214,07.2,W,A*07
$PTNLRTF,V,A,444684,11,3,3917.26436,N,08203.79819,W,00301,+000.000,+000.000,+000.000,0,1*51
$PTNLRBA,1,1*57
$GPZDA,033109.00,07,02,2014,,*6C
$GPGGA,033109.00,3917.26435,N,08203.79820,W,1,11,0.81,00301,M,-033,M,,*57
$GPGLL,3917.26435,N,08203.79820,W,033109.00,A,A*74
$GPVTG,000.0,T,007.2,M,000.0,N,000.0,K,A*26
$GPGSA,A,3,09,08,07,23,13,19,16,11,03,06,27,,1.69,0.81,1.49*03
$GPGSV,3,1,11,09,22,312,35,08,27,311,39,07,61,319,31,23,22,188,34*7E
$GPGSV,3,2,11,13,47,216,35,19,73,112,31,16,25,064,31,11,28,158,30*73
$GPGSV,3,3,11,03,59,056,39,06,33,048,39,27,44,051,44,,,,*4E
$GPGST,033109.00,,089.70,089.63,061.1,009.47,009.47,009.49*41
$GPRMC,033109.00,A,3917.26435,N,08203.79820,W,000.0,000.0,070214,07.2,W,A*0F
$PTNLRTF,V,A,444685,11,3,3917.26435,N,08203.79820,W,00301,+000.000,+000.000,+000.000,0,1*59
$PTNLRBA,1,1*57
$GPZDA,033111.00,07,02,2014,,*65
$GPGGA,033111.00,3917.26436,N,08203.79821,W,1,11,0.81,00301,M,-033,M,,*5C
$GPGLL,3917.26436,N,08203.79821,W,033111.00,A,A*7F
$GPVTG,000.0,T,007.2,M,000.0,N,000.0,K,A*26
$GPGSA,A,3,09,08,07,23,13,19,16,11,03,06,27,,1.69,0.81,1.49*03
$GPGSV,3,1,11,09,22,312,36,08,27,311,40,07,61,319,32,23,22,188,34*70
$GPGSV,3,2,11,13,47,216,36,19,73,112,31,16,25,064,30,11,28,158,31*70
$GPGSV,3,3,11,03,59,056,39,06,33,048,38,27,44,051,43,,,,*48
$GPGST,033111.00,,086.06,086.00,061.1,009.28,009.27,009.30*4D
$GPRMC,033111.00,A,3917.26436,N,08203.79821,W,000.0,000.0,070214,07.2,W,A*04
$PTNLRTF,V,A,444687,11,3,3917.26436,N,08203.79821,W,00301,+000.000,+000.000,+000.000,0,1*59
$PTNLRBA,1,1*57
$GPZDA,033112.00,07,02,2014,,*66
$GPGGA,033112.00,3917.26437,N,08203.79821,W,1,11,0.81,00301,M,-033,M,,*5E
$GPGLL,3917.26437,N,08203.79821,W,033112.00,A,A*7D
$GPVTG,000.0,T,007.2,M,000.0,N,000.0,K,A*26
$GPGSA,A,3,09,08,07,23,13,19,16,11,03,06,27,,1.69,0.81,1.49*03
$GPGSV,3,1,11,09,22,312,35,08,27,311,39,07,61,319,33,23,22,188,34*7C
$GPGSV,3,2,11,13,47,216,36,19,73,112,32,16,25,064,31,11,28,158,32*71
$GPGSV,3,3,11,03,59,056,39,06,33,048,38,27,44,051,43,,,,*48
$GPGST,033112.00,,087.05,086.99,061.1,009.33,009.33,009.35*46
$GPRMC,033112.00,A,3917.26437,N,08203.79821,W,000.0,000.0,070214,07.2,W,A*06
$PTNLRTF,V,A,444688,11,3,3917.26437,N,08203.79821,W,00301,+000.000,+000.000,+000.000,0,1*57
$PTNLRBA,1,1*57
$GPZDA,033114.00,07,02,2014,,*60
$GPGGA,033114.00,3917.26438,N,08203.79820,W,1,11,0.81,00302,M,-033,M,,*55
$GPGLL,3917.26438,N,08203.79820,W,033114.00,A,A*75
$GPVTG,000.0,T,007.2,M,000.0,N,000.0,K,A*26
$GPGSA,A,3,09,08,07,23,13,19,16,11,03,06,27,,1.69,0.81,1.49*03
$GPGSV,3,1,11,09,22,312,37,08,27,311,40,07,61,319,32,23,22,188,34*71
$GPGSV,3,2,11,13,47,216,36,19,73,112,31,16,25,064,28,11,28,158,31*79
$GPGSV,3,3,11,03,59,056,40,06,33,048,37,27,44,051,43,,,,*49
$GPGST,033114.00,,088.44,088.38,061.0,009.40,009.40,009.42*4E
$GPRMC,033114.00,A,3917.26438,N,08203.79820,W,000.0,000.0,070214,07.2,W,A*0E
$PTNLRTF,V,A,444690,11,3,3917.26438,N,08203.79820,W,00302,+000.000,+000.000,+000.000,0,1*53
$PTNLRBA,1,1*57
$GPZDA,033115.00,07,02,2014,,*61
$GPGGA,033115.00,3917.26437,N,08203.79820,W,1,11,0.81,00302,M,-033,M,,*5B
$GPGLL,3917.26437,N,08203.79820,W,033115.00,A,A*7B
$GPVTG,000.0,T,007.2,M,000.0,N,000.0,K,A*26
$GPGSA,A,3,09,08,07,23,13,19,16,11,03,06,27,,1.69,0.81,1.49*03
$GPGSV,3,1,11,09,22,312,35,08,27,311,40,07,61,319,32,23,22,188,34*73
$GPGSV,3,2,11,13,47,216,36,19,73,112,31,16,25,064,29,11,28,158,32*7B
$GPGSV,3,3,11,03,59,056,39,06,33,048,37,27,44,051,43,,,,*47
$GPGST,033115.00,,091.30,091.24,061.0,009.55,009.55,009.57*45
$GPRMC,033115.00,A,3917.26437,N,08203.79820,W,000.0,000.0,070214,07.2,W,A*00
$PTNLRTF,V,A,444691,11,3,3917.26437,N,08203.79820,W,00302,+000.000,+000.000,+000.000,0,1*5D
$PTNLRBA,1,1*57
$GPZDA,033117.00,07,02,2014,,*63
$GPGGA,033117.00,3917.26439,N,08203.79822,W,1,11,0.81,00302,M,-033,M,,*55
$GPGLL,3917.26439,N,08203.79822,W,033117.00,A,A*75
$GPVTG,000.0,T,007.2,M,000.0,N,000.0,K,A*26
$GPGSA,A,3,09,08,07,23,13,19,16,11,03,06,27,,1.69,0.81,1.49*03
$GPGSV,3,1,11,09,22,312,37,08,27,311,41,07,61,319,31,23,22,188,34*73
$GPGSV,3,2,11,13,47,216,36,19,73,112,31,16,25,064,28,11,28,158,32*7A
$GPGSV,3,3,11,03,59,056,39,06,33,048,37,27,44,051,44,,,,*40
$GPGST,033117.00,,095.72,095.66,061.1,009.78,009.78,009.80*4C
$GPRMC,033117.00,A,3917.26439,N,08203.79822,W,000.0,000.0,070214,07.2,W,A*0E
$PTNLRTF,V,A,444693,11,3,3917.26439,N,08203.79822,W,00302,+000.000,+000.000,+000.000,0,1*53
$PTNLRBA,1,1*57
$GPZDA,033118.00,07,02,2014,,*6C
$GPGGA,033118.00,3917.26439,N,08203.79822,W,1,11,0.81,00302,M,-033,M,,*5A
$GPGLL,3917.26439,N,08203.79822,W,033118.00,A,A*7A
$GPVTG,000.0,T,007.2,M,000.0,N,000.0,K,A*26
$GPGSA,A,3,09,08,07,23,13,19,16,11,03,06,27,,1.69,0.81,1.49*03
$GPGSV,3,1,11,09,22,312,36,08,27,311,41,07,61,319,32,23,22,188,34*71
$GPGSV,3,2,11,13,47,216,36,19,73,112,31,16,25,064,29,11,28,158,32*7B
$GPGSV,3,3,11,03,59,056,39,06,33,048,37,27,44,051,44,,,,*40
$GPGST,033118.00,,093.04,092.98,061.1,009.64,009.64,009.67*4B
$GPRMC,033118.00,A,3917.26439,N,08203.79822,W,000.0,000.0,070214,07.2,W,A*01
$PTNLRTF,V,A,444694,11,3,3917.26439,N,08203.79822,W,00302,+000.000,+000.000,+000.000,0,1*54
$PTNLRBA,1,1*57
$GPZDA,033120.00,07,02,2014,,*67
$GPGGA,033120.00,3917.26439,N,08203.79824,W,1,11,0.81,00302,M,-033,M,,*57
$GPGLL,3917.26439,N,08203.79824,W,033120.00,A,A*77
$GPVTG,000.0,T,007.2,M,000.0,N,000.0,K,A*26
$GPGSA,A,3,09,08,07,23,13,19,16,11,03,06,27,,1.69,0.81,1.49*03
$GPGSV,3,1,11,09,22,312,35,08,27,311,41,07,61,319,31,23,22,188,34*71
$GPGSV,3,2,11,13,47,216,36,19,73,112,30,16,25,064,30,11,28,158,31*71
$GPGSV,3,3,11,03,59,056,40,06,33,048,38,27,44,051,44,,,,*41
$GPGST,033120.00,,096.57,096.51,061.0,009.83,009.82,009.85*4E
$GPRMC,033120.00,A,3917.26439,N,08203.79824,W,000.0,000.0,070214,07.2,W,A*0C
$PTNLRTF,V,A,444696,11,3,3917.26439,N,08203.79824,W,00302,+000.000,+000.000,+000.000,0,1*50
$PTNLRBA,1,1*57
$GPZDA,033121.00,07,02,2014,,*66
$GPGGA,033121.00,3917.26439,N,08203.79826,W,1,11,0.81,00302,M,-033,M,,*54
$GPGLL,3917.26439,N,08203.79826,W,033121.00,A,A*74
$GPVTG,000.0,T,007.2,M,000.0,N,000.0,K,A*26
$GPGSA,A,3,09,08,07,23,13,19,16,11,03,06,27,,1.69,0.81,1.49*03
$GPGSV,3,1,11,09,22,312,36,08,27,311,41,07,61,319,30,23,22,188,34*73
$GPGSV,3,2,11,13,47,216,37,19,73,112,30,16,25,064,28,11,28,158,31*79
$GPGSV,3,3,11,03,59,056,39,06,33,048,38,27,44,051,44,,,,*4F
$GPGST,033121.00,,102.46,102.40,061.0,010.12,010.12,010.14*4E
$GPRMC,033121.00,A,3917.26439,N,08203.79826,W,000.0,000.0,070214,07.2,W,A*0F
$PTNLRTF,V,A,444697,11,3,3917.26439,N,08203.79826,W,00302,+000.000,+000.000,+000.000,0,1*53
$PTNLRBA,1,1*57
$GPZDA,033123.00,07,02,2014,,*64
$GPGGA,033123.00,3917.26438,N,08203.79828,W,1,11,0.81,00302,M,-033,M,,*59
$GPGLL,3917.26438,N,08203.79828,W,033123.00,A,A*79
$GPVTG,000.0,T,007.2,M,000.0,N,000.0,K,A*26
$GPGSA,A,3,09,08,07,23,13,19,16,11,03,06,27,,1.69,0.81,1.49*03
$GPGSV,3,1,11,09,22,312,35,08,27,311,41,07,61,319,29,23,22,188,34*78
$GPGSV,3,2,11,13,47,216,36,19,73,112,29,16,25,064,29,11,28,158,31*71
$GPGSV,3,3,11,03,59,056,39,06,33,048,38,27,44,051,44,,,,*4F
$GPGST,033123.00,,121.07,121.01,061.0,011.00,011.00,011.02*4A
$GPRMC,033123.00,A,3917.26438,N,08203.79828,W,000.0,000.0,070214,07.2,W,A*02
$PTNLRTF,V,A,444699,11,3,3917.26438,N,08203.79828,W,00302,+000.000,+000.000,+000.000,0,1*52
$PTNLRBA,1,1*57
$GPZDA,033124.00,07,02,2014,,*63
$GPGGA,033124.00,3917.26437,N,08203.79829,W,1,11,0.81,00302,M,-033,M,,*50
$GPGLL,3917.26437,N,08203.79829,W,033124.00,A,A*70
$GPVTG,000.0,T,007.2,M,000.0,N,000.0,K,A*26
$GPGSA,A,3,09,08,07,23,13,19,16,11,03,06,27,,1.69,0.81,1.49*03
$GPGSV,3,1,11,09,22,312,35,08,27,311,41,07,61,319,28,23,22,188,34*79
$GPGSV,3,2,11,13,47,216,36,19,73,112,30,16,25,064,30,11,28,158,31*71
$GPGSV,3,3,11,03,59,056,39,06,33,048,38,27,44,051,44,,,,*4F
$GPGST,033124.00,,135.86,135.80,061.0,011.66,011.65,011.67*4D
$GPRMC,033124.00,A,3917.26437,N,08203.79829,W,000.0,000.0,070214,07.2,W,A*0B
$PTNLRTF,V,A,444700,11,3,3917.26437,N,08203.79829,W,00302,+000.000,+000.000,+000.000,0,1*5D
$PTNLRBA,1,1*57
$GPZDA,033126.00,07,02,2014,,*61
$GPGGA,033126.00,3917.26432,N,08203.79828,W,1,11,0.81,00302,M,-033,M,,*56
$GPGLL,3917.26432,N,08203.79828,W,033126.00,A,A*76
$GPVTG,000.0,T,007.2,M,000.0,N,000.0,K,A*26
$GPGSA,A,3,09,08,07,23,13,19,16,11,03,06,27,,1.69,0.81,1.49*03
$GPGSV,3,1,11,09,23,312,34,08,28,311,41,07,61,319,29,23,22,188,34*77
$GPGSV,3,2,11,13,46,215,36,19,73,111,31,16,25,065,29,11,28,158,31*78
$GPGSV,3,3,11,03,59,056,39,06,33,048,38,27,44,051,44,,,,*4F
$GPGST,033126.00,,159.59,159.53,060.9,012.63,012.63,012.65*49
$GPRMC,033126.00,A,3917.26432,N,08203.79828,W,000.0,000.0,070214,07.2,W,A*0D
$PTNLRTF,V,A,444702,11,3,3917.26432,N,08203.79828,W,00302,+000.000,+000.000,+000.000,0,1*5B
$PTNLRBA,1,1*57
$GPZDA,033127.00,07,02,2014,,*60
$GPGGA,033127.00,3917.26430,N,08203.79829,W,1,11,0.81,00302,M,-033,M,,*54
$GPGLL,3917.26430,N,08203.79829,W,033127.00,A,A*74
$GPVTG,000.0,T,007.2,M,000.0,N,000.0,K,A*26
$GPGSA,A,3,09,08,07,23,13,19,16,11,03,06,27,,1.69,0.81,1.49*03
$GPGSV,3,1,11,09,23,312,35,08,28,311,41,07,61,319,29,23,22,188,34*76
$GPGSV,3,2,11,13,46,215,36,19,73,111,31,16,25,065,29,11,28,158,31*78
$GPGSV,3,3,11,03,59,056,39,06,33,048,39,27,44,051,44,,,,*4E
$GPGST,033127.00,,166.42,166.37,060.9,012.90,012.90,012.92*48
$GPRMC,033127.00,A,3917.26430,N,08203.79829,W,000.0,000.0,070214,07.2,W,A*0F
$PTNLRTF,V,A,444703,11,3,3917.26430,N,08203.79829,W,00302,+000.000,+000.000,+000.000,0,1*59
$PTNLRBA,1,1*57
$GPZDA,033129.00,07,02,2014,,*6E
$GPGGA,033129.00,3917.26427,N,08203.79830,W,1,11,0.81,00302,M,-033,M,,*54
$GPGLL,3917.26427,N,08203.79830,W,033129.00,A,A*74
$GPVTG,000.0,T,007.2,M,000.0,N,000.0,K,A*26
$GPGSA,A,3,09,08,07,23,13,19,16,11,03,06,27,,1.69,0.81,1.49*03
$GPGSV,3,1,11,09,23,312,35,08,28,311,41,07,61,319,30,23,22,188,34*7E
$GPGSV,3,2,11,13,46,215,36,19,73,111,30,16,25,065,29,11,28,158,31*79
$GPGSV,3,3,11,03,59,056,39,06,33,048,40,27,44,051,44,,,,*40
$GPGST,033129.00,,174.94,174.88,061.0,013.23,013.22,013.24*4C
$GPRMC,033129.00,A,3917.26427,N,08203.79830,W,000.0,000.0,070214,07.2,W,A*0F
$PTNLRTF,V,A,444705,11,3,3917.26427,N,08203.79830,W,00302,+000.000,+000.000,+000.000,0,1*51
$PTNLRBA,1,1*57
$GPZDA,033130.00,07,02,2014,,*66
$GPGGA,033130.00,3917.26424,N,08203.79829,W,1,11,0.81,00302,M,-033,M,,*57
$GPGLL,3917.26424,N,08203.79829,W,033130.00,A,A*77
$GPVTG,000.0,T,007.2,M,000.0,N,000.0,K,A*26
$GPGSA,A,3,09,08,07,23,13,19,16,11,03,06,27,,1.69,0.81,1.49*03
$GPGSV,3,1,11,09,23,312,34,08,28,311,41,07,61,319,31,23,22,188,34*7E
$GPGSV,3,2,11,13,46,215,37,19,73,111,30,16,25,065,27,11,28,158,32*75
$GPGSV,3,3,11,03,59,056,39,06,33,048,39,27,44,051,45,,,,*4F
$GPGST,033130.00,,186.90,186.84,061.0,013.67,013.67,013.68*45
$GPRMC,033130.00,A,3917.26424,N,08203.79829,W,000.0,000.0,070214,07.2,W,A*0C
$PTNLRTF,V,A,444706,11,3,3917.26424,N,08203.79829,W,00302,+000.000,+000.000,+000.000,0,1*59
$PTNLRBA,1,1*57
$GPZDA,033132.00,07,02,2014,,*64
$GPGGA,033132.00,3917.26418,N,08203.79828,W,1,11,0.81,00302,M,-033,M,,*5B
$GPGLL,3917.26418,N,08203.79828,W,033132.00,A,A*7B
$GPVTG,000.0,T,007.2,M,000.0,N,000.0,K,A*26
$GPGSA,A,3,09,08,07,23,13,19,16,11,03,06,27,,1.69,0.81,1.49*03
$GPGSV,3,1,11,09,23,312,35,08,28,311,40,07,61,319,31,23,22,188,34*7E
$GPGSV,3,2,11,13,46,215,36,19,73,111,31,16,25,065,24,11,28,158,32*76
$GPGSV,3,3,11,03,59,056,40,06,33,048,39,27,44,051,44,,,,*40
$GPGST,033132.00,,204.35,204.30,061.0,014.29,014.29,014.31*4C
$GPRMC,033132.00,A,3917.26418,N,08203.79828,W,000.0,000.0,070214,07.2,W,A*00
$PTNLRTF,V,A,444708,11,3,3917.26418,N,08203.79828,W,00302,+000.000,+000.000,+000.000,0,1*59
$PTNLRBA,1,1*57
$GPZDA,033133.00,07,02,2014,,*65
$GPGGA,033133.00,3917.26416,N,08203.79828,W,1,11,0.81,00302,M,-033,M,,*54
$GPGLL,3917.26416,N,08203.79828,W,033133.00,A,A*74
$GPVTG,000.0,T,007.2,M,000.0,N,000.0,K,A*26
$GPGSA,A,3,09,08,07,23,13,19,16,11,03,06,27,,1.69,0.81,1.49*03
$GPGSV,3,1,11,09,23,312,34,08,28,311,40,07,61,319,31,23,22,188,34*7F
$GPGSV,3,2,11,13,46,215,36,19,73,111,31,16,25,065,25,11,28,158,32*77
$GPGSV,3,3,11,03,59,056,40,06,33,048,39,27,44,051,44,,,,*40
$GPGST,033133.00,,209.82,209.76,061.0,014.48,014.48,014.50*44
$GPRMC,033133.00,A,3917.26416,N,08203.79828,W,000.0,000.0,070214,07.2,W,A*0F
$PTNLRTF,V,A,444709,11,3,3917.26416,N,08203.79828,W,00302,+000.000,+000.000,+000.000,0,1*56
$PTNLRBA,1,1*57
$GPZDA,033135.00,07,02,2014,,*63
$GPGGA,033135.00,3917.26413,N,08203.79828,W,1,11,0.81,00302,M,-033,M,,*57
$GPGLL,3917.26413,N,08203.79828,W,033135.00,A,A*77
$GPVTG,000.0,T,007.2,M,000.0,N,000.0,K,A*26
$GPGSA,A,3,09,08,07,23,13,19,16,11,03,06,27,,1.69,0.81,1.49*03
$GPGSV,3,1,11,09,23,312,34,08,28,311,41,07,61,319,32,23,22,188,34*7D
$GPGSV,3,2,11,13,46,215,37,19,73,111,31,16,25,065,26,11,28,158,33*74
$GPGSV,3,3,11,03,59,056,40,06,33,048,40,27,44,051,44,,,,*4E
$GPGST,033135.00,,232.68,232.63,060.8,015.25,015.25,015.27*4A
$GPRMC,033135.00,A,3917.26413,N,08203.79828,W,000.0,000.0,070214,07.2,W,A*0C
$PTNLRTF,V,A,444711,11,3,3917.26413,N,08203.79828,W,00302,+000.000,+000.000,+000.000,0,1*5A
$PTNLRBA,1,1*57
$GPZDA,033136.00,07,02,2014,,*60
$GPGGA,033136.00,3917.26410,N,08203.79827,W,1,11,0.81,00302,M,-033,M,,*58
$GPGLL,3917.26410,N,08203.79827,W,033136.00,A,A*78
$GPVTG,000.0,T,007.2,M,000.0,N,000.0,K,A*26
$GPGSA,A,3,09,08,07,23,13,19,16,11,03,06,27,,1.69,0.81,1.49*03
$GPGSV,3,1,11,09,23,312,34,08,28,311,40,07,61,319,33,23,22,188,34*7D
$GPGSV,3,2,11,13,46,215,37,19,73,111,31,16,25,065,27,11,28,158,34*72
$GPGSV,3,3,11,03,59,056,40,06,33,048,40,27,44,051,44,,,,*4E
$GPGST,033136.00,,229.51,229.45,060.8,015.15,015.15,015.16*45
$GPRMC,033136.00,A,3917.26410,N,08203.79827,W,000.0,000.0,070214,07.2,W,A*03
$PTNLRTF,V,A,444712,11,3,3917.26410,N,08203.79827,W,00302,+000.000,+000.000,+000.000,0,1*55
$PTNLRBA,1,1*57
$GPZDA,033138.00,07,02,2014,,*6E
$GPGGA,033138.00,3917.26407,N,08203.79824,W,1,11,0.81,00301,M,-033,M,,*50
$GPGLL,3917.26407,N,08203.79824,W,033138.00,A,A*73
$GPVTG,000.0,T,007.2,M,000.0,N,000.0,K,A*26
$GPGSA,A,3,09,08,07,23,13,19,16,11,03,06,27,,1.69,0.81,1.49*03
$GPGSV,3,1,11,09,23,312,34,08,28,311,41,07,61,319,33,23,22,188,34*7C
$GPGSV,3,2,11,13,46,215,38,19,73,111,30,16,25,065,30,11,28,158,34*7A
$GPGSV,3,3,11,03,59,056,40,06,33,048,39,27,44,051,44,,,,*40
$GPGST,033138.00,,226.04,225.98,060.5,015.03,015.03,015.05*47
$GPRMC,033138.00,A,3917.26407,N,08203.79824,W,000.0,000.0,070214,07.2,W,A*08
$PTNLRTF,V,A,444714,11,3,3917.26407,N,08203.79824,W,00301,+000.000,+000.000,+000.000,0,1*55
$PTNLRBA,1,1*57
$GPZDA,033139.00,07,02,2014,,*6F
$GPGGA,033139.00,3917.26405,N,08203.79823,W,1,11,0.81,00301,M,-033,M,,*54
$GPGLL,3917.26405,N,08203.79823,W,033139.00,A,A*77
$GPVTG,000.0,T,007.2,M,000.0,N,000.0,K,A*26
$GPGSA,A,3,09,08,07,23,13,19,16,11,03,06,27,,1.69,0.81,1.49*03
$GPGSV,3,1,11,09,23,312,34,08,28,311,40,07,61,319,33,23,22,188,34*7D
$GPGSV,3,2,11,13,46,215,38,19,73,111,29,16,25,065,29,11,28,158,34*7A
$GPGSV,3,3,11,03,59,056,40,06,33,048,40,27,44,051,44,,,,*4E
$GPGST,033139.00,,216.36,216.31,060.4,014.71,014.71,014.72*47
$GPRMC,033139.00,A,3917.26405,N,08203.79823,W,000.0,000.0,070214,07.2,W,A*0C
$PTNLRTF,V,A,444715,11,3,3917.26405,N,08203.79823,W,00301,+000.000,+000.000,+000.000,0,1*51
$PTNLRBA,1,1*57
$GPZDA,033141.00,07,02,2014,,*60
$GPGGA,033141.00,3917.26403,N,08203.79820,W,1,11,0.81,00301,M,-033,M,,*5E
$GPGLL,3917.26403,N,08203.79820,W,033141.00,A,A*7D
$GPVTG,000.0,T,007.2,M,000.0,N,000.0,K,A*26
$GPGSA,A,3,09,08,07,23,13,19,16,11,03,06,27,,1.69,0.81,1.49*03
$GPGSV,3,1,11,09,23,312,34,08,28,311,41,07,61,319,33,23,22,188,34*7C
$GPGSV,3,2,11,13,46,215,38,19,73,111,28,16,25,065,30,11,28,158,33*74
$GPGSV,3,3,11,03,59,056,40,06,33,048,40,27,44,051,44,,,,*4E
$GPGST,033141.00,,201.61,201.55,060.1,014.20,014.20,014.21*4B
$GPRMC,033141.00,A,3917.26403,N,08203.79820,W,000.0,000.0,070214,07.2,W,A*06
$PTNLRTF,V,A,444717,11,3,3917.26403,N,08203.79820,W,00301,+000.000,+000.000,+000.000,0,1*56
$PTNLRBA,1,1*57
$GPZDA,033142.00,07,02,2014,,*63
$GPGGA,033142.00,3917.26402,N,08203.79818,W,1,11,0.81,00301,M,-033,M,,*57
$GPGLL,3917.26402,N,08203.79818,W,033142.00,A,A*74
$GPVTG,000.0,T,007.2,M,000.0,N,000.0,K,A*26
$GPGSA,A,3,09,08,07,23,13,19,16,11,03,06,27,,1.69,0.81,1.49*03
$GPGSV,3,1,11,09,23,312,34,08,28,311,41,07,61,319,33,23,22,188,34*7C
$GPGSV,3,2,11,13,46,215,38,19,73,111,29,16,25,065,31,11,28,158,34*73
$GPGSV,3,3,11,03,59,056,40,06,33,048,40,27,44,051,44,,,,*4E
$GPGST,033142.00,,194.21,194.16,060.0,013.94,013.93,013.95*45
$GPRMC,033142.00,A,3917.26402,N,08203.79818,W,000.0,000.0,070214,07.2,W,A*0F
$PTNLRTF,V,A,444718,11,3,3917.26402,N,08203.79818,W,00301,+000.000,+000.000,+000.000,0,1*53
$PTNLRBA,1,1*57
$GPZDA,033144.00,07,02,2014,,*65
$GPGGA,033144.00,3917.26399,N,08203.79817,W,1,11,0.81,00301,M,-033,M,,*5B
$GPGLL,3917.26399,N,08203.79817,W,033144.00,A,A*78
$GPVTG,000.0,T,007.2,M,000.0,N,000.0,K,A*26
$GPGSA,A,3,09,08,07,23,13,19,16,11,03,06,27,,1.69,0.81,1.49*03
$GPGSV,3,1,11,09,23,312,34,08,28,311,41,07,61,319,32,23,22,188,34*7D
$GPGSV,3,2,11,13,46,215,38,19,73,111,29,16,25,065,31,11,28,158,33*74
$GPGSV,3,3,11,03,59,056,40,06,33,048,39,27,44,051,44,,,,*40
$GPGST,033144.00,,175.66,175.61,059.8,013.25,013.25,013.27*4C
$GPRMC,033144.00,A,3917.26399,N,08203.79817,W,000.0,000.0,070214,07.2,W,A*03
$PTNLRTF,V,A,444720,11,3,3917.26399,N,08203.79817,W,00301,+000.000,+000.000,+000.000,0,1*52
$PTNLRBA,1,1*57
$GPZDA,033145.00,07,02,2014,,*64
$GPGGA,033145.00,3917.26398,N,08203.79817,W,1,11,0.81,00301,M,-033,M,,*5B
$GPGLL,3917.26398,N,08203.79817,W,033145.00,A,A*78
$GPVTG,000.0,T,007.2,M,000.0,N,000.0,K,A*26
$GPGSA,A,3,09,08,07,23,13,19,16,11,03,06,27,,1.69,0.81,1.49*03
$GPGSV,3,1,11,09,23,312,34,08,28,311,41,07,61,319,31,23,22,188,34*7E
$GPGSV,3,2,11,13,46,215,37,19,73,111,29,16,25,065,32,11,28,158,34*7F
$GPGSV,3,3,11,03,59,056,40,06,33,048,40,27,44,051,44,,,,*4E
$GPGST,033145.00,,172.09,172.04,059.8,013.12,013.12,013.13*40
$GPRMC,033145.00,A,3917.26398,N,08203.79817,W,000.0,000.0,070214,07.2,W,A*03
$PTNLRTF,V,A,444721,11,3,3917.26398,N,08203.79817,W,00301,+000.000,+000.000,+000.000,0,1*52
$PTNLRBA,1,1*57
$GPZDA,033147.00,07,02,2014,,*66
$GPGGA,033147.00,3917.26395,N,08203.79817,W,1,11,0.81,00301,M,-033,M,,*54
$GPGLL,3917.26395,N,08203.79817,W,033147.00,A,A*77
$GPVTG,000.0,T,007.2,M,000.0,N,000.0,K,A*26
$GPGSA,A,3,09,08,07,23,13,19,16,11,03,06,27,,1.69,0.81,1.49*03
$GPGSV,3,1,11,09,23,312,34,08,28,311,42,07,61,319,31,23,22,188,34*7D
$GPGSV,3,2,11,13,46,215,37,19,73,111,28,16,25,065,31,11,28,158,34*7D
$GPGSV,3,3,11,03,59,056,41,06,33,048,40,27,44,051,44,,,,*4F
$GPGST,033147.00,,162.96,162.91,059.8,012.77,012.76,012.78*45
$GPRMC,033147.00,A,3917.26395,N,08203.79817,W,000.0,000.0,070214,07.2,W,A*0C
$PTNLRTF,V,A,444723,11,3,3917.26395,N,08203.79817,W,00301,+000.000,+000.000,+000.000,0,1*5D
$PTNLRBA,1,1*57
$GPZDA,033148.00,07,02,2014,,*69
$GPGGA,033148.00,3917.26394,N,08203.79818,W,1,11,0.81,00301,M,-033,M,,*55
$GPGLL,3917.26394,N,08203.79818,W,033148.00,A,A*76
$GPVTG,000.0,T,007.2,M,000.0,N,000.0,K,A*26
$GPGSA,A,3,09,08,07,23,13,19,16,11,03,06,27,,1.69,0.81,1.49*03
$GPGSV,3,1,12,09,23,312,34,08,28,311,41,07,61,319,31,23,22,188,34*7D
$GPGSV,3,2,12,13,46,215,37,19,73,111,29,16,25,065,30,11,28,158,34*7E
$GPGSV,3,3,12,03,59,056,41,51,38,217,35,06,33,048,40,27,44,051,43*76
$GPGST,033148.00,,156.48,156.42,059.8,012.51,012.51,012.52*4E
$GPRMC,033148.00,A,3917.26394,N,08203.79818,W,000.0,000.0,070214,07.2,W,A*0D
$PTNLRTF,V,A,444724,11,3,3917.26394,N,08203.79818,W,00301,+000.000,+000.000,+000.000,0,1*54
$PTNLRBA,1,1*57
$GPZDA,033150.00,07,02,2014,,*60
$GPGGA,033150.00,3917.26391,N,08203.79819,W,1,11,0.81,00301,M,-033,M,,*58
$GPGLL,3917.26391,N,08203.79819,W,033150.00,A,A*7B
$GPVTG,000.0,T,007.2,M,000.0,N,000.0,K,A*26
$GPGSA,A,3,09,08,07,23,13,19,16,11,03,06,27,,1.69,0.81,1.49*03
$GPGSV,3,1,12,09,23,312,33,08,28,311,41,07,61,319,32,23,22,188,34*79
$GPGSV,3,2,12,13,46,215,37,19,73,111,29,16,25,065,29,11,28,158,35*77
$GPGSV,3,3,12,03,59,056,41,51,38,217,36,06,32,048,41,27,43,051,44*75
$GPGST,033150.00,,142.73,142.68,059.6,011.95,011.95,011.96*42
$GPRMC,033150.00,A,3917.26391,N,08203.79819,W,000.0,000.0,070214,07.2,W,A*00
$PTNLRTF,V,A,444726,11,3,3917.26391,N,08203.79819,W,00301,+000.000,+000.000,+000.000,0,1*52
$PTNLRBA,1,1*57
$GPZDA,033151.00,07,02,2014,,*61
$GPGGA,033151.00,3917.26392,N,08203.79820,W,1,11,0.81,00301,M,-033,M,,*50
$GPGLL,3917.26392,N,08203.79820,W,033151.00,A,A*73
$GPVTG,000.0,T,007.2,M,000.0,N,000.0,K,A*26
$GPGSA,A,3,09,08,07,23,13,19,16,11,03,06,27,,1.69,0.81,1.49*03
$GPGSV,3,1,12,09,23,312,33,08,28,311,41,07,61,319,32,23,22,188,35*78
$GPGSV,3,2,12,13,46,215,37,19,73,111,30,16,25,065,28,11,28,158,35*7E
$GPGSV,3,3,12,03,59,056,41,51,38,217,36,06,32,048,40,27,43,051,44*74
$GPGST,033151.00,,136.28,136.23,059.4,011.67,011.67,011.69*40
$GPRMC,033151.00,A,3917.26392,N,08203.79820,W,000.0,000.0,070214,07.2,W,A*08
$PTNLRTF,V,A,444727,11,3,3917.26392,N,08203.79820,W,00301,+000.000,+000.000,+000.000,0,1*5A
$PTNLRBA,1,1*57
$GPZDA,033153.00,07,02,2014,,*63
$GPGGA,033153.00,3917.26391,N,08203.79823,W,1,11,0.81,00301,M,-033,M,,*52
$GPGLL,3917.26391,N,08203.79823,W,033153.00,A,A*71
$GPVTG,000.0,T,007.2,M,000.0,N,000.0,K,A*26
$GPGSA,A,3,09,08,07,23,13,19,16,11,03,06,27,,1.69,0.81,1.49*03
$GPGSV,3,1,12,09,23,312,33,08,28,311,41,07,61,319,31,23,22,188,35*7B
$GPGSV,3,2,12,13,46,215,36,19,73,111,31,16,25,065,27,11,28,158,35*71
$GPGSV,3,3,12,03,59,056,41,51,38,217,36,06,32,048,40,27,43,051,43*73
$GPGST,033153.00,,137.80,137.75,059.1,011.74,011.74,011.75*4B
$GPRMC,033153.00,A,3917.26391,N,08203.79823,W,000.0,000.0,070214,07.2,W,A*0A
$PTNLRTF,V,A,444729,11,3,3917.26391,N,08203.79823,W,00301,+000.000,+000.000,+000.000,0,1*54
$PTNLRBA,1,1*57
$GPZDA,033154.00,07,02,2014,,*64
$GPGGA,033154.00,3917.26390,N,08203.79824,W,1,11,0.81,00301,M,-033,M,,*53
$GPGLL,3917.26390,N,08203.79824,W,033154.00,A,A*70
$GPVTG,000.0,T,007.2,M,000.0,N,000.0,K,A*26
$GPGSA,A,3,09,08,07,23,13,19,16,11,03,06,27,,1.69,0.81,1.49*03
$GPGSV,3,1,12,09,23,312,32,08,28,311,41,07,61,319,30,23,22,188,34*7A
$GPGSV,3,2,12,13,46,215,37,19,73,111,29,16,25,065,28,11,28,158,35*76
$GPGSV,3,3,12,03,59,056,41,51,38,217,37,06,32,048,41,27,43,051,43*73
$GPGST,033154.00,,141.27,141.22,059.0,011.89,011.88,011.90*48
$GPRMC,033154.00,A,3917.26390,N,08203.79824,W,000.0,000.0,070214,07.2,W,A*0B
$PTNLRTF,V,A,444730,11,3,3917.26390,N,08203.79824,W,00301,+000.000,+000.000,+000.000,0,1*5A
$PTNLRBA,1,1*57
$GPZDA,033156.00,07,02,2014,,*66
$GPGGA,033156.00,3917.26390,N,08203.79826,W,2,11,0.81,00301,M,-033,M,,*50
$GPGLL,3917.26390,N,08203.79826,W,033156.00,A,D*75
$GPVTG,000.0,T,007.2,M,000.00,N,000.00,K,D*23
$GPGSA,A,3,09,08,07,23,13,19,16,11,03,06,27,,1.69,0.81,1.49*03
$GPGSV,3,1,12,09,23,312,32,08,28,311,40,07,61,319,29,23,22,188,35*72
$GPGSV,3,2,12,13,46,215,37,19,73,111,30,16,25,065,28,11,28,158,35*7E
$GPGSV,3,3,12,03,59,056,42,51,38,217,36,06,32,048,41,27,43,051,43*71
$GPGST,033156.00,,128.07,128.02,058.6,011.32,011.32,011.33*45
$GPRMC,033156.00,A,3917.26390,N,08203.79826,W,000.00,000.0,070214,07.2,W,D*3E
$PTNLRTF,V,A,444732,11,3,3917.26390,N,08203.79826,W,00301,+000.000,+000.000,+000.000,0,1*5A
$PTNLRBA,1,1*57
$GPZDA,033157.00,07,02,2014,,*67
$GPGGA,033157.00,3917.26391,N,08203.79826,W,2,11,0.81,00301,M,-033,M,,*50
$GPGLL,3917.26391,N,08203.79826,W,033157.00,A,D*75
$GPVTG,000.0,T,007.2,M,000.00,N,000.00,K,D*23
$GPGSA,A,3,09,08,07,23,13,19,16,11,03,06,27,,1.69,0.81,1.49*03
$GPGSV,3,1,12,09,23,312,31,08,28,311,40,07,61,319,31,23,22,188,35*78
$GPGSV,3,2,12,13,46,215,37,19,73,111,30,16,25,065,28,11,28,158,35*7E
$GPGSV,3,3,12,03,59,056,42,51,38,217,37,06,32,048,40,27,43,051,43*71
$GPGST,033157.00,,120.90,120.85,058.5,010.99,010.99,011.01*47
$GPRMC,033157.00,A,3917.26391,N,08203.79826,W,000.00,000.0,070214,07.2,W,D*3E
$PTNLRTF,V,A,444733,11,3,3917.26391,N,08203.79826,W,00301,+000.000,+000.000,+000.000,0,1*5A
$PTNLRBA,1,1*57
$GPZDA,033159.00,07,02,2014,,*69
$GPGGA,033159.00,3917.26392,N,08203.79828,W,2,11,0.81,00301,M,-033,M,,*53
$GPGLL,3917.26392,N,08203.79828,W,033159.00,A,D*76
$GPVTG,000.0,T,007.2,M,000.00,N,000.00,K,D*23
$GPGSA,A,3,09,08,07,23,13,19,16,11,03,06,27,,1.69,0.81,1.49*03
$GPGSV,3,1,12,09,23,312,31,08,28,311,40,07,61,319,31,23,22,188,35*78
$GPGSV,3,2,12,13,46,215,37,19,73,111,30,16,25,065,30,11,28,158,35*77
$GPGSV,3,3,12,03,59,056,42,51,38,217,36,06,32,048,40,27,43,051,43*70
$GPGST,033159.00,,110.73,110.68,058.2,010.52,010.52,010.54*41
$GPRMC,033159.00,A,3917.26392,N,08203.79828,W,000.00,000.0,070214,07.2,W,D*3D
$PTNLRTF,V,A,444735,11,3,3917.26392,N,08203.79828,W,00301,+000.000,+000.000,+000.000,0,1*51
$PTNLRBA,1,1*57
$GPZDA,033201.00,07,02,2014,,*67
$GPGGA,033201.00,3917.26392,N,08203.79830,W,2,11,0.81,00301,M,-033,M,,*54
$GPGLL,3917.26392,N,08203.79830,W,033201.00,A,D*71
$GPVTG,000.0,T,007.2,M,000.00,N,000.00,K,D*23
$GPGSA,A,3,09,08,07,23,13,19,16,11,03,06,27,,1.69,0.81,1.49*03
$GPGSV,3,1,12,09,23,312,31,08,28,311,40,07,61,319,31,23,22,188,34*79
$GPGSV,3,2,12,13,46,215,37,19,73,111,31,16,25,065,31,11,28,158,34*76
$GPGSV,3,3,12,03,59,056,42,51,38,217,37,06,32,048,40,27,43,051,43*71
$GPGST,033201.00,,098.24,098.20,058.0,009.91,009.91,009.93*40
$GPRMC,033201.00,A,3917.26392,N,08203.79830,W,000.00,000.0,070214,07.2,W,D*3A
$PTNLRTF,V,A,444737,11,3,3917.26392,N,08203.79830,W,00301,+000.000,+000.000,+000.000,0,1*5A
$PTNLRBA,1,1*57
$GPZDA,033202.00,07,02,2014,,*64
$GPGGA,033202.00,3917.26392,N,08203.79831,W,2,11,0.81,00301,M,-033,M,,*56
$GPGLL,3917.26392,N,08203.79831,W,033202.00,A,D*73
$GPVTG,000.0,T,007.2,M,000.00,N,000.00,K,D*23
$GPGSA,A,3,09,08,07,23,13,19,16,11,03,06,27,,1.69,0.81,1.49*03
$GPGSV,3,1,12,09,23,312,32,08,28,311,40,07,61,319,30,23,22,188,34*7B
$GPGSV,3,2,12,13,46,215,37,19,73,111,30,16,25,065,31,11,28,158,34*77
$GPGSV,3,3,12,03,59,056,42,51,38,217,37,06,32,048,41,27,43,051,43*70
$GPGST,033202.00,,097.20,097.16,057.8,009.86,009.86,009.88*4F
$GPRMC,033202.00,A,3917.26392,N,08203.79831,W,000.00,000.0,070214,07.2,W,D*38
$PTNLRTF,V,A,444738,11,3,3917.26392,N,08203.79831,W,00301,+000.000,+000.000,+000.000,0,1*54
$PTNLRBA,1,1*57
$GPZDA,033203.00,07,02,2014,,*65
$GPGGA,033203.00,3917.26391,N,08203.79831,W,2,11,0.81,00301,M,-033,M,,*54
$GPGLL,3917.26391,N,08203.79831,W,033203.00,A,D*71
$GPVTG,000.0,T,007.2,M,000.00,N,000.00,K,D*23
$GPGSA,A,3,09,08,07,23,13,19,16,11,03,06,27,,1.69,0.81,1.49*03
$GPGSV,3,1,12,09,23,312,32,08,28,311,40,07,61,319,30,23,22,188,34*7B
$GPGSV,3,2,12,13,46,215,36,19,73,111,30,16,25,065,31,11,28,158,34*76
$GPGSV,3,3,12,03,59,056,42,51,38,217,37,06,32,048,40,27,43,051,43*71
$GPGST,033203.00,,098.53,098.49,057.7,009.93,009.92,009.94*43
$GPRMC,033203.00,A,3917.26391,N,08203.79831,W,000.00,000.0,070214,07.2,W,D*3A
$PTNLRTF,V,A,444739,11,3,3917.26391,N,08203.79831,W,00301,+000.000,+000.000,+000.000,0,1*56
$PTNLRBA,1,1*57
$GPZDA,033205.00,07,02,2014,,*63
$GPGGA,033205.00,3917.26392,N,08203.79832,W,2,11,0.81,00301,M,-033,M,,*52
$GPGLL,3917.26392,N,08203.79832,W,033205.00,A,D*77
$GPVTG,000.0,T,007.2,M,000.00,N,000.00,K,D*23
$GPGSA,A,3,09,08,07,23,13,19,16,11,03,06,27,,1.69,0.81,1.49*03
$GPGSV,3,1,12,09,23,312,32,08,28,311,40,07,61,319,31,23,22,188,35*7B
$GPGSV,3,2,12,13,46,215,36,19,73,111,30,16,25,065,30,11,28,158,34*77
$GPGSV,3,3,12,03,59,056,41,51,38,217,36,06,32,048,40,27,43,051,44*74
$GPGST,033205.00,,096.72,096.67,057.6,009.83,009.83,009.85*4A
$GPRMC,033205.00,A,3917.26392,N,08203.79832,W,000.00,000.0,070214,07.2,W,D*3C
$PTNLRTF,V,A,444741,11,3,3917.26392,N,08203.79832,W,00301,+000.000,+000.000,+000.000,0,1*59
$PTNLRBA,1,1*57
$GPZDA,033206.00,07,02,2014,,*60
$GPGGA,033206.00,3917.26391,N,08203.79832,W,2,11,0.81,00301,M,-033,M,,*52
$GPGLL,3917.26391,N,08203.79832,W,033206.00,A,D*77
$GPVTG,000.0,T,007.2,M,000.00,N,000.00,K,D*23
$GPGSA,A,3,09,08,07,23,13,19,16,11,03,06,27,,1.69,0.81,1.49*03
$GPGSV,3,1,12,09,23,312,32,08,28,311,40,07,61,319,31,23,22,188,35*7B
$GPGSV,3,2,12,13,46,215,36,19,73,111,31,16,25,065,30,11,28,158,34*76
$GPGSV,3,3,12,03,59,056,41,51,38,217,36,06,32,048,40,27,43,051,43*73
$GPGST,033206.00,,090.99,090.95,057.4,009.54,009.54,009.56*4D
$GPRMC,033206.00,A,3917.26391,N,08203.79832,W,000.00,000.0,070214,07.2,W,D*3C
$PTNLRTF,V,A,444742,11,3,3917.26391,N,08203.79832,W,00301,+000.000,+000.000,+000.000,0,1*59
$PTNLRBA,1,1*57
$GPZDA,033208.00,07,02,2014,,*6E
$GPGGA,033208.00,3917.26390,N,08203.79832,W,2,11,0.81,00301,M,-033,M,,*5D
$GPGLL,3917.26390,N,08203.79832,W,033208.00,A,D*78
$GPVTG,000.0,T,007.2,M,000.00,N,000.00,K,D*23
$GPGSA,A,3,09,08,07,23,13,19,16,11,03,06,27,,1.69,0.81,1.49*03
$GPGSV,3,1,12,09,23,312,32,08,28,311,40,07,61,319,32,23,22,188,35*78
$GPGSV,3,2,12,13,46,215,36,19,73,111,31,16,25,065,28,11,28,158,34*7F
$GPGSV,3,3,12,03,59,056,41,51,38,217,37,06,32,048,40,27,43,051,43*72
$GPGST,033208.00,,081.95,081.90,057.2,009.05,009.05,009.07*48
$GPRMC,033208.00,A,3917.26390,N,08203.79832,W,000.00,000.0,070214,07.2,W,D*33
$PTNLRTF,V,A,444744,11,3,3917.26390,N,08203.79832,W,00301,+000.000,+000.000,+000.000,0,1*5E
$PTNLRBA,1,1*57
$GPZDA,033209.00,07,02,2014,,*6F
$GPGGA,033209.00,3917.26390,N,08203.79832,W,2,11,0.81,00301,M,-033,M,,*5C
$GPGLL,3917.26390,N,08203.79832,W,033209.00,A,D*79
$GPVTG,000.0,T,007.2,M,000.00,N,000.00,K,D*23
$GPGSA,A,3,09,08,07,23,13,19,16,11,03,06,27,,1.69,0.81,1.49*03
$GPGSV,3,1,12,09,23,312,31,08,28,311,40,07,61,319,33,23,22,188,35*7A
$GPGSV,3,2,12,13,46,215,36,19,73,111,30,16,25,065,29,11,28,158,34*7F
$GPGSV,3,3,12,03,59,056,41,51,38,217,37,06,32,048,41,27,43,051,43*73
$GPGST,033209.00,,075.87,075.82,057.0,008.71,008.71,008.73*49
$GPRMC,033209.00,A,3917.26390,N,08203.79832,W,000.00,000.0,070214,07.2,W,D*32
$PTNLRTF,V,A,444746,11,3,3917.26390,N,08203.79832,W,00301,+000.000,+000.000,+000.000,0,1*5C
$PTNLRBA,1,1*57
$GPZDA,033211.00,07,02,2014,,*66
$GPGGA,033211.00,3917.26389,N,08203.79830,W,2,11,0.81,00301,M,-033,M,,*5F
$GPGLL,3917.26389,N,08203.79830,W,033211.00,A,D*7A
$GPVTG,000.0,T,007.2,M,000.00,N,000.00,K,D*23
$GPGSA,A,3,09,08,07,23,13,19,16,11,03,06,27,,1.69,0.81,1.49*03
$GPGSV,3,1,12,09,23,312,31,08,28,311,40,07,61,319,32,23,22,188,35*7B
$GPGSV,3,2,12,13,46,215,37,19,73,111,31,16,25,065,28,11,28,158,34*7E
$GPGSV,3,3,12,03,59,056,41,51,38,217,37,06,32,048,41,27,43,051,44*74
$GPGST,033211.00,,067.51,067.47,056.6,008.22,008.21,008.24*44
$GPRMC,033211.00,A,3917.26389,N,08203.79830,W,000.00,000.0,070214,07.2,W,D*31
$PTNLRBA,1,1*57
$GPZDA,033212.00,07,02,2014,,*65
$GPGGA,033212.00,3917.26389,N,08203.79830,W,2,11,0.81,00301,M,-033,M,,*5C
$GPGLL,3917.26389,N,08203.79830,W,033212.00,A,D*79
$GPVTG,000.0,T,007.2,M,000.00,N,000.00,K,D*23
$GPGSA,A,3,09,08,07,23,13,19,16,11,03,06,27,,1.69,0.81,1.49*03
$GPGSV,3,1,12,09,23,312,31,08,28,311,40,07,61,319,32,23,22,188,35*7B
$GPGSV,3,2,12,13,46,215,37,19,73,111,30,16,25,065,29,11,28,158,34*7E
$GPGSV,3,3,12,03,59,056,40,51,38,217,37,06,32,048,41,27,43,051,44*75
$GPGST,033212.00,,065.61,065.57,056.5,008.10,008.10,008.12*40
$GPRMC,033212.00,A,3917.26389,N,08203.79830,W,000.00,000.0,070214,07.2,W,D*32
$PTNLRTF,V,A,444749,11,3,3917.26389,N,08203.79830,W,00301,+000.000,+000.000,+000.000,0,1*59
$PTNLRBA,1,1*57
$GPZDA,033214.00,07,02,2014,,*63
$GPGGA,033214.00,3917.26390,N,08203.79829,W,2,11,0.81,00301,M,-033,M,,*5A
$GPGLL,3917.26390,N,08203.79829,W,033214.00,A,D*7F
$GPVTG,000.0,T,007.2,M,000.00,N,000.00,K,D*23
$GPGSA,A,3,09,08,07,23,13,19,16,11,03,06,27,,1.69,0.81,1.49*03
$GPGSV,3,1,12,09,23,312,30,08,28,311,41,07,61,319,32,23,22,188,35*7B
$GPGSV,3,2,12,13,46,215,37,19,73,111,31,16,25,065,29,11,28,158,34*7F
$GPGSV,3,3,12,03,59,056,40,51,38,217,37,06,32,048,41,27,43,051,44*75
$GPGST,033214.00,,064.28,064.23,056.3,008.02,008.02,008.04*49
$GPRMC,033214.00,A,3917.26390,N,08203.79829,W,000.00,000.0,070214,07.2,W,D*34
$PTNLRBA,1,1*57
$GPZDA,033215.00,07,02,2014,,*62
$GPGGA,033215.00,3917.26391,N,08203.79829,W,2,11,0.81,00301,M,-033,M,,*5A
$GPGLL,3917.26391,N,08203.79829,W,033215.00,A,D*7F
$GPVTG,000.0,T,007.2,M,000.00,N,000.00,K,D*23
$GPGSA,A,3,09,08,07,23,13,19,16,11,03,06,27,,1.69,0.81,1.49*03
$GPGSV,3,1,12,09,23,312,30,08,28,311,40,07,61,319,32,23,22,188,35*7A
$GPGSV,3,2,12,13,46,215,37,19,73,111,30,16,25,065,29,11,28,158,35*7F
$GPGSV,3,3,12,03,59,056,40,51,38,217,37,06,32,048,41,27,43,051,44*75
$GPGST,033215.00,,061.78,061.73,056.1,007.86,007.86,007.88*41
$GPRMC,033215.00,A,3917.26391,N,08203.79829,W,000.00,000.0,070214,07.2,W,D*34
$PTNLRTF,V,A,444752,11,3,3917.26391,N,08203.79829,W,00301,+000.000,+000.000,+000.000,0,1*52
$PTNLRBA,1,1*57
$GPZDA,033217.00,07,02,2014,,*60
$GPGGA,033217.00,3917.26393,N,08203.79831,W,2,11,0.81,00301,M,-033,M,,*53
$GPGLL,3917.26393,N,08203.79831,W,033217.00,A,D*76
$GPVTG,000.0,T,007.2,M,000.00,N,000.00,K,D*23
$GPGSA,A,3,09,08,07,23,13,19,16,11,03,06,27,,1.69,0.81,1.49*03
$GPGSV,3,1,12,09,23,312,29,08,28,311,41,07,61,319,32,23,22,188,35*73
$GPGSV,3,2,12,13,46,215,37,19,73,111,29,16,25,065,30,11,28,158,34*7E
$GPGSV,3,3,12,03,59,056,40,51,38,217,37,06,32,048,41,27,43,051,43*72
$GPGST,033217.00,,060.79,060.75,055.7,007.80,007.80,007.82*4B
$GPRMC,033217.00,A,3917.26393,N,08203.79831,W,000.00,000.0,070214,07.2,W,D*3D
$PTNLRBA,1,1*57
$GPZDA,033219.00,07,02,2014,,*6E
$GPGGA,033218.00,3917.26394,N,08203.79832,W,2,11,0.81,00301,M,-033,M,,*58
$GPGLL,3917.26394,N,08203.79832,W,033218.00,A,D*7D
$GPVTG,000.0,T,007.2,M,000.00,N,000.00,K,D*23
$GPGSA,A,3,09,08,07,23,13,19,16,11,03,06,27,,1.69,0.81,1.49*03
$GPGSV,3,1,12,09,23,312,30,08,28,311,40,07,61,319,33,23,22,188,35*7B
$GPGSV,3,2,12,13,46,215,37,19,73,111,30,16,25,065,31,11,28,158,35*76
$GPGSV,3,3,12,03,59,056,40,51,38,217,37,06,32,048,41,27,43,051,43*72
$GPGST,033218.00,,060.76,060.72,055.6,007.79,007.79,007.82*4D
$GPRMC,033218.00,A,3917.26394,N,08203.79832,W,000.00,000.0,070214,07.2,W,D*36
$PTNLRTF,V,A,444755,11,3,3917.26394,N,08203.79832,W,00301,+000.000,+000.000,+000.000,0,1*5A
$PTNLRBA,1,1*57
$GPZDA,033220.00,07,02,2014,,*64
$GPGGA,033220.00,3917.26394,N,08203.79832,W,2,11,0.81,00301,M,-033,M,,*53
$GPGLL,3917.26394,N,08203.79832,W,033220.00,A,D*76
$GPVTG,000.0,T,007.2,M,000.00,N,000.00,K,D*23
$GPGSA,A,3,09,08,07,23,13,19,16,11,03,06,27,,1.69,0.81,1.49*03
$GPGSV,3,1,12,09,23,312,28,08,28,311,40,07,61,319,32,23,22,188,35*73
$GPGSV,3,2,12,13,46,215,37,19,73,111,30,16,25,065,31,11,28,158,35*76
$GPGSV,3,3,12,03,59,056,40,51,38,217,37,06,32,048,41,27,43,051,43*72
$GPGST,033220.00,,068.95,068.91,055.3,008.30,008.30,008.33*46
$GPRMC,033220.00,A,3917.26394,N,08203.79832,W,000.00,000.0,070214,07.2,W,D*3D
$PTNLRTF,V,A,444756,11,3,3917.26394,N,08203.79832,W,00301,+000.000,+000.000,+000.000,0,1*59
$PTNLRBA,1,1*57
$GPZDA,033222.00,07,02,2014,,*66
$GPGGA,033222.00,3917.26395,N,08203.79832,W,2,11,0.81,00301,M,-033,M,,*50
$GPGLL,3917.26395,N,08203.79832,W,033222.00,A,D*75
$GPVTG,000.0,T,007.2,M,000.00,N,000.00,K,D*23
$GPGSA,A,3,09,08,07,23,13,19,16,11,03,06,27,,1.69,0.81,1.49*03
$GPGSV,3,1,12,09,23,312,29,08,28,311,39,07,61,319,32,23,22,188,35*7C
$GPGSV,3,2,12,13,46,215,37,19,73,111,31,16,25,065,31,11,28,158,35*77
$GPGSV,3,3,12,03,59,056,40,51,38,217,37,06,32,048,40,27,43,051,44*74
$GPGST,033222.00,,070.72,070.68,055.0,008.41,008.41,008.43*4F
$GPRMC,033222.00,A,3917.26395,N,08203.79832,W,000.00,000.0,070214,07.2,W,D*3E
$PTNLRTF,V,A,444758,11,3,3917.26395,N,08203.79832,W,00301,+000.000,+000.000,+000.000,0,1*56
$PTNLRBA,1,1*57
$GPZDA,033223.00,07,02,2014,,*67
$GPGGA,033223.00,3917.26394,N,08203.79832,W,2,11,0.81,00301,M,-033,M,,*50
$GPGLL,3917.26394,N,08203.79832,W,033223.00,A,D*75
$GPVTG,000.0,T,007.2,M,000.00,N,000.00,K,D*23
$GPGSA,A,3,09,08,07,23,13,19,16,11,03,06,27,,1.69,0.81,1.49*03
$GPGSV,3,1,12,09,23,312,28,08,28,311,40,07,61,319,33,23,22,188,35*72
$GPGSV,3,2,12,13,46,215,37,19,73,111,31,16,25,065,31,11,28,158,35*77
$GPGSV,3,3,12,03,59,056,40,51,38,217,37,06,32,048,40,27,43,051,44*74
$GPGST,033223.00,,070.24,070.19,054.8,008.38,008.38,008.40*41
$GPRMC,033223.00,A,3917.26394,N,08203.79832,W,000.00,000.0,070214,07.2,W,D*3E
$PTNLRBA,1,1*57
$GPZDA,033225.00,07,02,2014,,*61
$GPGGA,033225.00,3917.26394,N,08203.79831,W,2,11,0.81,00301,M,-033,M,,*55
$GPGLL,3917.26394,N,08203.79831,W,033225.00,A,D*70
$GPVTG,000.0,T,007.2,M,000.00,N,000.00,K,D*23
$GPGSA,A,3,09,08,07,23,13,19,16,11,03,06,27,,1.69,0.81,1.49*03
$GPGSV,3,1,12,09,23,312,29,08,28,311,40,07,61,319,33,23,22,188,35*73
$GPGSV,3,2,12,13,46,215,37,19,73,111,30,16,25,065,31,11,28,158,35*76
$GPGSV,3,3,12,03,59,056,40,51,38,217,37,06,32,048,40,27,43,051,43*73
$GPGST,033225.00,,067.79,067.75,054.5,008.23,008.23,008.26*48
$GPRMC,033225.00,A,3917.26394,N,08203.79831,W,000.00,000.0,070214,07.2,W,D*3B
$PTNLRTF,V,A,444761,11,3,3917.26394,N,08203.79831,W,00301,+000.000,+000.000,+000.000,0,1*5E
$PTNLRBA,1,1*57
$GPZDA,033226.00,07,02,2014,,*62
$GPGGA,033226.00,3917.26394,N,08203.79830,W,2,11,0.81,00301,M,-033,M,,*57
$GPGLL,3917.26394,N,08203.79830,W,033226.00,A,D*72
$GPVTG,000.0,T,007.2,M,000.00,N,000.00,K,D*23
$GPGSA,A,3,09,08,07,23,13,19,16,11,03,06,27,,1.69,0.81,1.49*03
$GPGSV,3,1,12,09,23,312,31,08,28,311,39,07,61,319,33,23,22,188,35*74
$GPGSV,3,2,12,13,46,215,37,19,73,111,29,16,25,065,32,11,28,158,35*7D
$GPGSV,3,3,12,03,59,056,41,51,38,217,37,06,32,048,40,27,43,051,43*72
$GPGST,033226.00,,069.14,069.10,054.3,008.31,008.31,008.34*46
$GPRMC,033226.00,A,3917.26394,N,08203.79830,W,000.00,000.0,070214,07.2,W,D*39
$PTNLRTF,V,A,444762,11,3,3917.26394,N,08203.79830,W,00301,+000.000,+000.000,+000.000,0,1*5C
$PTNLRBA,1,1*57
$GPZDA,033228.00,07,02,2014,,*6C
$GPGGA,033228.00,3917.26395,N,08203.79829,W,2,11,0.81,00301,M,-033,M,,*50
$GPGLL,3917.26395,N,08203.79829,W,033228.00,A,D*75
$GPVTG,000.0,T,007.2,M,000.00,N,000.00,K,D*23
$GPGSA,A,3,09,08,07,23,13,19,16,11,03,06,27,,1.69,0.81,1.49*03
$GPGSV,3,1,12,09,23,312,31,08,28,311,39,07,61,319,34,23,22,188,35*73
$GPGSV,3,2,12,13,46,215,37,19,73,111,29,16,25,065,32,11,28,158,36*7E
$GPGSV,3,3,12,03,59,056,41,51,38,217,37,06,32,048,39,27,43,051,43*7C
$GPGST,033228.00,,068.66,068.62,054.1,008.29,008.28,008.31*4E
$GPRMC,033228.00,A,3917.26395,N,08203.79829,W,000.00,000.0,070214,07.2,W,D*3E
$PTNLRTF,V,A,444764,11,3,3917.26395,N,08203.79829,W,00301,+000.000,+000.000,+000.000,0,1*53
$PTNLRBA,1,1*57
$GPZDA,033229.00,07,02,2014,,*6D
$GPGGA,033229.00,3917.26395,N,08203.79828,W,2,11,0.81,00301,M,-033,M,,*50
$GPGLL,3917.26395,N,08203.79828,W,033229.00,A,D*75
$GPVTG,000.0,T,007.2,M,000.00,N,000.00,K,D*23
$GPGSA,A,3,09,08,07,23,13,19,16,11,03,06,27,,1.69,0.81,1.49*03
$GPGSV,3,1,12,09,23,312,30,08,28,311,39,07,61,319,33,23,22,188,35*75
$GPGSV,3,2,12,13,46,215,38,19,73,111,28,16,25,065,32,11,28,158,36*70
$GPGSV,3,3,12,03,59,056,41,51,38,217,37,06,32,048,39,27,43,051,43*7C
$GPGST,033229.00,,067.86,067.82,053.9,008.24,008.24,008.26*47
$GPRMC,033229.00,A,3917.26395,N,08203.79828,W,000.00,000.0,070214,07.2,W,D*3E
$PTNLRTF,V,A,444765,11,3,3917.26395,N,08203.79828,W,00301,+000.000,+000.000,+000.000,0,1*53
$PTNLRBA,1,1*57
$GPZDA,033231.00,07,02,2014,,*64
$GPGGA,033231.00,3917.26395,N,08203.79827,W,2,11,0.81,00301,M,-033,M,,*56
$GPGLL,3917.26395,N,08203.79827,W,033231.00,A,D*73
$GPVTG,000.0,T,007.2,M,000.00,N,000.00,K,D*23
$GPGSA,A,3,09,08,07,23,13,19,16,11,03,06,27,,1.69,0.81,1.49*03
$GPGSV,3,1,12,09,23,312,30,08,28,311,39,07,61,319,32,23,22,188,35*74
$GPGSV,3,2,12,13,46,215,38,19,73,111,28,16,25,065,33,11,28,158,36*71
$GPGSV,3,3,12,03,59,056,40,51,38,217,37,06,32,048,39,27,43,051,43*7D
$GPGST,033231.00,,065.49,065.45,053.7,008.09,008.09,008.11*4C
$GPRMC,033231.00,A,3917.26395,N,08203.79827,W,000.00,000.0,070214,07.2,W,D*38
$PTNLRTF,V,A,444767,11,3,3917.26395,N,08203.79827,W,00301,+000.000,+000.000,+000.000,0,1*5E
$PTNLRBA,1,1*57
$GPZDA,033232.00,07,02,2014,,*67
$GPGGA,033232.00,3917.26395,N,08203.79827,W,2,11,0.81,00301,M,-033,M,,*55
$GPGLL,3917.26395,N,08203.79827,W,033232.00,A,D*70
$GPVTG,000.0,T,007.2,M,000.00,N,000.00,K,D*23
$GPGSA,A,3,09,08,07,23,13,19,16,11,03,06,27,,1.69,0.81,1.49*03
$GPGSV,3,1,12,09,23,312,31,08,28,311,40,07,62,319,32,23,22,188,35*78
$GPGSV,3,2,12,13,46,215,38,19,73,111,29,16,25,065,33,11,28,158,36*70
$GPGSV,3,3,12,03,59,055,40,51,38,217,37,06,32,048,39,27,43,051,44*79
$GPGST,033232.00,,063.58,063.54,053.5,007.97,007.97,008.00*4D
$GPRMC,033232.00,A,3917.26395,N,08203.79827,W,000.00,000.0,070214,07.2,W,D*3B
$PTNLRTF,V,A,444768,11,3,3917.26395,N,08203.79827,W,00301,+000.000,+000.000,+000.000,0,1*51
$PTNLRBA,1,1*57
$GPZDA,033234.00,07,02,2014,,*61
$GPGGA,033234.00,3917.26396,N,08203.79827,W,2,11,0.81,00301,M,-033,M,,*50
$GPGLL,3917.26396,N,08203.79827,W,033234.00,A,D*75
$GPVTG,000.0,T,007.2,M,000.00,N,000.00,K,D*23
$GPGSA,A,3,09,08,07,23,13,19,16,11,03,06,27,,1.69,0.81,1.49*03
$GPGSV,3,1,12,09,23,312,30,08,28,311,40,07,62,319,32,23,21,187,35*75
$GPGSV,3,2,12,13,46,215,38,19,73,109,28,16,25,065,34,11,28,158,36*7F
$GPGSV,3,3,12,03,59,055,41,51,38,217,37,06,32,048,39,27,43,050,44*79
$GPGST,033234.00,,062.34,062.31,053.2,007.89,007.89,007.92*41
$GPRMC,033234.00,A,3917.26396,N,08203.79827,W,000.00,000.0,070214,07.2,W,D*3E
$PTNLRTF,V,A,444770,11,3,3917.26396,N,08203.79827,W,00301,+000.000,+000.000,+000.000,0,1*5B
$PTNLRBA,1,1*57
$GPZDA,033235.00,07,02,2014,,*60
$GPGGA,033235.00,3917.26397,N,08203.79827,W,2,11,0.81,00301,M,-033,M,,*50
$GPGLL,3917.26397,N,08203.79827,W,033235.00,A,D*75
$GPVTG,000.0,T,007.2,M,000.00,N,000.00,K,D*23
$GPGSA,A,3,09,08,07,23,13,19,16,11,03,06,27,,1.69,0.81,1.49*03
$GPGSV,3,1,12,09,23,312,31,08,28,311,40,07,62,319,32,23,21,187,35*74
$GPGSV,3,2,12,13,46,215,37,19,73,109,26,16,25,065,34,11,28,158,36*7E
$GPGSV,3,3,12,03,59,055,41,51,38,217,37,06,32,048,40,27,43,050,44*77
$GPGST,033235.00,,063.01,062.97,053.0,007.94,007.94,007.96*4D
$GPRMC,033235.00,A,3917.26397,N,08203.79827,W,000.00,000.0,070214,07.2,W,D*3E
$PTNLRTF,V,A,444771,11,3,3917.26397,N,08203.79827,W,00301,+000.000,+000.000,+000.000,0,1*5B
$PTNLRBA,1,1*57
$GPZDA,033237.00,07,02,2014,,*62
$GPGGA,033237.00,3917.26397,N,08203.79827,W,2,11,0.81,00301,M,-033,M,,*52
$GPGLL,3917.26397,N,08203.79827,W,033237.00,A,D*77
$GPVTG,000.0,T,007.2,M,000.00,N,000.00,K,D*23
$GPGSA,A,3,09,08,07,23,13,19,16,11,03,06,27,,1.69,0.81,1.49*03
$GPGSV,3,1,12,09,23,312,30,08,28,311,39,07,62,319,32,23,21,187,35*7B
$GPGSV,3,2,12,13,46,215,37,19,73,109,25,16,25,065,33,11,28,158,36*7A
$GPGSV,3,3,12,03,59,055,41,51,38,217,36,06,32,048,40,27,43,050,45*77
$GPGST,033237.00,,068.48,068.44,052.8,008.27,008.27,008.30*47
$GPRMC,033237.00,A,3917.26397,N,08203.79827,W,000.00,000.0,070214,07.2,W,D*3C
$PTNLRTF,V,A,444773,11,3,3917.26397,N,08203.79827,W,00301,+000.000,+000.000,+000.000,0,1*59
$PTNLRBA,1,1*57
$GPZDA,033238.00,07,02,2014,,*6D
$GPGGA,033238.00,3917.26396,N,08203.79826,W,2,10,0.81,00301,M,-033,M,,*5C
$GPGLL,3917.26396,N,08203.79826,W,033238.00,A,D*78
$GPVTG,000.0,T,007.2,M,000.00,N,000.00,K,D*23
$GPGSA,A,3,09,08,07,23,13,16,11,03,06,27,,,1.95,0.81,1.77*05
$GPGSV,3,1,12,09,23,312,30,08,28,311,39,07,62,319,33,23,21,187,35*7A
$GPGSV,3,2,12,13,46,215,37,19,73,109,25,16,25,065,33,11,28,158,36*7A
$GPGSV,3,3,12,03,59,055,41,51,38,217,37,06,32,048,40,27,43,050,44*77
$GPGST,033238.00,,068.65,068.61,052.6,008.28,008.28,008.31*4F
$GPRMC,033238.00,A,3917.26396,N,08203.79826,W,000.00,000.0,070214,07.2,W,D*33
$PTNLRTF,V,A,444774,10,3,3917.26396,N,08203.79826,W,00301,+000.000,+000.000,+000.000,0,1*5F
$PTNLRBA,1,1*57
$GPZDA,033240.00,07,02,2014,,*62
$GPGGA,033240.00,3917.26394,N,08203.79824,W,2,11,0.81,00301,M,-033,M,,*52
$GPGLL,3917.26394,N,08203.79824,W,033240.00,A,D*77
$GPVTG,000.0,T,007.2,M,000.00,N,000.00,K,D*23
$GPGSA,A,3,09,08,07,23,13,19,16,11,03,06,27,,1.69,0.81,1.49*03
$GPGSV,3,1,12,09,23,312,29,08,28,311,39,07,62,319,33,23,21,187,35*72
$GPGSV,3,2,12,13,46,215,37,19,73,109,25,16,25,065,33,11,28,158,36*7A
$GPGSV,3,3,12,03,59,055,41,51,38,217,37,06,32,048,40,27,43,050,44*77
$GPGST,033240.00,,071.49,071.46,052.3,008.45,008.45,008.48*40
$GPRMC,033240.00,A,3917.26394,N,08203.79824,W,000.00,000.0,070214,07.2,W,D*3C
$PTNLRBA,1,1*57
$GPZDA,033241.00,07,02,2014,,*63
$GPGGA,033241.00,3917.26393,N,08203.79823,W,2,11,0.81,00301,M,-033,M,,*53
$GPGLL,3917.26393,N,08203.79823,W,033241.00,A,D*76
$GPVTG,000.0,T,007.2,M,000.00,N,000.00,K,D*23
$GPGSA,A,3,09,08,07,23,13,19,16,11,03,06,27,,1.69,0.81,1.49*03
$GPGSV,3,1,12,09,23,312,29,08,28,311,39,07,62,319,34,23,21,187,35*75
$GPGSV,3,2,12,13,46,215,37,19,73,109,25,16,25,065,33,11,28,158,36*7A
$GPGSV,3,3,12,03,59,055,41,51,38,217,37,06,32,048,40,27,43,050,44*77
$GPGST,033241.00,,071.46,071.42,052.1,008.45,008.45,008.47*47
$GPRMC,033241.00,A,3917.26393,N,08203.79823,W,000.00,000.0,070214,07.2,W,D*3D
$PTNLRTF,V,A,444777,11,3,3917.26393,N,08203.79823,W,00301,+000.000,+000.000,+000.000,0,1*5D
$PTNLRBA,1,1*57
$GPZDA,033243.00,07,02,2014,,*61
$GPGGA,033243.00,3917.26392,N,08203.79822,W,2,11,0.81,00301,M,-033,M,,*51
$GPGLL,3917.26392,N,08203.79822,W,033243.00,A,D*74
$GPVTG,000.0,T,007.2,M,000.00,N,000.00,K,D*23
$GPGSA,A,3,09,08,07,23,13,19,16,11,03,06,27,,1.69,0.81,1.49*03
$GPGSV,3,1,12,09,23,312,28,08,28,311,39,07,62,319,33,23,21,187,35*73
$GPGSV,3,2,12,13,46,215,38,19,73,109,27,16,25,065,33,11,28,158,37*76
$GPGSV,3,3,12,03,59,055,41,51,38,217,37,06,32,048,40,27,43,050,44*77
$GPGST,033243.00,,077.72,077.68,051.9,008.81,008.81,008.84*4E
$GPRMC,033243.00,A,3917.26392,N,08203.79822,W,000.00,000.0,070214,07.2,W,D*3F
$PTNLRBA,1,1*57
$GPZDA,033244.00,07,02,2014,,*66
$GPGGA,033244.00,3917.26392,N,08203.79821,W,2,11,0.81,00301,M,-033,M,,*55
$GPGLL,3917.26392,N,08203.79821,W,033244.00,A,D*70
$GPVTG,000.0,T,007.2,M,000.00,N,000.00,K,D*23
$GPGSA,A,3,09,08,07,23,13,19,16,11,03,06,27,,1.69,0.81,1.49*03
$GPGSV,3,1,12,09,23,312,28,08,28,311,39,07,62,319,34,23,21,187,35*74
$GPGSV,3,2,12,13,46,215,37,19,73,109,26,16,25,065,33,11,28,158,37*78
$GPGSV,3,3,12,03,59,055,41,51,38,217,37,06,32,048,40,27,43,050,44*77
$GPGST,033244.00,,082.24,082.21,051.7,009.07,009.07,009.09*4D
$GPRMC,033244.00,A,3917.26392,N,08203.79821,W,000.00,000.0,070214,07.2,W,D*3B
$PTNLRTF,V,A,444781,11,3,3917.26392,N,08203.79821,W,00301,+000.000,+000.000,+000.000,0,1*57
$PTNLRBA,1,1*57
$GPZDA,033246.00,07,02,2014,,*64
$GPGGA,033246.00,3917.26392,N,08203.79819,W,2,11,0.81,00301,M,-033,M,,*5C
$GPGLL,3917.26392,N,08203.79819,W,033246.00,A,D*79
$GPVTG,000.0,T,007.2,M,000.00,N,000.00,K,D*23
$GPGSA,A,3,09,08,07,23,13,19,16,11,03,06,27,,1.69,0.81,1.49*03
$GPGSV,3,1,12,09,23,312,29,08,28,311,39,07,62,319,33,23,21,187,35*72
$GPGSV,3,2,12,13,46,215,37,19,73,109,25,16,25,065,34,11,28,158,37*7C
$GPGSV,3,3,12,03,59,055,41,51,38,217,37,06,32,048,40,27,43,050,44*77
$GPGST,033246.00,,081.62,081.58,051.4,009.03,009.03,009.05*4C
$GPRMC,033246.00,A,3917.26392,N,08203.79819,W,000.00,000.0,070214,07.2,W,D*32
$PTNLRBA,1,1*57
$GPZDA,033247.00,07,02,2014,,*65
$GPGGA,033247.00,3917.26392,N,08203.79819,W,2,11,0.81,00301,M,-033,M,,*5D
$GPGLL,3917.26392,N,08203.79819,W,033247.00,A,D*78
$GPVTG,000.0,T,007.2,M,000.00,N,000.00,K,D*23
$GPGSA,A,3,09,08,07,23,13,19,16,11,03,06,27,,1.69,0.81,1.49*03
$GPGSV,3,1,12,09,23,312,28,08,28,311,39,07,62,319,33,23,21,187,35*73
$GPGSV,3,2,12,13,46,215,37,19,73,109,24,16,25,065,34,11,28,158,37*7D
$GPGSV,3,3,12,03,59,055,41,51,38,217,36,06,32,048,39,27,43,050,44*78
$GPGST,033247.00,,089.47,089.44,051.2,009.46,009.46,009.48*48
$GPRMC,033247.00,A,3917.26392,N,08203.79819,W,000.00,000.0,070214,07.2,W,D*33
$PTNLRTF,V,A,444784,11,3,3917.26392,N,08203.79819,W,00301,+000.000,+000.000,+000.000,0,1*59
$PTNLRBA,1,1*57
$GPZDA,033249.00,07,02,2014,,*6B
$GPGGA,033249.00,3917.26392,N,08203.79818,W,2,11,0.81,00300,M,-033,M,,*53
$GPGLL,3917.26392,N,08203.79818,W,033249.00,A,D*77
$GPVTG,000.0,T,007.2,M,000.00,N,000.00,K,D*23
$GPGSA,A,3,09,08,07,23,13,19,16,11,03,06,27,,1.69,0.81,1.49*03
$GPGSV,3,1,12,09,23,312,29,08,28,311,39,07,62,319,33,23,21,187,35*72
$GPGSV,3,2,12,13,46,215,38,19,73,109,21,16,25,065,35,11,28,158,37*76
$GPGSV,3,3,12,03,59,055,41,51,38,217,36,06,32,048,39,27,43,050,44*78
$GPGST,033249.00,,105.44,105.41,051.0,010.27,010.27,010.29*4D
$GPRMC,033249.00,A,3917.26392,N,08203.79818,W,000.00,000.0,070214,07.2,W,D*3C
$PTNLRBA,1,1*57
$GPZDA,033251.00,07,02,2014,,*62
$GPGGA,033250.00,3917.26393,N,08203.79803,W,2,11,0.81,00300,M,-033,M,,*50
$GPGLL,3917.26393,N,08203.79803,W,033250.00,A,D*74
$GPVTG,086.3,T,093.5,M,000.39,N,000.72,K,D*2B
$GPGSA,A,3,09,08,07,23,13,19,16,11,03,06,27,,1.69,0.81,1.49*03
$GPGSV,3,1,12,09,23,312,30,08,28,311,40,07,62,319,33,23,21,187,36*77
$GPGSV,3,2,12,13,46,215,38,19,73,109,22,16,25,065,34,11,28,158,37*74
$GPGSV,3,3,12,03,59,055,40,51,38,217,37,06,32,048,39,27,43,050,44*78
$GPGST,033250.00,,108.17,108.13,049.0,010.40,010.40,010.42*40
$GPRMC,033250.00,A,3917.26393,N,08203.79803,W,000.39,086.3,070214,07.2,W,D*38
$PTNLRTF,V,A,444787,11,3,3917.26393,N,08203.79803,W,00300,+000.201,+000.013,-000.008,0,1*5E
$PTNLRBA,1,1*57
$GPZDA,033252.00,07,02,2014,,*61
$GPGGA,033252.00,3917.26392,N,08203.79803,W,2,11,0.81,00300,M,-033,M,,*53
$GPGLL,3917.26392,N,08203.79803,W,033252.00,A,D*77
$GPVTG,000.0,T,007.2,M,000.00,N,000.00,K,D*23
$GPGSA,A,3,09,08,07,23,13,19,16,11,03,06,27,,1.69,0.81,1.49*03
$GPGSV,3,1,12,09,23,312,29,08,28,311,40,07,62,319,33,23,21,187,36*7F
$GPGSV,3,2,12,13,46,215,38,19,73,109,19,16,25,065,35,11,28,158,37*7D
$GPGSV,3,3,12,03,59,055,41,51,38,217,36,06,32,048,39,27,43,050,45*79
$GPGST,033252.00,,150.78,150.75,049.4,012.28,012.28,012.29*40
$GPRMC,033252.00,A,3917.26392,N,08203.79803,W,000.00,000.0,070214,07.2,W,D*3C
$PTNLRTF,V,A,444788,11,3,3917.26392,N,08203.79803,W,00300,+000.000,+000.000,+000.000,0,1*5F
$PTNLRBA,1,1*57
$GPZDA,033254.00,07,02,2014,,*67
$GPGGA,033254.00,3917.26394,N,08203.79804,W,2,11,0.81,00300,M,-033,M,,*54
$GPGLL,3917.26394,N,08203.79804,W,033254.00,A,D*70
$GPVTG,000.0,T,007.2,M,000.00,N,000.00,K,D*23
$GPGSA,A,3,09,08,07,23,13,19,16,11,03,06,27,,1.69,0.81,1.49*03
$GPGSV,3,1,12,09,23,312,30,08,28,311,40,07,62,319,32,23,21,187,36*76
$GPGSV,3,2,12,13,46,215,37,19,73,109,22,16,25,065,35,11,28,158,37*7A
$GPGSV,3,3,12,03,59,055,40,51,38,217,36,06,32,048,40,27,43,050,45*76
$GPGST,033254.00,,142.33,142.29,049.5,011.93,011.93,011.94*44
$GPRMC,033254.00,A,3917.26394,N,08203.79804,W,000.00,000.0,070214,07.2,W,D*3B
$PTNLRTF,V,A,444790,11,3,3917.26394,N,08203.79804,W,00300,+000.000,+000.000,+000.000,0,1*57
$PTNLRBA,1,1*57
$GPZDA,033255.00,07,02,2014,,*66
$GPGGA,033255.00,3917.26394,N,08203.79804,W,2,11,0.81,00300,M,-033,M,,*55
$GPGLL,3917.26394,N,08203.79804,W,033255.00,A,D*71
$GPVTG,000.0,T,007.2,M,000.00,N,000.00,K,D*23
$GPGSA,A,3,09,08,07,23,13,19,16,11,03,06,27,,1.69,0.81,1.49*03
$GPGSV,3,1,12,09,23,312,30,08,28,311,39,07,62,319,32,23,21,187,36*78
$GPGSV,3,2,12,13,46,215,37,19,73,109,22,16,25,065,35,11,28,158,37*7A
$GPGSV,3,3,12,03,59,055,40,51,38,217,37,06,32,048,40,27,43,050,45*77
$GPGST,033255.00,,140.31,140.27,049.5,011.84,011.84,011.86*4A
$GPRMC,033255.00,A,3917.26394,N,08203.79804,W,000.00,000.0,070214,07.2,W,D*3A
$PTNLRTF,V,A,444791,11,3,3917.26394,N,08203.79804,W,00300,+000.000,+000.000,+000.000,0,1*56
$PTNLRBA,1,1*57
$GPZDA,033257.00,07,02,2014,,*64
$GPGGA,033257.00,3917.26393,N,08203.79804,W,2,11,0.81,00300,M,-033,M,,*50
$GPGLL,3917.26393,N,08203.79804,W,033257.00,A,D*74
$GPVTG,000.0,T,007.2,M,000.00,N,000.00,K,D*23
$GPGSA,A,3,09,08,07,23,13,19,16,11,03,06,27,,1.69,0.81,1.49*03
$GPGSV,3,1,12,09,23,312,31,08,28,311,40,07,62,319,32,23,21,187,36*77
$GPGSV,3,2,12,13,46,215,37,19,73,109,23,16,25,065,35,11,28,158,37*7B
$GPGSV,3,3,12,03,59,055,40,51,38,217,37,06,32,048,41,27,43,050,45*76
$GPGST,033257.00,,126.26,126.22,049.5,011.24,011.24,011.25*42
$GPRMC,033257.00,A,3917.26393,N,08203.79804,W,000.00,000.0,070214,07.2,W,D*3F
$PTNLRTF,V,A,444793,11,3,3917.26393,N,08203.79804,W,00300,+000.000,+000.000,+000.000,0,1*53
$PTNLRBA,1,1*57
$GPZDA,033258.00,07,02,2014,,*6B
$GPGGA,033258.00,3917.26393,N,08203.79804,W,2,11,0.81,00300,M,-033,M,,*5F
$GPGLL,3917.26393,N,08203.79804,W,033258.00,A,D*7B
$GPVTG,000.0,T,007.2,M,000.00,N,000.00,K,D*23
$GPGSA,A,3,09,08,07,23,13,19,16,11,03,06,27,,1.69,0.81,1.49*03
$GPGSV,3,1,12,09,23,312,30,08,28,311,40,07,62,319,32,23,21,187,36*76
$GPGSV,3,2,12,13,46,215,37,19,73,109,23,16,25,065,36,11,28,158,37*78
$GPGSV,3,3,12,03,59,055,40,51,38,217,36,06,32,048,41,27,43,050,45*77
$GPGST,033258.00,,120.65,120.61,049.5,010.98,010.98,011.00*4A
$GPRMC,033258.00,A,3917.26393,N,08203.79804,W,000.00,000.0,070214,07.2,W,D*30
