$GPZDA,,,,,,*48
$GPGGA,,3917.26801,N,08203.79485,W,7,00,,,,,,,*47
$GPGLL,3917.26801,N,08203.79485,W,,V,M*41
$GPVTG,,,,,,,,,M*33
$GPGSA,A,1,,,,,,,,,,,,,,,*1E
$GPGSV,2,1,06,03,,000,36,27,,000,35,06,,000,36,21,,000,42*7F
$GPGSV,2,2,06,18,,000,39,24,,000,36,,,,,,,,*7F
$GPRMC,,V,3917.26801,N,08203.79485,W,,,,,,M*76
$PTNLRTF,V,A,,00,0,,,,,,,,,,*4D
$PTNLRBA,1,1*57
$GPZDA,,,,,,*48
$GPGGA,,3917.26801,N,08203.79485,W,7,00,,,,,,,*47
$GPGLL,3917.26801,N,08203.79485,W,,V,M*41
$GPVTG,,,,,,,,,M*33
$GPGSA,A,1,,,,,,,,,,,,,,,*1E
$GPGSV,3,1,09,03,,000,36,27,,000,36,06,,000,35,21,,000,44*77
$GPGSV,3,2,09,18,,000,38,24,,000,38,22,,000,38,15,,000,39*7B
$GPGSV,3,3,09,26,,000,33,,,,,,,,,,,,*44
$GPRMC,,V,3917.26801,N,08203.79485,W,,,,,,M*76
$PTNLRTF,V,A,,00,0,,,,,,,,,,*4D
$PTNLRBA,1,1*57
$GPZDA,,,,,,*48
$GPGGA,,3917.26801,N,08203.79485,W,7,00,,,,,,,*47
$GPGLL,3917.26801,N,08203.79485,W,,V,M*41
$GPVTG,,,,,,,,,M*33
$GPGSA,A,1,,,,,,,,,,,,,,,*1E
$GPGSV,3,1,09,03,,000,36,27,,000,36,06,,000,35,21,,000,44*77
$GPGSV,3,2,09,18,,000,39,24,,000,38,22,,000,38,15,,000,40*74
$GPGSV,3,3,09,26,,000,34,,,,,,,,,,,,*43
$GPRMC,,V,3917.26801,N,08203.79485,W,,,,,,M*76
$PTNLRTF,V,A,,00,0,,,,,,,,,,*4D
$PTNLRBA,1,1*57
$GPZDA,,,,,,*48
$GPGGA,,3917.26801,N,08203.79485,W,7,00,,,,,,,*47
$GPGLL,3917.26801,N,08203.79485,W,,V,M*41
$GPVTG,,,,,,,,,M*33
$GPGSA,A,1,,,,,,,,,,,,,,,*1E
$GPGSV,3,1,09,03,,000,35,27,,000,35,06,,000,35,21,,000,44*77
$GPGSV,3,2,09,18,,000,39,24,,000,38,22,,000,38,15,,000,40*74
$GPGSV,3,3,09,26,,000,34,,,,,,,,,,,,*43
$GPRMC,,V,3917.26801,N,08203.79485,W,,,,,,M*76
$PTNLRTF,V,A,,00,0,,,,,,,,,,*4D
$PTNLRBA,1,1*57
$GPZDA,,,,,,*48
$GPGGA,,3917.26801,N,08203.79485,W,7,00,,,,,,,*47
$GPGLL,3917.26801,N,08203.79485,W,,V,M*41
$GPVTG,,,,,,,,,M*33
$GPGSA,A,1,,,,,,,,,,,,,,,*1E
$GPGSV,3,1,09,03,,000,36,27,,000,35,06,,000,35,21,,000,44*74
$GPGSV,3,2,09,18,,000,39,24,,000,38,22,,000,39,15,,000,41*74
$GPGSV,3,3,09,26,,000,35,,,,,,,,,,,,*42
$GPRMC,,V,3917.26801,N,08203.79485,W,,,,,,M*76
$PTNLRTF,V,A,,00,0,,,,,,,,,,*4D
$PTNLRBA,1,1*57
$GPZDA,,,,,,*48
$GPGGA,,3917.26801,N,08203.79485,W,7,00,,,,,,,*47
$GPGLL,3917.26801,N,08203.79485,W,,V,M*41
$GPVTG,,,,,,,,,M*33
$GPGSA,A,1,,,,,,,,,,,,,,,*1E
$GPGSV,3,1,09,03,,000,36,27,,000,35,06,,000,35,21,,000,44*74
$GPGSV,3,2,09,18,,000,38,24,,000,39,22,,000,38,15,,000,41*75
$GPGSV,3,3,09,26,,000,35,,,,,,,,,,,,*42
$GPRMC,,V,3917.26801,N,08203.79485,W,,,,,,M*76
$PTNLRTF,V,A,,00,0,,,,,,,,,,*4D
$PTNLRBA,1,1*57
$GPZDA,,,,,,*48
$GPGGA,,3917.26801,N,08203.79485,W,7,00,,,,,,,*47
$GPGLL,3917.26801,N,08203.79485,W,,V,M*41
$GPVTG,,,,,,,,,M*33
$GPGSA,A,1,,,,,,,,,,,,,,,*1E
$GPGSV,3,1,09,03,,000,36,27,,000,36,06,,000,34,21,,000,44*76
$GPGSV,3,2,09,18,,000,38,24,,000,39,22,,000,38,15,,000,41*75
$GPGSV,3,3,09,26,,000,34,,,,,,,,,,,,*43
$GPRMC,,V,3917.26801,N,08203.79485,W,,,,,,M*76
$PTNLRTF,V,A,,00,0,,,,,,,,,,*4D
$PTNLRBA,1,1*57
$GPZDA,221309.00,25,11,2013,,*6A
$GPGGA,221309.00,3917.25821,N,08203.79520,W,1,09,1.70,00282,M,-033,M,,*5F
$GPGLL,3917.25821,N,08203.79520,W,221309.00,A,A*70
$GPVTG,043.8,T,051.0,M,000.2,N,000.4,K,A*2E
$GPGSA,A,3,03,27,06,21,18,24,22,15,26,,,,2.36,1.70,1.64*0C
$GPGSV,3,1,09,03,,000,36,27,,000,35,06,,000,35,21,,000,44*74
$GPGSV,3,2,09,18,,000,39,24,,000,39,22,,000,38,15,,000,41*74
$GPGSV,3,3,09,26,,000,35,,,,,,,,,,,,*42
$GPGST,221309.00,,119.81,028.98,089.7,010.95,005.38,013.04*4A
$GPRMC,221309.00,A,3917.25821,N,08203.79520,W,000.2,043.8,251113,07.2,W,A*03
$PTNLRTF,V,A,166405,09,3,3917.25821,N,08203.79520,W,00282,+000.081,+000.085,-000.170,1,1*57
$PTNLRBA,1,1*57
$GPZDA,221310.00,25,11,2013,,*62
$GPGGA,221310.00,3917.26124,N,08203.79521,W,1,09,1.70,00296,M,-033,M,,*5C
$GPGLL,3917.26124,N,08203.79521,W,221310.00,A,A*76
$GPVTG,047.5,T,054.8,M,000.1,N,000.2,K,A*2F
$GPGSA,A,3,03,27,06,21,18,24,22,15,26,,,,2.36,1.70,1.64*0C
$GPGSV,3,1,09,03,,000,37,27,,000,35,06,,000,35,21,,000,44*75
$GPGSV,3,2,09,18,,000,38,24,,000,39,22,,000,38,15,,000,41*75
$GPGSV,3,3,09,26,,000,35,,,,,,,,,,,,*42
$GPGST,221310.00,,134.30,032.59,087.5,011.58,005.73,013.38*4D
$GPRMC,221310.00,A,3917.26124,N,08203.79521,W,000.1,047.5,251113,07.2,W,A*0F
$PTNLRTF,V,A,166406,09,3,3917.26124,N,08203.79521,W,00296,+000.043,+000.039,+000.073,1,1*52
$PTNLRBA,1,1*57
$GPZDA,221311.00,25,11,2013,,*63
$GPGGA,221311.00,3917.26149,N,08203.79529,W,1,09,1.70,00290,M,-033,M,,*58
$GPGLL,3917.26149,N,08203.79529,W,221311.00,A,A*74
$GPVTG,004.2,T,011.4,M,000.3,N,000.6,K,A*24
$GPGSA,A,3,03,27,06,21,18,24,22,15,26,,,,2.36,1.70,1.64*0C
$GPGSV,3,1,09,03,09,306,37,27,17,299,35,06,18,288,35,21,72,205,44*74
$GPGSV,3,2,09,18,67,328,39,24,48,118,39,22,36,295,38,15,46,049,42*7F
$GPGSV,3,3,09,26,06,048,35,,,,,,,,,,,,*48
$GPGST,221311.00,,112.90,019.86,088.4,010.62,004.46,011.96*4E
$GPRMC,221311.00,A,3917.26149,N,08203.79529,W,000.3,004.2,251113,07.2,W,A*0F
$PTNLRTF,V,A,166407,09,3,3917.26149,N,08203.79529,W,00290,+000.012,+000.168,+000.374,1,1*53
$PTNLRBA,1,1*57
