$GPZDA,,,,,,*48
$GPGGA,,3917.27092,N,08203.79243,W,7,00,,,,,,,*48
$GPGLL,3917.27092,N,08203.79243,W,,V,M*4E
$GPVTG,,,,,,,,,M*33
$GPGSA,A,1,,,,,,,,,,,,,,,*1E
$GPGSV,1,1,03,21,,000,45,27,,000,39,24,,000,42,,,,*47
$GPRMC,,V,3917.27092,N,08203.79243,W,,,,,,M*79
$PTNLRTF,V,A,,00,0,,,,,,,,,,*4D
$PTNLRBA,1,1*57
$GPZDA,,,,,,*48
$GPGGA,,3917.27092,N,08203.79243,W,7,00,,,,,,,*48
$GPGLL,3917.27092,N,08203.79243,W,,V,M*4E
$GPVTG,,,,,,,,,M*33
$GPGSA,A,1,,,,,,,,,,,,,,,*1E
$GPGSV,2,1,05,21,,000,45,27,,000,39,24,,000,43,22,,000,37*77
$GPGSV,2,2,05,15,,000,41,,,,,,,,,,,,*4D
$GPRMC,,V,3917.27092,N,08203.79243,W,,,,,,M*79
$PTNLRTF,V,A,,00,0,,,,,,,,,,*4D
$PTNLRBA,1,1*57
$GPZDA,,,,,,*48
$GPGGA,,3917.27092,N,08203.79243,W,7,00,,,,,,,*48
$GPGLL,3917.27092,N,08203.79243,W,,V,M*4E
$GPVTG,,,,,,,,,M*33
$GPGSA,A,1,,,,,,,,,,,,,,,*1E
$GPGSV,2,1,05,21,,000,45,27,,000,39,24,,000,43,22,,000,38*78
$GPGSV,2,2,05,15,,000,42,,,,,,,,,,,,*4E
$GPRMC,,V,3917.27092,N,08203.79243,W,,,,,,M*79
$PTNLRTF,V,A,,00,0,,,,,,,,,,*4D
$PTNLRBA,1,1*57
$GPZDA,,,,,,*48
$GPGGA,,3917.27092,N,08203.79243,W,7,00,,,,,,,*48
$GPGLL,3917.27092,N,08203.79243,W,,V,M*4E
$GPVTG,,,,,,,,,M*33
$GPGSA,A,1,,,,,,,,,,,,,,,*1E
$GPGSV,2,1,05,21,,000,45,27,,000,38,24,,000,43,22,,000,38*79
$GPGSV,2,2,05,15,,000,42,,,,,,,,,,,,*4E
$GPRMC,,V,3917.27092,N,08203.79243,W,,,,,,M*79
$PTNLRTF,V,A,,00,0,,,,,,,,,,*4D
$PTNLRBA,1,1*57
$GPZDA,,,,,,*48
$GPGGA,,3917.27092,N,08203.79243,W,7,00,,,,,,,*48
$GPGLL,3917.27092,N,08203.79243,W,,V,M*4E
$GPVTG,,,,,,,,,M*33
$GPGSA,A,1,,,,,,,,,,,,,,,*1E
$GPGSV,2,1,05,21,,000,45,27,,000,38,24,,000,43,22,,000,37*76
$GPGSV,2,2,05,15,,000,42,,,,,,,,,,,,*4E
$GPRMC,,V,3917.27092,N,08203.79243,W,,,,,,M*79
$PTNLRTF,V,A,,00,0,,,,,,,,,,*4D
$PTNLRBA,1,1*57
$GPZDA,,,,,,*48
$GPGGA,,3917.27092,N,08203.79243,W,7,00,,,,,,,*48
$GPGLL,3917.27092,N,08203.79243,W,,V,M*4E
$GPVTG,,,,,,,,,M*33
$GPGSA,A,1,,,,,,,,,,,,,,,*1E
$GPGSV,2,1,05,21,,000,45,27,,000,38,24,,000,43,22,,000,37*76
$GPGSV,2,2,05,15,,000,43,,,,,,,,,,,,*4F
$GPRMC,,V,3917.27092,N,08203.79243,W,,,,,,M*79
$PTNLRTF,V,A,,00,0,,,,,,,,,,*4D
$PTNLRBA,1,1*57
$GPZDA,,,,,,*48
$GPGGA,,3917.27092,N,08203.79243,W,7,00,,,,,,,*48
$GPGLL,3917.27092,N,08203.79243,W,,V,M*4E
$GPVTG,,,,,,,,,M*33
$GPGSA,A,1,,,,,,,,,,,,,,,*1E
$GPGSV,2,1,06,21,,000,45,27,,000,37,24,,000,43,22,,000,37*7A
$GPGSV,2,2,06,15,,000,43,03,,000,33,,,,,,,,*7F
$GPRMC,,V,3917.27092,N,08203.79243,W,,,,,,M*79
$PTNLRTF,V,A,,00,0,,,,,,,,,,*4D
$PTNLRBA,1,1*57
$GPZDA,220921.00,25,11,2013,,*6B
$GPGGA,220921.00,3917.26801,N,08203.79485,W,1,05,2.87,00304,M,-033,M,,*59
$GPGLL,3917.26801,N,08203.79485,W,220921.00,A,A*7E
$GPVTG,007.6,T,014.8,M,000.1,N,000.3,K,A*2D
$GPGSA,A,3,21,27,24,22,15,,,,,,,,4.75,2.87,3.79*00
$GPGSV,2,1,06,21,,000,45,27,,000,37,24,,000,43,22,,000,37*7A
$GPGSV,2,2,06,15,,000,42,03,,000,34,,,,,,,,*79
$GPGST,220921.00,,132.35,042.77,086.5,011.49,006.57,021.74*41
$GPRMC,220921.00,A,3917.26801,N,08203.79485,W,000.1,007.6,251113,07.2,W,A*00
$PTNLRTF,V,A,166177,05,3,3917.26801,N,08203.79485,W,00304,+000.010,+000.074,-000.004,1,1*5F
$PTNLRBA,1,1*57
$GPZDA,220922.00,25,11,2013,,*68
$GPGGA,220922.00,3917.26007,N,08203.79589,W,1,05,2.87,00279,M,-033,M,,*52
$GPGLL,3917.26007,N,08203.79589,W,220922.00,A,A*7E
$GPVTG,007.8,T,015.1,M,000.3,N,000.6,K,A*2C
$GPGSA,A,3,21,27,24,22,15,,,,,,,,4.75,2.87,3.79*00
$GPGSV,2,1,06,21,,000,45,27,,000,37,24,,000,43,22,,000,37*7A
$GPGSV,2,2,06,15,,000,42,03,,000,34,,,,,,,,*79
$GPGST,220922.00,,132.40,042.77,086.5,011.49,006.56,021.75*40
$GPRMC,220922.00,A,3917.26007,N,08203.79589,W,000.3,007.8,251113,07.2,W,A*0C
$PTNLRTF,V,A,166178,05,3,3917.26007,N,08203.79589,W,00279,+000.022,+000.161,+000.087,1,1*51
$PTNLRBA,1,1*57
$GPZDA,220923.00,25,11,2013,,*69
$GPGGA,220923.00,3917.26336,N,08203.79286,W,1,05,2.87,00278,M,-033,M,,*5B
$GPGLL,3917.26336,N,08203.79286,W,220923.00,A,A*76
$GPVTG,317.3,T,324.5,M,000.2,N,000.3,K,A*24
$GPGSA,A,3,21,27,24,22,15,,,,,,,,4.75,2.87,3.79*00
$GPGSV,2,1,06,21,74,209,45,27,17,301,37,24,47,120,43,22,34,294,37*7E
$GPGSV,2,2,06,15,48,049,42,03,09,308,34,,,,,,,,*7A
$GPGST,220923.00,,132.45,042.77,086.6,011.49,006.56,021.76*44
$GPRMC,220923.00,A,3917.26336,N,08203.79286,W,000.2,317.3,251113,07.2,W,A*0C
$PTNLRTF,V,A,166179,05,3,3917.26336,N,08203.79286,W,00278,-000.061,+000.066,+000.125,1,1*56
$PTNLRBA,1,1*57
$GPZDA,220925.00,25,11,2013,,*6F
$GPGGA,220925.00,3917.26359,N,08203.79338,W,1,05,2.87,00289,M,-033,M,,*5E
$GPGLL,3917.26359,N,08203.79338,W,220925.00,A,A*7D
$GPVTG,268.7,T,275.9,M,000.1,N,000.1,K,A*21
$GPGSA,A,3,21,27,24,22,15,,,,,,,,4.75,2.87,3.79*00
$GPGSV,2,1,08,21,74,209,45,27,17,301,37,24,47,120,43,22,34,294,37*70
$GPGSV,2,2,08,15,48,049,42,03,09,308,34,06,18,289,34,14,17,231,30*7F
$GPGST,220925.00,,132.52,042.76,086.6,011.50,006.56,021.77*4C
$GPRMC,220925.00,A,3917.26359,N,08203.79338,W,000.1,268.7,251113,07.2,W,A*09
$PTNLRTF,V,A,166181,05,3,3917.26359,N,08203.79338,W,00289,-000.026,-000.001,-000.000,1,1*56
$PTNLRBA,1,1*57
$GPZDA,220926.00,25,11,2013,,*6C
$GPGGA,220926.00,3917.26390,N,08203.79484,W,1,05,2.87,00283,M,-033,M,,*52
$GPGLL,3917.26390,N,08203.79484,W,220926.00,A,A*7B
$GPVTG,100.0,T,107.3,M,000.0,N,000.1,K,A*26
$GPGSA,A,3,21,27,24,22,15,,,,,,,,4.75,2.87,3.79*00
$GPGSV,3,1,10,21,74,209,45,27,17,301,37,24,47,120,43,22,34,294,37*78
$GPGSV,3,2,10,15,48,049,42,03,09,308,34,06,18,289,34,14,17,231,27*71
$GPGSV,3,3,10,26,08,048,34,46,39,203,42,,,,,,,,*70
$GPGST,220926.00,,132.57,042.76,086.6,011.50,006.56,021.78*45
$GPRMC,220926.00,A,3917.26390,N,08203.79484,W,000.0,100.0,251113,07.2,W,A*04
$PTNLRTF,V,A,166182,05,3,3917.26390,N,08203.79484,W,00283,+000.021,-000.004,-000.139,1,1*55
$PTNLRBA,1,1*57
$GPZDA,220927.00,25,11,2013,,*6D
$GPGGA,220927.00,3917.26145,N,08203.79493,W,1,05,2.86,00284,M,-033,M,,*59
$GPGLL,3917.26145,N,08203.79493,W,220927.00,A,A*76
$GPVTG,111.4,T,118.6,M,000.2,N,000.3,K,A*29
$GPGSA,A,3,21,27,24,22,15,,,,,,,,4.75,2.86,3.79*01
$GPGSV,3,1,10,21,74,209,45,27,17,301,36,24,47,120,43,22,34,294,37*79
$GPGSV,3,2,10,15,48,049,42,03,09,308,33,06,18,289,34,14,17,231,27*76
$GPGSV,3,3,10,26,08,048,34,46,39,203,43,,,,,,,,*71
$GPGST,220927.00,,132.62,042.76,086.6,011.50,006.56,021.79*43
$GPRMC,220927.00,A,3917.26145,N,08203.79493,W,000.2,111.4,251113,07.2,W,A*0F
$PTNLRTF,V,A,166183,05,3,3917.26145,N,08203.79493,W,00284,+000.074,-000.029,-000.010,1,1*5A
$PTNLRBA,1,1*57
$GPZDA,220928.00,25,11,2013,,*62
$GPGGA,220928.00,3917.26633,N,08203.79578,W,1,05,2.01,00294,M,-033,M,,*5A
$GPGLL,3917.26633,N,08203.79578,W,220928.00,A,A*7B
$GPVTG,341.4,T,348.6,M,000.1,N,000.2,K,A*2B
$GPGSA,A,3,21,27,24,22,15,,,,,,,,3.76,2.01,3.18*0D
$GPGSV,3,1,10,21,74,209,45,27,17,301,37,24,47,120,43,22,34,294,37*78
$GPGSV,3,2,10,15,48,049,42,03,09,308,34,06,18,289,34,14,17,231,26*70
$GPGSV,3,3,10,26,08,048,34,46,39,203,42,,,,,,,,*70
$GPGST,220928.00,,132.80,042.88,086.7,011.51,006.57,021.80*46
$GPRMC,220928.00,A,3917.26633,N,08203.79578,W,000.1,341.4,251113,07.2,W,A*06
$PTNLRTF,V,A,166184,05,3,3917.26633,N,08203.79578,W,00294,-000.021,+000.064,+000.067,0,1*50
$PTNLRBA,1,1*57
$GPZDA,220930.00,25,11,2013,,*6B
$GPGGA,220930.00,3917.26522,N,08203.79581,W,1,09,1.05,00297,M,-033,M,,*5E
$GPGLL,3917.26522,N,08203.79581,W,220930.00,A,A*77
$GPVTG,332.4,T,339.6,M,000.1,N,000.2,K,A*29
$GPGSA,A,3,21,27,24,22,15,03,06,14,26,,,,1.80,1.05,1.46*0C
$GPGSV,3,1,10,21,74,209,45,27,17,301,37,24,47,120,43,22,34,294,37*78
$GPGSV,3,2,10,15,48,049,42,03,09,308,33,06,18,289,34,14,17,231,26*77
$GPGSV,3,3,10,26,08,048,34,46,39,203,42,,,,,,,,*70
$GPGST,220930.00,,055.77,021.55,087.1,007.46,004.65,010.64*4F
$GPRMC,220930.00,A,3917.26522,N,08203.79581,W,000.1,332.4,251113,07.2,W,A*0E
$PTNLRTF,V,A,166186,09,3,3917.26522,N,08203.79581,W,00297,-000.032,+000.061,+000.019,0,1*56
$PTNLRBA,1,1*57
$GPZDA,220931.00,25,11,2013,,*6A
$GPGGA,220931.00,3917.26365,N,08203.79602,W,1,09,1.05,00294,M,-033,M,,*51
$GPGLL,3917.26365,N,08203.79602,W,220931.00,A,A*7B
$GPVTG,192.1,T,199.4,M,000.5,N,000.9,K,A*21
$GPGSA,A,3,21,27,24,22,15,03,06,14,26,,,,1.80,1.05,1.46*0C
$GPGSV,3,1,10,21,74,209,45,27,17,301,37,24,47,120,43,22,34,294,37*78
$GPGSV,3,2,10,15,48,049,42,03,09,308,33,06,18,289,34,14,17,231,25*74
$GPGSV,3,3,10,26,08,048,34,46,39,203,42,,,,,,,,*70
$GPGST,220931.00,,055.07,027.93,087.3,007.42,005.29,009.86*4E
$GPRMC,220931.00,A,3917.26365,N,08203.79602,W,000.5,192.1,251113,07.2,W,A*0B
$PTNLRTF,V,A,166187,09,3,3917.26365,N,08203.79602,W,00294,-000.052,-000.244,-000.100,0,1*53
$PTNLRBA,1,1*57
$GPZDA,220933.00,25,11,2013,,*68
$GPGGA,220933.00,3917.26270,N,08203.79555,W,1,09,1.05,00290,M,-033,M,,*53
$GPGLL,3917.26270,N,08203.79555,W,220933.00,A,A*7D
$GPVTG,023.4,T,030.7,M,000.2,N,000.3,K,A*23
$GPGSA,A,3,21,27,24,22,15,03,06,14,26,,,,1.80,1.05,1.46*0C
$GPGSV,3,1,10,21,74,209,45,27,17,301,37,24,47,120,43,22,34,294,38*77
$GPGSV,3,2,10,15,48,049,42,03,09,308,34,06,18,289,34,14,17,231,27*71
$GPGSV,3,3,10,26,08,048,34,46,39,203,42,,,,,,,,*70
$GPGST,220933.00,,044.57,027.00,088.1,006.67,005.20,008.56*4D
$GPRMC,220933.00,A,3917.26270,N,08203.79555,W,000.2,023.4,251113,07.2,W,A*04
$PTNLRTF,V,A,166189,09,3,3917.26270,N,08203.79555,W,00290,+000.034,+000.078,+000.083,0,1*5C
$PTNLRBA,1,1*57
$GPZDA,220934.00,25,11,2013,,*6F
$GPGGA,220934.00,3917.26274,N,08203.79567,W,1,09,1.05,00289,M,-033,M,,*59
$GPGLL,3917.26274,N,08203.79567,W,220934.00,A,A*7F
$GPVTG,282.9,T,290.1,M,000.3,N,000.5,K,A*2E
$GPGSA,A,3,21,27,24,22,15,03,06,14,26,,,,1.80,1.05,1.46*0C
$GPGSV,3,1,10,21,74,209,45,27,17,301,37,24,47,120,43,22,34,294,38*77
$GPGSV,3,2,10,15,48,049,41,03,09,308,33,06,18,289,34,14,17,231,26*74
$GPGSV,3,3,10,26,08,048,34,46,39,203,42,,,,,,,,*70
$GPGST,220934.00,,044.76,029.69,088.3,006.69,005.45,008.28*4E
$GPRMC,220934.00,A,3917.26274,N,08203.79567,W,000.3,282.9,251113,07.2,W,A*03
$PTNLRTF,V,A,166190,09,3,3917.26274,N,08203.79567,W,00289,-000.131,+000.030,+000.100,0,1*5D
$PTNLRBA,1,1*57
$GPZDA,220936.00,25,11,2013,,*6D
$GPGGA,220936.00,3917.26295,N,08203.79548,W,1,09,1.05,00289,M,-033,M,,*59
$GPGLL,3917.26295,N,08203.79548,W,220936.00,A,A*7F
$GPVTG,351.0,T,358.2,M,000.3,N,000.6,K,A*2D
$GPGSA,A,3,21,27,24,22,15,03,06,14,26,,,,1.80,1.05,1.46*0C
$GPGSV,3,1,10,21,74,209,45,27,17,301,37,24,47,120,43,22,34,294,38*77
$GPGSV,3,2,10,15,48,049,41,03,09,308,33,06,18,289,33,14,17,231,25*70
$GPGSV,3,3,10,26,08,048,34,46,39,203,42,,,,,,,,*70
$GPGST,220936.00,,042.47,030.81,088.4,006.52,005.55,007.79*43
$GPRMC,220936.00,A,3917.26295,N,08203.79548,W,000.3,351.0,251113,07.2,W,A*05
$PTNLRTF,V,A,166192,09,3,3917.26295,N,08203.79548,W,00289,-000.025,+000.159,-000.090,0,1*59
$PTNLRBA,1,1*57
$GPZDA,220937.00,25,11,2013,,*6C
$GPGGA,220937.00,3917.26293,N,08203.79526,W,1,09,1.05,00289,M,-033,M,,*56
$GPGLL,3917.26293,N,08203.79526,W,220937.00,A,A*70
$GPVTG,061.6,T,068.8,M,000.1,N,000.1,K,A*24
$GPGSA,A,3,21,27,24,22,15,03,06,14,26,,,,1.80,1.05,1.46*0C
$GPGSV,3,1,10,21,74,209,45,27,17,301,37,24,47,120,43,22,34,294,38*77
$GPGSV,3,2,10,15,48,049,41,03,09,308,33,06,18,289,33,14,17,231,25*70
$GPGSV,3,3,10,26,08,048,34,46,39,203,43,,,,,,,,*71
$GPGST,220937.00,,040.18,029.71,088.4,006.34,005.45,007.52*45
$GPRMC,220937.00,A,3917.26293,N,08203.79526,W,000.1,061.6,251113,07.2,W,A*0E
$PTNLRTF,V,A,166194,09,3,3917.26293,N,08203.79526,W,00289,+000.029,+000.015,+000.052,0,1*5A
$PTNLRBA,1,1*57
$GPZDA,220939.00,25,11,2013,,*62
$GPGGA,220939.00,3917.26291,N,08203.79491,W,1,09,1.05,00289,M,-033,M,,*57
$GPGLL,3917.26291,N,08203.79491,W,220939.00,A,A*71
$GPVTG,000.0,T,007.2,M,000.0,N,000.0,K,A*26
$GPGSA,A,3,21,27,24,22,15,03,06,14,26,,,,1.80,1.05,1.46*0C
$GPGSV,3,1,10,21,74,209,46,27,17,301,39,24,47,120,43,22,34,294,38*7A
$GPGSV,3,2,10,15,48,049,41,03,09,308,33,06,18,289,34,14,17,231,27*75
$GPGSV,3,3,10,26,08,048,35,46,39,203,43,,,,,,,,*70
$GPGST,220939.00,,036.99,028.29,088.4,006.08,005.32,007.10*46
$GPRMC,220939.00,A,3917.26291,N,08203.79491,W,000.0,000.0,251113,07.2,W,A*0F
$PTNLRTF,V,A,166195,09,3,3917.26291,N,08203.79491,W,00289,+000.000,+000.000,+000.000,0,1*5C
$PTNLRBA,1,1*57
$GPZDA,220941.00,25,11,2013,,*6D
$GPGGA,220941.00,3917.26276,N,08203.79460,W,1,09,1.05,00288,M,-033,M,,*5E
$GPGLL,3917.26276,N,08203.79460,W,220941.00,A,A*79
$GPVTG,000.0,T,007.2,M,000.0,N,000.0,K,A*26
$GPGSA,A,3,21,27,24,22,15,03,06,14,26,,,,1.80,1.05,1.46*0C
$GPGSV,3,1,10,21,74,209,45,27,17,301,39,24,47,120,43,22,34,294,38*79
$GPGSV,3,2,10,15,48,049,41,03,09,308,33,06,18,289,34,14,17,231,25*77
$GPGSV,3,3,10,26,08,048,35,46,39,203,43,,,,,,,,*70
$GPGST,220941.00,,037.80,030.24,088.3,006.15,005.50,006.99*4B
$GPRMC,220941.00,A,3917.26276,N,08203.79460,W,000.0,000.0,251113,07.2,W,A*07
$PTNLRTF,V,A,166197,09,3,3917.26276,N,08203.79460,W,00288,+000.000,+000.000,+000.000,0,1*58
$PTNLRBA,1,1*57
$GPZDA,220942.00,25,11,2013,,*6E
$GPGGA,220942.00,3917.26257,N,08203.79445,W,1,09,1.05,00288,M,-033,M,,*59
$GPGLL,3917.26257,N,08203.79445,W,220942.00,A,A*7E
$GPVTG,000.0,T,007.2,M,000.0,N,000.0,K,A*26
$GPGSA,A,3,21,27,24,22,15,03,06,14,26,,,,1.80,1.05,1.46*0C
$GPGSV,3,1,10,21,74,209,45,27,17,301,39,24,47,120,43,22,34,294,38*79
$GPGSV,3,2,10,15,48,049,41,03,09,308,32,06,18,289,34,14,17,231,25*76
$GPGSV,3,3,10,26,08,048,35,46,39,203,42,,,,,,,,*71
$GPGST,220942.00,,036.77,029.76,088.5,006.06,005.46,006.84*41
$GPRMC,220942.00,A,3917.26257,N,08203.79445,W,000.0,000.0,251113,07.2,W,A*00
$PTNLRTF,V,A,166198,09,3,3917.26257,N,08203.79445,W,00288,+000.000,+000.000,+000.000,0,1*53
$PTNLRBA,1,1*57
$GPZDA,220944.00,25,11,2013,,*68
$GPGGA,220944.00,3917.26219,N,08203.79399,W,1,09,1.05,00287,M,-033,M,,*5C
$GPGLL,3917.26219,N,08203.79399,W,220944.00,A,A*74
$GPVTG,000.0,T,007.2,M,000.0,N,000.0,K,A*26
$GPGSA,A,3,21,27,24,22,15,03,06,14,26,,,,1.80,1.05,1.46*0C
$GPGSV,3,1,10,21,74,209,45,27,17,301,40,24,47,120,43,22,34,294,38*77
$GPGSV,3,2,10,15,48,049,41,03,09,308,33,06,18,289,34,14,17,231,27*75
$GPGSV,3,3,10,26,08,048,35,46,39,203,42,,,,,,,,*71
$GPGST,220944.00,,040.20,034.14,088.9,006.34,005.84,006.98*42
$GPRMC,220944.00,A,3917.26219,N,08203.79399,W,000.0,000.0,251113,07.2,W,A*0A
$PTNLRTF,V,A,166200,09,3,3917.26219,N,08203.79399,W,00287,+000.000,+000.000,+000.000,0,1*52
$PTNLRBA,1,1*57
$GPZDA,220945.00,25,11,2013,,*69
$GPGGA,220945.00,3917.26208,N,08203.79389,W,1,09,1.05,00287,M,-033,M,,*5C
$GPGLL,3917.26208,N,08203.79389,W,220945.00,A,A*74
$GPVTG,000.0,T,007.2,M,000.0,N,000.0,K,A*26
$GPGSA,A,3,21,27,24,22,15,03,06,14,26,,,,1.80,1.05,1.46*0C
$GPGSV,3,1,10,21,74,209,45,27,17,301,40,24,47,120,43,22,34,294,38*77
$GPGSV,3,2,10,15,48,049,41,03,09,308,31,06,18,289,35,14,17,231,26*77
$GPGSV,3,3,10,26,08,048,35,46,39,203,43,,,,,,,,*70
$GPGST,220945.00,,049.33,043.67,089.0,007.02,006.61,007.57*4A
$GPRMC,220945.00,A,3917.26208,N,08203.79389,W,000.0,000.0,251113,07.2,W,A*0A
$PTNLRTF,V,A,166201,09,3,3917.26208,N,08203.79389,W,00287,+000.000,+000.000,+000.000,0,1*52
$PTNLRBA,1,1*57
