$GPZDA,,,,,,*48
$GPGGA,,3917.26161,N,08203.79979,W,7,00,,,,,,,*46
$GPGLL,3917.26161,N,08203.79979,W,,V,M*40
$GPVTG,,,,,,,,,M*33
$GPGSA,A,1,,,,,,,,,,,,,,,*1E
$GPGSV,1,1,00,,,,,,,,,,,,,,,,*79
$GPRMC,,V,3917.26161,N,08203.79979,W,,,,,,M*77
$PTNLRTF,V,A,,00,0,,,,,,,,,,*4D
$PTNLRBA,1,1*57
$GPZDA,,,,,,*48
$GPGGA,,3917.26161,N,08203.79979,W,7,00,,,,,,,*46
$GPGLL,3917.26161,N,08203.79979,W,,V,M*40
$GPVTG,,,,,,,,,M*33
$GPGSA,A,1,,,,,,,,,,,,,,,*1E
$GPGSV,1,1,00,,,,,,,,,,,,,,,,*79
$GPRMC,,V,3917.26161,N,08203.79979,W,,,,,,M*77
$PTNLRTF,V,A,,00,0,,,,,,,,,,*4D
$PTNLRBA,1,1*57
$GPZDA,,,,,,*48
$GPGGA,,3917.26161,N,08203.79979,W,7,00,,,,,,,*46
$GPGLL,3917.26161,N,08203.79979,W,,V,M*40
$GPVTG,,,,,,,,,M*33
$GPGSA,A,1,,,,,,,,,,,,,,,*1E
$GPGSV,1,1,00,,,,,,,,,,,,,,,,*79
$GPRMC,,V,3917.26161,N,08203.79979,W,,,,,,M*77
$PTNLRTF,V,A,,00,0,,,,,,,,,,*4D
$PTNLRBA,1,1*57
$GPZDA,,,,,,*48
$GPGGA,,3917.26161,N,08203.79979,W,7,00,,,,,,,*46
$GPGLL,3917.26161,N,08203.79979,W,,V,M*40
$GPVTG,,,,,,,,,M*33
$GPGSA,A,1,,,,,,,,,,,,,,,*1E
$GPGSV,1,1,00,,,,,,,,,,,,,,,,*79
$GPRMC,,V,3917.26161,N,08203.79979,W,,,,,,M*77
$PTNLRTF,V,A,,00,0,,,,,,,,,,*4D
$PTNLRBA,1,1*57
$GPZDA,,,,,,*48
$GPGGA,,3917.26161,N,08203.79979,W,7,00,,,,,,,*46
$GPGLL,3917.26161,N,08203.79979,W,,V,M*40
$GPVTG,,,,,,,,,M*33
$GPGSA,A,1,,,,,,,,,,,,,,,*1E
$GPGSV,1,1,00,,,,,,,,,,,,,,,,*79
$GPRMC,,V,3917.26161,N,08203.79979,W,,,,,,M*77
$PTNLRTF,V,A,,00,0,,,,,,,,,,*4D
$PTNLRBA,1,1*57
$GPZDA,,,,,,*48
$GPGGA,,3917.26161,N,08203.79979,W,7,00,,,,,,,*46
$GPGLL,3917.26161,N,08203.79979,W,,V,M*40
$GPVTG,,,,,,,,,M*33
$GPGSA,A,1,,,,,,,,,,,,,,,*1E
$GPGSV,1,1,00,,,,,,,,,,,,,,,,*79
$GPRMC,,V,3917.26161,N,08203.79979,W,,,,,,M*77
$PTNLRTF,V,A,,00,0,,,,,,,,,,*4D
$PTNLRBA,1,1*57
$GPZDA,,,,,,*48
$GPGGA,,3917.26161,N,08203.79979,W,7,00,,,,,,,*46
$GPGLL,3917.26161,N,08203.79979,W,,V,M*40
$GPVTG,,,,,,,,,M*33
$GPGSA,A,1,,,,,,,,,,,,,,,*1E
$GPGSV,1,1,00,,,,,,,,,,,,,,,,*79
$GPRMC,,V,3917.26161,N,08203.79979,W,,,,,,M*77
$PTNLRTF,V,A,,00,0,,,,,,,,,,*4D
$PTNLRBA,1,1*57
$GPZDA,,,,,,*48
$GPGGA,,3917.26161,N,08203.79979,W,7,00,,,,,,,*46
$GPGLL,3917.26161,N,08203.79979,W,,V,M*40
$GPVTG,,,,,,,,,M*33
$GPGSA,A,1,,,,,,,,,,,,,,,*1E
$GPGSV,1,1,00,,,,,,,,,,,,,,,,*79
$GPRMC,,V,3917.26161,N,08203.79979,W,,,,,,M*77
$PTNLRTF,V,A,,00,0,,,,,,,,,,*4D
$PTNLRBA,1,1*57
$GPZDA,,,,,,*48
$GPGGA,,3917.26161,N,08203.79979,W,7,00,,,,,,,*46
$GPGLL,3917.26161,N,08203.79979,W,,V,M*40
$GPVTG,,,,,,,,,M*33
$GPGSA,A,1,,,,,,,,,,,,,,,*1E
$GPGSV,1,1,00,,,,,,,,,,,,,,,,*79
$GPRMC,,V,3917.26161,N,08203.79979,W,,,,,,M*77
$PTNLRTF,V,A,,00,0,,,,,,,,,,*4D
$PTNLRBA,1,1*57
$GPZDA,,,,,,*48
$GPGGA,,3917.26161,N,08203.79979,W,7,00,,,,,,,*46
$GPGLL,3917.26161,N,08203.79979,W,,V,M*40
$GPVTG,,,,,,,,,M*33
$GPGSA,A,1,,,,,,,,,,,,,,,*1E
$GPGSV,1,1,00,,,,,,,,,,,,,,,,*79
$GPRMC,,V,3917.26161,N,08203.79979,W,,,,,,M*77
$PTNLRTF,V,A,,00,0,,,,,,,,,,*4D
$PTNLRBA,1,1*57
$GPZDA,,,,,,*48
$GPGGA,,3917.26161,N,08203.79979,W,7,00,,,,,,,*46
$GPGLL,3917.26161,N,08203.79979,W,,V,M*40
$GPVTG,,,,,,,,,M*33
$GPGSA,A,1,,,,,,,,,,,,,,,*1E
$GPGSV,1,1,00,,,,,,,,,,,,,,,,*79
$GPRMC,,V,3917.26161,N,08203.79979,W,,,,,,M*77
$PTNLRTF,V,A,,00,0,,,,,,,,,,*4D
$PTNLRBA,1,1*57
$GPZDA,,,,,,*48
$GPGGA,,3917.26161,N,08203.79979,W,7,00,,,,,,,*46
$GPGLL,3917.26161,N,08203.79979,W,,V,M*40
$GPVTG,,,,,,,,,M*33
$GPGSA,A,1,,,,,,,,,,,,,,,*1E
$GPGSV,1,1,00,,,,,,,,,,,,,,,,*79
$GPRMC,,V,3917.26161,N,08203.79979,W,,,,,,M*77
$PTNLRTF,V,A,,00,0,,,,,,,,,,*4D
$PTNLRBA,1,1*57
$GPZDA,,,,,,*48
$GPGGA,,3917.26161,N,08203.79979,W,7,00,,,,,,,*46
$GPGLL,3917.26161,N,08203.79979,W,,V,M*40
$GPVTG,,,,,,,,,M*33
$GPGSA,A,1,,,,,,,,,,,,,,,*1E
$GPGSV,1,1,00,,,,,,,,,,,,,,,,*79
$GPRMC,,V,3917.26161,N,08203.79979,W,,,,,,M*77
$PTNLRTF,V,A,,00,0,,,,,,,,,,*4D
$PTNLRBA,1,1*57
$GPZDA,,,,,,*48
$GPGGA,,3917.26161,N,08203.79979,W,7,00,,,,,,,*46
$GPGLL,3917.26161,N,08203.79979,W,,V,M*40
$GPVTG,,,,,,,,,M*33
$GPGSA,A,1,,,,,,,,,,,,,,,*1E
$GPGSV,1,1,00,,,,,,,,,,,,,,,,*79
$GPRMC,,V,3917.26161,N,08203.79979,W,,,,,,M*77
$PTNLRTF,V,A,,00,0,,,,,,,,,,*4D
$PTNLRBA,1,1*57
$GPZDA,,,,,,*48
$GPGGA,,3917.26161,N,08203.79979,W,7,00,,,,,,,*46
$GPGLL,3917.26161,N,08203.79979,W,,V,M*40
$GPVTG,,,,,,,,,M*33
$GPGSA,A,1,,,,,,,,,,,,,,,*1E
$GPGSV,1,1,00,,,,,,,,,,,,,,,,*79
$GPRMC,,V,3917.26161,N,08203.79979,W,,,,,,M*77
$PTNLRTF,V,A,,00,0,,,,,,,,,,*4D
$PTNLRBA,1,1*57
$GPZDA,,,,,,*48
$GPGGA,,3917.26161,N,08203.79979,W,7,00,,,,,,,*46
$GPGLL,3917.26161,N,08203.79979,W,,V,M*40
$GPVTG,,,,,,,,,M*33
$GPGSA,A,1,,,,,,,,,,,,,,,*1E
$GPGSV,1,1,00,,,,,,,,,,,,,,,,*79
$GPRMC,,V,3917.26161,N,08203.79979,W,,,,,,M*77
$PTNLRTF,V,A,,00,0,,,,,,,,,,*4D
$PTNLRBA,1,1*57
$GPZDA,,,,,,*48
$GPGGA,,3917.26161,N,08203.79979,W,7,00,,,,,,,*46
$GPGLL,3917.26161,N,08203.79979,W,,V,M*40
$GPVTG,,,,,,,,,M*33
$GPGSA,A,1,,,,,,,,,,,,,,,*1E
$GPGSV,1,1,00,,,,,,,,,,,,,,,,*79
$GPRMC,,V,3917.26161,N,08203.79979,W,,,,,,M*77
$PTNLRTF,V,A,,00,0,,,,,,,,,,*4D
$PTNLRBA,1,1*57
$GPZDA,,,,,,*48
$GPGGA,,3917.26161,N,08203.79979,W,7,00,,,,,,,*46
$GPGLL,3917.26161,N,08203.79979,W,,V,M*40
$GPVTG,,,,,,,,,M*33
$GPGSA,A,1,,,,,,,,,,,,,,,*1E
$GPGSV,1,1,00,,,,,,,,,,,,,,,,*79
$GPRMC,,V,3917.26161,N,08203.79979,W,,,,,,M*77
$PTNLRTF,V,A,,00,0,,,,,,,,,,*4D
$PTNLRBA,1,1*57
$GPZDA,,,,,,*48
$GPGGA,,3917.26161,N,08203.79979,W,7,00,,,,,,,*46
$GPGLL,3917.26161,N,08203.79979,W,,V,M*40
$GPVTG,,,,,,,,,M*33
$GPGSA,A,1,,,,,,,,,,,,,,,*1E
$GPGSV,1,1,00,,,,,,,,,,,,,,,,*79
$GPRMC,,V,3917.26161,N,08203.79979,W,,,,,,M*77
$PTNLRTF,V,A,,00,0,,,,,,,,,,*4D
$PTNLRBA,1,1*57
$GPZDA,,,,,,*48
$GPGGA,,3917.26161,N,08203.79979,W,7,00,,,,,,,*46
$GPGLL,3917.26161,N,08203.79979,W,,V,M*40
$GPVTG,,,,,,,,,M*33
$GPGSA,A,1,,,,,,,,,,,,,,,*1E
$GPGSV,1,1,00,,,,,,,,,,,,,,,,*79
$GPRMC,,V,3917.26161,N,08203.79979,W,,,,,,M*77
$PTNLRTF,V,A,,00,0,,,,,,,,,,*4D
$PTNLRBA,1,1*57
$GPZDA,,,,,,*48
$GPGGA,,3917.26161,N,08203.79979,W,7,00,,,,,,,*46
$GPGLL,3917.26161,N,08203.79979,W,,V,M*40
$GPVTG,,,,,,,,,M*33
$GPGSA,A,1,,,,,,,,,,,,,,,*1E
$GPGSV,1,1,00,,,,,,,,,,,,,,,,*79
$GPRMC,,V,3917.26161,N,08203.79979,W,,,,,,M*77
$PTNLRTF,V,A,,00,0,,,,,,,,,,*4D
$PTNLRBA,1,1*57
$GPZDA,,,,,,*48
$GPGGA,,3917.26161,N,08203.79979,W,7,00,,,,,,,*46
$GPGLL,3917.26161,N,08203.79979,W,,V,M*40
$GPVTG,,,,,,,,,M*33
$GPGSA,A,1,,,,,,,,,,,,,,,*1E
$GPGSV,1,1,00,,,,,,,,,,,,,,,,*79
$GPRMC,,V,3917.26161,N,08203.79979,W,,,,,,M*77
$PTNLRTF,V,A,,00,0,,,,,,,,,,*4D
$PTNLRBA,1,1*57
$GPZDA,,,,,,*48
$GPGGA,,3917.26161,N,08203.79979,W,7,00,,,,,,,*46
$GPGLL,3917.26161,N,08203.79979,W,,V,M*40
$GPVTG,,,,,,,,,M*33
$GPGSA,A,1,,,,,,,,,,,,,,,*1E
$GPGSV,1,1,00,,,,,,,,,,,,,,,,*79
$GPRMC,,V,3917.26161,N,08203.79979,W,,,,,,M*77
$PTNLRTF,V,A,,00,0,,,,,,,,,,*4D
$PTNLRBA,1,1*57
$GPZDA,,,,,,*48
$GPGGA,,3917.26161,N,08203.79979,W,7,00,,,,,,,*46
$GPGLL,3917.26161,N,08203.79979,W,,V,M*40
$GPVTG,,,,,,,,,M*33
$GPGSA,A,1,,,,,,,,,,,,,,,*1E
$GPGSV,1,1,00,,,,,,,,,,,,,,,,*79
$GPRMC,,V,3917.26161,N,08203.79979,W,,,,,,M*77
$PTNLRTF,V,A,,00,0,,,,,,,,,,*4D
$PTNLRBA,1,1*57
$GPZDA,,,,,,*48
$GPGGA,,3917.26161,N,08203.79979,W,7,00,,,,,,,*46
$GPGLL,3917.26161,N,08203.79979,W,,V,M*40
$GPVTG,,,,,,,,,M*33
$GPGSA,A,1,,,,,,,,,,,,,,,*1E
$GPGSV,1,1,00,,,,,,,,,,,,,,,,*79
$GPRMC,,V,3917.26161,N,08203.79979,W,,,,,,M*77
$PTNLRTF,V,A,,00,0,,,,,,,,,,*4D
$PTNLRBA,1,1*57
$GPZDA,,,,,,*48
$GPGGA,,3917.26161,N,08203.79979,W,7,00,,,,,,,*46
$GPGLL,3917.26161,N,08203.79979,W,,V,M*40
$GPVTG,,,,,,,,,M*33
$GPGSA,A,1,,,,,,,,,,,,,,,*1E
$GPGSV,1,1,00,,,,,,,,,,,,,,,,*79
$GPRMC,,V,3917.26161,N,08203.79979,W,,,,,,M*77
$PTNLRTF,V,A,,00,0,,,,,,,,,,*4D
$PTNLRBA,1,1*57
