$GPZDA,015031.00,24,12,2013,,*65
$GPGGA,015031.00,4003.48202,N,08254.66301,W,2,08,0.93,00248,M,-033,M,,*58
$GPGLL,4003.48202,N,08254.66301,W,015031.00,A,D*7A
$GPVTG,000.0,T,006.7,M,000.00,N,000.00,K,D*27
$GPGSA,A,3,25,29,31,32,14,20,16,23,,,,,1.77,0.93,1.50*03
$GPGSV,3,1,09,25,20,042,31,29,13,074,34,31,65,030,39,32,60,250,38*7D
$GPGSV,3,2,09,14,32,107,37,20,37,297,34,16,26,193,43,46,43,203,45*70
$GPGSV,3,3,09,23,14,303,33,,,,,,,,,,,,*44
$GPGST,015031.00,,133.53,133.49,014.6,011.55,011.56,011.57*46
$GPRMC,015031.00,A,4003.48202,N,08254.66301,W,000.00,000.0,241213,06.7,W,D*32
$PTNLRTF,V$GPZDA,015034.00,24,12,2013,,*60
$GPGGA,015034.00,4003.48200,N,08254.66298,W,2,08,0.93,00248,M,-033,M,,*5E
$GPGLL,4003.48200,N,08254.66298,W,015034.00,A,D*7C
$GPVTG,000.0,T,006.7,M,000.00,N,000.00,K,D*27
$GPGSA,A,3,25,29,31,32,14,20,16,23,,,,,1.77,0.93,1.51*02
$GPGSV,3,1,09,25,20,042,31,29,13,074,32,31,64,030,39,32,60,250,39*7B
$GPGSV,3,2,09,14,31,107,37,20,37,297,34,16,26,193,42,46,43,203,44*73
$GPGSV,3,3,09,23,14,303,33,,,,,,,,,,,,*44
$GPGST,015034.00,,140.52,140.48,014.9,011.85,011.85,011.87*42
$GPRMC,015034.00,A,4003.48200,N,08254.66298,W,000.00,000.0,241213,06.7,W,D*34
$PTNLRTF,V,A,179450,08,3,4003.48200,N,08254.66298,W,00248,+000.000,+000.000,+000.000,0,1*5A
$PTNLRBA,1,1*57
$GPZDA,015035.00,24,12,2013,,*61
$GPGGA,015035.00,4003.48198,N,08254.66297,W,2,08,0.93,00248,M,-033,M,,*52
$GPGLL,4003.48198,N,08254.66297,W,015035.00,A,D*70
$GPVTG,000.0,T,006.7,M,000.00,N,000.00,K,D*27
$GPGSA,A,3,25,29,31,32,14,20,16,23,,,,,1.77,0.93,1.51*02
$GPGSV,3,1,09,25,20,042,31,29,13,074,30,31,64,030,39,32,60,250,38*78
$GPGSV,3,2,09,14,31,107,37,20,37,297,34,16,26,193,43,46,43,203,44*72
$GPGSV,3,3,09,23,14,303,35,,,,,,,,,,,,*42
$GPGST,015035.00,,133.30,133.26,015.0,011.54,011.55,011.56*4A
$GPRMC,015035.00,A,4003.48198,N,08254.66297,W,000.00,000.0,241213,06.7,W,D*38
$PTNLRTF,V,A,179451,08,3,4003.48198,N,08254.66297,W,00248,+000.000,+000.000,+000.000,0,1*56
$PTNLRBA,1,1*57
$GPZDA,015037.00,24,12,2013,,*63
$GPGGA,015037.00,4003.48196,N,08254.66292,W,2,08,0.93,00248,M,-033,M,,*5B
$GPGLL,4003.48196,N,08254.66292,W,015037.00,A,D*79
$GPVTG,000.0,T,006.7,M,000.00,N,000.00,K,D*27
$GPGSA,A,3,25,29,31,32,14,20,16,23,,,,,1.77,0.93,1.51*02
$GPGSV,3,1,09,25,20,042,30,29,13,074,32,31,64,030,38,32,60,250,39*7B
$GPGSV,3,2,09,14,31,107,37,20,37,297,34,16,26,193,42,46,43,203,44*73
$GPGSV,3,3,09,23,14,303,32,,,,,,,,,,,,*45
$GPGST,015037.00,,124.43,124.39,015.2,011.15,011.15,011.17*44
$GPRMC,015037.00,A,4003.48196,N,08254.66292,W,000.00,000.0,241213,06.7,W,D*31
$PTNLRTF,V,A,179453,08,3,4003.48196,N,08254.66292,W,00248,+000.000,+000.000,+000.000,0,1*5F
$PTNLRBA,1,1*57
$GPZDA,015038.00,24,12,2013,,*6C
$GPGGA,015038.00,4003.48195,N,08254.66290,W,2,08,0.93,00248,M,-033,M,,*55
$GPGLL,4003.48195,N,08254.66290,W,015038.00,A,D*77
$GPVTG,000.0,T,006.7,M,000.00,N,000.00,K,D*27
$GPGSA,A,3,25,29,31,32,14,20,16,23,,,,,1.77,0.93,1.51*02
$GPGSV,3,1,09,25,20,042,32,29,13,074,33,31,64,030,39,32,60,250,40*77
$GPGSV,3,2,09,14,31,107,37,20,37,297,34,16,26,193,42,46,43,203,44*73
$GPGSV,3,3,09,23,14,303,32,,,,,,,,,,,,*45
$GPGST,015038.00,,126.16,126.11,015.4,011.23,011.23,011.25*46
$GPRMC,015038.00,A,4003.48195,N,08254.66290,W,000.00,000.0,241213,06.7,W,D*3F
$PTNLRTF,V,A,179454,08,3,4003.48195,N,08254.66290,W,00248,+000.000,+000.000,+000.000,0,1*59
$PTNLRBA,1,1*57
$GPZDA,015040.00,24,12,2013,,*63
$GPGGA,015040.00,4003.48194,N,08254.66286,W,2,08,0.93,00248,M,-033,M,,*5C
$GPGLL,4003.48194,N,08254.66286,W,015040.00,A,D*7E
$GPVTG,000.0,T,006.7,M,000.00,N,000.00,K,D*27
$GPGSA,A,3,25,29,31,32,14,20,16,23,,,,,1.77,0.93,1.51*02
$GPGSV,3,1,09,25,20,042,31,29,13,074,31,31,64,030,39,32,60,250,40*76
$GPGSV,3,2,09,14,31,107,36,20,37,297,34,16,26,193,42,46,43,203,43*75
$GPGSV,3,3,09,23,14,303,31,,,,,,,,,,,,*46
$GPGST,015040.00,,133.25,133.21,015.7,011.54,011.54,011.56*4D
$GPRMC,015040.00,A,4003.48194,N,08254.66286,W,000.00,000.0,241213,06.7,W,D*36
$PTNLRTF,V,A,179456,08,3,4003.48194,N,08254.66286,W,00248,+000.000,+000.000,+000.000,0,1*5D
$PTNLRBA,1,1*57
$GPZDA,015041.00,24,12,2013,,*62
$GPGGA,015041.00,4003.48193,N,08254.66284,W,2,08,0.93,00248,M,-033,M,,*58
$GPGLL,4003.48193,N,08254.66284,W,015041.00,A,D*7A
$GPVTG,000.0,T,006.7,M,000.00,N,000.00,K,D*27
$GPGSA,A,3,25,29,31,32,14,20,16,23,,,,,1.77,0.93,1.51*02
$GPGSV,3,1,09,25,20,042,29,29,13,074,34,31,64,030,38,32,60,250,39*75
$GPGSV,3,2,09,14,31,107,35,20,37,297,34,16,26,193,42,46,43,203,43*76
$GPGSV,3,3,09,23,14,303,30,,,,,,,,,,,,*47
$GPGST,015041.00,,134.27,134.23,015.9,011.59,011.59,011.60*47
$GPRMC,015041.00,A,4003.48193,N,08254.66284,W,000.00,000.0,241213,06.7,W,D*32
$PTNLRTF,V,A,179457,08,3,4003.48193,N,08254.66284,W,00248,+000.000,+000.000,+000.000,0,1*59
$PTNLRBA,1,1*57
$GPZDA,015043.00,24,12,2013,,*60
$GPGGA,015043.00,4003.48191,N,08254.66281,W,2,08,0.93,00248,M,-033,M,,*5D
$GPGLL,4003.48191,N,08254.66281,W,015043.00,A,D*7F
$GPVTG,000.0,T,006.7,M,000.00,N,000.00,K,D*27
$GPGSA,A,3,25,29,31,32,14,20,16,23,,,,,1.77,0.93,1.51*02
$GPGSV,3,1,09,25,20,042,32,29,13,074,28,31,64,030,38,32,60,250,40*7C
$GPGSV,3,2,09,14,31,107,37,20,37,297,33,16,26,193,43,46,43,203,44*75
$GPGSV,3,3,09,23,14,303,32,,,,,,,,,,,,*45
$GPGST,015043.00,,132.37,132.33,016.0,011.50,011.51,011.52*4F
$GPRMC,015043.00,A,4003.48191,N,08254.66281,W,000.00,000.0,241213,06.7,W,D*37
$PTNLRTF,V,A,179459,08,3,4003.48191,N,08254.66281,W,00248,+000.000,+000.000,+000.000,0,1*50
$PTNLRBA,1,1*57
$GPZDA,015044.00,24,12,2013,,*67
$GPGGA,015044.00,4003.48190,N,08254.66273,W,2,08,0.93,00248,M,-033,M,,*56
$GPGLL,4003.48190,N,08254.66273,W,015044.00,A,D*74
$GPVTG,084.1,T,090.8,M,000.16,N,000.30,K,D*2E
$GPGSA,A,3,25,29,31,32,14,20,16,23,,,,,1.77,0.93,1.51*02
$GPGSV,3,1,09,25,20,042,30,29,13,074,25,31,64,030,38,32,60,250,39*7D
$GPGSV,3,2,09,14,31,107,37,20,37,297,33,16,26,193,43,46,43,203,43*72
$GPGSV,3,3,09,23,14,303,32,,,,,,,,,,,,*45
$GPGST,015044.00,,135.19,135.14,013.3,011.62,011.63,011.64*42
$GPRMC,015044.00,A,4003.48190,N,08254.66273,W,000.16,084.1,241213,06.7,W,D*36
$PTNLRTF,V,A,179461,08,3,4003.48190,N,08254.66273,W,00248,+000.082,+000.008,-000.010,0,1*52
$PTNLRBA,1,1*57
$GPZDA,015046.00,24,12,2013,,*65
$GPGGA,015046.00,4003.48189,N,08254.66270,W,2,08,0.93,00248,M,-033,M,,*5F
$GPGLL,4003.48189,N,08254.66270,W,015046.00,A,D*7D
$GPVTG,000.0,T,006.7,M,000.00,N,000.00,K,D*27
$GPGSA,A,3,25,29,31,32,14,20,16,23,,,,,1.77,0.93,1.51*02
$GPGSV,3,1,09,25,20,042,32,29,13,074,31,31,64,030,37,32,60,250,40*7B
$GPGSV,3,2,09,14,31,107,36,20,37,297,35,16,26,193,44,46,43,203,43*72
$GPGSV,3,3,09,23,14,303,31,,,,,,,,,,,,*46
$GPGST,015046.00,,133.18,133.12,015.7,011.54,011.54,011.55*46
$GPRMC,015046.00,A,4003.48189,N,08254.66270,W,000.00,000.0,241213,06.7,W,D*35
$PTNLRTF,V,A,179462,08,3,4003.48189,N,08254.66270,W,00248,+000.000,+000.000,+000.000,0,1*5F
$PTNLRBA,1,1*57
$GPZDA,015048.00,24,12,2013,,*6B
$GPGGA,015048.00,4003.48188,N,08254.66267,W,2,08,0.93,00248,M,-033,M,,*56
$GPGLL,4003.48188,N,08254.66267,W,015048.00,A,D*74
$GPVTG,000.0,T,006.7,M,000.00,N,000.00,K,D*27
$GPGSA,A,3,25,29,31,32,14,20,16,23,,,,,1.77,0.93,1.51*02
$GPGSV,3,1,09,25,20,042,31,29,13,074,28,31,64,030,38,32,60,250,40*7F
$GPGSV,3,2,09,14,31,107,37,20,37,297,35,16,26,193,43,46,43,203,43*74
$GPGSV,3,3,09,23,14,303,31,,,,,,,,,,,,*46
$GPGST,015048.00,,130.62,130.56,015.6,011.43,011.43,011.44*44
$GPRMC,015048.00,A,4003.48188,N,08254.66267,W,000.00,000.0,241213,06.7,W,D*3C
$PTNLRTF,V,A,179464,08,3,4003.48188,N,08254.66267,W,00248,+000.000,+000.000,+000.000,0,1*5E
$PTNLRBA,1,1*57
$GPZDA,015049.00,24,12,2013,,*6A
$GPGGA,015049.00,4003.48187,N,08254.66265,W,2,08,0.93,00248,M,-033,M,,*5A
$GPGLL,4003.48187,N,08254.66265,W,015049.00,A,D*78
$GPVTG,000.0,T,006.7,M,000.00,N,000.00,K,D*27
$GPGSA,A,3,25,29,31,32,14,20,16,23,,,,,1.77,0.93,1.51*02
$GPGSV,3,1,09,25,20,042,30,29,13,074,30,31,64,030,37,32,60,250,39*76
$GPGSV,3,2,09,14,31,107,37,20,37,297,36,16,26,193,43,46,43,203,43*77
$GPGSV,3,3,09,23,14,303,31,,,,,,,,,,,,*46
$GPGST,015049.00,,129.47,129.42,015.5,011.38,011.38,011.39*4E
$GPRMC,015049.00,A,4003.48187,N,08254.66265,W,000.00,000.0,241213,06.7,W,D*30
$PTNLRTF,V,A,179465,08,3,4003.48187,N,08254.66265,W,00248,+000.000,+000.000,+000.000,0,1*52
$PTNLRBA,1,1*57
$GPZDA,015052.00,24,12,2013,,*60
$GPGGA,015052.00,4003.48186,N,08254.66264,W,2,08,0.93,00248,M,-033,M,,*50
$GPGLL,4003.48186,N,08254.66264,W,015052.00,A,D*72
$GPVTG,000.0,T,006.7,M,000.00,N,000.00,K,D*27
$GPGSA,A,3,25,29,31,32,14,20,16,23,,,,,1.77,0.93,1.51*02
$GPGSV,3,1,09,25,20,042,32,29,13,074,31,31,64,030,38,32,60,250,39*7A
$GPGSV,3,2,09,14,31,107,35,20,37,297,36,16,26,193,43,46,43,203,43*75
$GPGSV,3,3,09,23,14,303,32,,,,,,,,,,,,*45
$GPGST,015052.00,,121.01,120.95,015.3,011.00,011.00,011.01*40
$GPRMC,015052.00,A,4003.48186,N,08254.66264,W,000.00,000.0,241213,06.7,W,D*3A
$PTNLRTF,V,A,179468,08,3,4003.48186,N,08254.66264,W,00248,+000.000,+000.000,+000.000,0,1*5F
$PTNLRBA,1,1*57
$GPZDA,015053.00,24,12,2013,,*61
$GPGGA,015053.00,4003.48190,N,08254.66262,W,2,08,0.93,00248,M,-033,M,,*50
$GPGLL,4003.48190,N,08254.66262,W,015053.00,A,D*72
$GPVTG,357.1,T,003.8,M,000.13,N,000.25,K,D*28
$GPGSA,A,3,25,29,31,32,14,20,16,23,,,,,1.77,0.93,1.51*02
$GPGSV,3,1,09,25,20,042,31,29,13,074,29,31,64,030,38,32,60,250,39*70
$GPGSV,3,2,09,14,31,107,35,20,37,297,37,16,26,193,43,46,43,203,44*73
$GPGSV,3,3,09,23,14,303,31,,,,,,,,,,,,*46
$GPGST,015053.00,,122.87,122.80,014.1,011.08,011.08,011.10*49
$GPRMC,015053.00,A,4003.48190,N,08254.66262,W,000.13,357.1,241213,06.7,W,D*38
$PTNLRTF,V,A,179469,08,3,4003.48190,N,08254.66262,W,00248,-000.003,+000.069,-000.018,0,1*5A
$PTNLRBA,1,1*57
$GPZDA,015054.00,24,12,2013,,*66
$GPGGA,015054.00,4003.48186,N,08254.66266,W,2,08,0.93,00248,M,-033,M,,*54
$GPGLL,4003.48186,N,08254.66266,W,015054.00,A,D*76
$GPVTG,200.5,T,207.2,M,000.23,N,000.42,K,D*21
$GPGSA,A,3,25,29,31,32,14,20,16,23,,,,,1.77,0.93,1.51*02
$GPGSV,3,1,09,25,20,042,34,29,13,074,26,31,64,030,37,32,60,250,40*7B
$GPGSV,3,2,09,14,31,107,37,20,37,297,35,16,26,193,47,46,43,203,42*71
$GPGSV,3,3,09,23,14,303,32,,,,,,,,,,,,*45
$GPGST,015054.00,,129.70,129.63,017.0,011.39,011.39,011.40*4C
$GPRMC,015054.00,A,4003.48186,N,08254.66266,W,000.23,200.5,241213,06.7,W,D*38
$PTNLRTF,V,A,179470,08,3,4003.48186,N,08254.66266,W,00248,-000.041,-000.110,+000.010,0,1*50
$PTNLRBA,1,1*57
$GPZDA,015055.00,24,12,2013,,*67
$GPGGA,015055.00,4003.48184,N,08254.66262,W,2,07,1.01,00248,M,-033,M,,*56
$GPGLL,4003.48184,N,08254.66262,W,015055.00,A,D*71
$GPVTG,120.0,T,126.7,M,000.18,N,000.34,K,D*29
$GPGSA,A,3,25,29,31,32,20,16,23,,,,,,1.82,1.01,1.51*07
$GPGSV,3,1,09,25,20,042,34,29,13,074,27,31,64,030,37,32,60,250,40*7A
$GPGSV,3,2,09,14,31,107,36,20,37,297,36,16,26,193,47,46,43,203,43*72
$GPGSV,3,3,09,23,14,303,30,,,,,,,,,,,,*47
$GPGST,015055.00,,125.75,125.66,015.4,011.21,011.21,011.22*4F
$GPRMC,015055.00,A,4003.48184,N,08254.66262,W,000.18,120.0,241213,06.7,W,D*33
$PTNLRTF,V,A,179471,07,3,4003.48184,N,08254.66262,W,00248,+000.082,-000.047,+000.012,0,1*50
$PTNLRBA,1,1*57
