$GPZDA,015153.00,24,12,2013,,*60
$GPGGA,015153.00,4003.54974,N,08254.65445,W,2,08,0.93,00254,M,-033,M,,*53
$GPGLL,4003.54974,N,08254.65445,W,015153.00,A,D*7C
$GPVTG,002.4,T,009.1,M,006.14,N,011.38,K,D*20
$GPGSA,A,3,25,29,31,32,14,20,16,23,,,,,1.79,0.93,1.53*0E
$GPGSV,3,1,09,25,20,042,47,29,13,073,45,31,64,031,49,32,60,248,50*7D
$GPGSV,3,2,09,14,31,107,45,20,37,296,48,16,26,193,48,46,43,203,47*75
$GPGSV,3,3,09,23,14,303,46,,,,,,,,,,,,*46
$GPGST,015153.00,,012.91,012.67,088.8,003.59,003.56,003.68*49
$GPRMC,015153.00,A,4003.54974,N,08254.65445,W,006.14,002.4,241213,06.7,W,D*31
$PTNLRTF,V$GPZDA,015156.00,24,12,2013,,*65
$GPGGA,015156.00,4003.55313,N,08254.65419,W,2,08,0.93,00254,M,-033,M,,*55
$GPGLL,4003.55313,N,08254.65419,W,015156.00,A,D*7A
$GPVTG,003.4,T,010.1,M,002.47,N,004.57,K,D*26
$GPGSA,A,3,25,29,31,32,14,20,16,23,,,,,1.79,0.93,1.53*0E
$GPGSV,3,1,09,25,20,042,47,29,13,073,46,31,64,031,49,32,60,248,50*7E
$GPGSV,3,2,09,14,31,107,47,20,37,296,49,16,26,193,46,46,43,203,47*78
$GPGSV,3,3,09,23,14,303,45,,,,,,,,,,,,*45
$GPGST,015156.00,,012.03,011.70,088.3,003.47,003.42,003.55*4D
$GPRMC,015156.00,A,4003.55313,N,08254.65419,W,002.47,003.4,241213,06.7,W,D*34
$PTNLRTF,V,A,179532,08,3,4003.55313,N,08254.65419,W,00254,+000.076,+001.266,-000.079,0,1*5B
$PTNLRBA,1,1*57
$GPZDA,015157.00,24,12,2013,,*64
$GPGGA,015157.00,4003.55335,N,08254.65420,W,2,08,0.93,00254,M,-033,M,,*5A
$GPGLL,4003.55335,N,08254.65420,W,015157.00,A,D*75
$GPVTG,006.1,T,012.8,M,000.74,N,001.36,K,D*2D
$GPGSA,A,3,25,29,31,32,14,20,16,23,,,,,1.79,0.93,1.53*0E
$GPGSV,3,1,09,25,20,042,46,29,13,073,47,31,64,031,49,32,60,248,50*7E
$GPGSV,3,2,09,14,31,107,47,20,37,296,49,16,26,193,47,46,43,203,47*79
$GPGSV,3,3,09,23,14,303,45,,,,,,,,,,,,*45
$GPGST,015157.00,,012.31,011.93,087.7,003.51,003.45,003.58*46
$GPRMC,015157.00,A,4003.55335,N,08254.65420,W,000.74,006.1,241213,06.7,W,D*39
$PTNLRTF,V,A,179533,08,3,4003.55335,N,08254.65420,W,00254,+000.040,+000.376,-000.048,0,1*52
$PTNLRBA,1,1*57
$GPZDA,015159.00,24,12,2013,,*6A
$GPGGA,015159.00,4003.55335,N,08254.65425,W,2,08,0.93,00254,M,-033,M,,*51
$GPGLL,4003.55335,N,08254.65425,W,015159.00,A,D*7E
$GPVTG,000.0,T,006.7,M,000.00,N,000.00,K,D*27
$GPGSA,A,3,25,29,31,32,14,20,16,23,,,,,1.79,0.93,1.53*0E
$GPGSV,3,1,09,25,20,042,48,29,13,073,48,31,64,031,49,32,60,248,50*7F
$GPGSV,3,2,09,14,31,107,46,20,37,296,48,16,26,193,47,46,43,203,46*78
$GPGSV,3,3,09,23,14,303,45,,,,,,,,,,,,*45
$GPGST,015159.00,,013.00,012.63,087.7,003.61,003.55,003.67*49
$GPRMC,015159.00,A,4003.55335,N,08254.65425,W,000.00,000.0,241213,06.7,W,D*36
$PTNLRTF,V,A,179535,08,3,4003.55335,N,08254.65425,W,00254,+000.000,+000.000,+000.000,0,1*5D
$PTNLRBA,1,1*57
$GPZDA,015201.00,24,12,2013,,*64
$GPGGA,015201.00,4003.55333,N,08254.65429,W,2,08,0.93,00254,M,-033,M,,*55
$GPGLL,4003.55333,N,08254.65429,W,015201.00,A,D*7A
$GPVTG,000.0,T,006.7,M,000.00,N,000.00,K,D*27
$GPGSA,A,3,25,29,31,32,14,20,16,23,,,,,1.79,0.93,1.53*0E
$GPGSV,3,1,09,25,20,042,47,29,13,073,47,31,64,031,49,32,60,248,50*7F
$GPGSV,3,2,09,14,31,107,47,20,37,296,49,16,26,193,47,46,43,203,46*78
$GPGSV,3,3,09,23,14,303,45,,,,,,,,,,,,*45
$GPGST,015201.00,,013.54,013.22,088.1,003.68,003.64,003.75*43
$GPRMC,015201.00,A,4003.55333,N,08254.65429,W,000.00,000.0,241213,06.7,W,D*32
$PTNLRTF,V,A,179537,08,3,4003.55333,N,08254.65429,W,00254,+000.000,+000.000,+000.000,0,1*55
$PTNLRBA,1,1*57
$GPZDA,015202.00,24,12,2013,,*67
$GPGGA,015202.00,4003.55335,N,08254.65433,W,2,08,0.93,00254,M,-033,M,,*5B
$GPGLL,4003.55335,N,08254.65433,W,015202.00,A,D*74
$GPVTG,000.0,T,006.7,M,000.00,N,000.00,K,D*27
$GPGSA,A,3,25,29,31,32,14,20,16,23,,,,,1.79,0.93,1.53*0E
$GPGSV,3,1,09,25,20,042,47,29,13,073,48,31,64,031,49,32,60,248,50*70
$GPGSV,3,2,09,14,31,107,47,20,37,296,49,16,26,193,47,46,43,203,46*78
$GPGSV,3,3,09,23,14,303,44,,,,,,,,,,,,*44
$GPGST,015202.00,,014.49,014.19,088.3,003.81,003.77,003.88*41
$GPRMC,015202.00,A,4003.55335,N,08254.65433,W,000.00,000.0,241213,06.7,W,D*3C
$PTNLRTF,V,A,179538,08,3,4003.55335,N,08254.65433,W,00254,+000.000,+000.000,+000.000,0,1*57
$PTNLRBA,1,1*57
$GPZDA,015204.00,24,12,2013,,*61
$GPGGA,015204.00,4003.55338,N,08254.65438,W,2,08,0.93,00254,M,-033,M,,*5B
$GPGLL,4003.55338,N,08254.65438,W,015204.00,A,D*74
$GPVTG,000.0,T,006.7,M,000.00,N,000.00,K,D*27
$GPGSA,A,3,25,29,31,32,14,20,16,23,,,,,1.79,0.93,1.53*0E
$GPGSV,3,1,09,25,20,042,47,29,13,073,46,31,64,031,50,32,60,248,51*77
$GPGSV,3,2,09,14,31,107,47,20,37,296,50,16,26,193,48,46,43,203,46*7F
$GPGSV,3,3,09,23,14,303,45,,,,,,,,,,,,*45
$GPGST,015204.00,,014.03,013.77,088.7,003.75,003.71,003.82*45
$GPRMC,015204.00,A,4003.55338,N,08254.65438,W,000.00,000.0,241213,06.7,W,D*3C
$PTNLRTF,V,A,179540,08,3,4003.55338,N,08254.65438,W,00254,+000.000,+000.000,+000.000,0,1*5E
$PTNLRBA,1,1*57
$GPZDA,015205.00,24,12,2013,,*60
$GPGGA,015205.00,4003.55337,N,08254.65440,W,2,08,0.93,00254,M,-033,M,,*5A
$GPGLL,4003.55337,N,08254.65440,W,015205.00,A,D*75
$GPVTG,000.0,T,006.7,M,000.00,N,000.00,K,D*27
$GPGSA,A,3,25,29,31,32,14,20,16,23,,,,,1.79,0.93,1.53*0E
$GPGSV,3,1,09,25,20,042,47,29,13,073,47,31,64,031,49,32,60,248,50*7F
$GPGSV,3,2,09,14,31,107,46,20,37,296,48,16,26,193,47,46,43,203,46*78
$GPGSV,3,3,09,23,14,303,44,,,,,,,,,,,,*44
$GPGST,015205.00,,014.00,013.77,088.9,003.74,003.71,003.82*48
$GPRMC,015205.00,A,4003.55337,N,08254.65440,W,000.00,000.0,241213,06.7,W,D*3D
$PTNLRTF,V,A,179541,08,3,4003.55337,N,08254.65440,W,00254,+000.000,+000.000,+000.000,0,1*5F
$PTNLRBA,1,1*57
$GPZDA,015207.00,24,12,2013,,*62
$GPGGA,015207.00,4003.55387,N,08254.65440,W,2,08,0.93,00254,M,-033,M,,*53
$GPGLL,4003.55387,N,08254.65440,W,015207.00,A,D*7C
$GPVTG,002.6,T,009.2,M,001.71,N,003.16,K,D*2A
$GPGSA,A,3,25,29,31,32,14,20,16,23,,,,,1.79,0.93,1.53*0E
$GPGSV,3,1,09,25,20,042,46,29,13,073,45,31,64,031,48,32,60,248,49*75
$GPGSV,3,2,09,14,31,107,48,20,37,296,49,16,26,193,47,46,43,203,46*77
$GPGSV,3,3,09,23,14,303,46,,,,,,,,,,,,*46
$GPGST,015207.00,,013.45,013.15,089.1,003.67,003.63,003.74*49
$GPRMC,015207.00,A,4003.55387,N,08254.65440,W,001.71,002.6,241213,06.7,W,D*37
$PTNLRTF,V,A,179543,08,3,4003.55387,N,08254.65440,W,00254,+000.039,+000.877,+000.111,0,1*55
$PTNLRBA,1,1*57
$GPZDA,015208.00,24,12,2013,,*6D
$GPGGA,015208.00,4003.55437,N,08254.65442,W,2,08,0.93,00254,M,-033,M,,*52
$GPGLL,4003.55437,N,08254.65442,W,015208.00,A,D*7D
$GPVTG,000.3,T,007.0,M,001.67,N,003.09,K,D*28
$GPGSA,A,3,25,29,31,32,14,20,16,23,,,,,1.79,0.93,1.53*0E
$GPGSV,3,1,09,25,20,042,48,29,13,073,45,31,64,031,48,32,60,248,49*7B
$GPGSV,3,2,09,14,31,107,47,20,37,296,49,16,26,193,47,46,43,203,47*79
$GPGSV,3,3,09,23,14,303,45,,,,,,,,,,,,*45
$GPGST,015208.00,,013.55,013.27,089.3,003.68,003.64,003.75*4D
$GPRMC,015208.00,A,4003.55437,N,08254.65442,W,001.67,000.3,241213,06.7,W,D*36
$PTNLRTF,V,A,179544,08,3,4003.55437,N,08254.65442,W,00254,+000.004,+000.859,-000.032,0,1*58
$PTNLRBA,1,1*57
$GPZDA,015210.00,24,12,2013,,*64
$GPGGA,015210.00,4003.55635,N,08254.65439,W,2,08,0.93,00254,M,-033,M,,*57
$GPGLL,4003.55635,N,08254.65439,W,015210.00,A,D*78
$GPVTG,001.0,T,007.7,M,004.18,N,007.74,K,D*2E
$GPGSA,A,3,25,29,31,32,14,20,16,23,,,,,1.79,0.93,1.53*0E
$GPGSV,3,1,09,25,20,042,46,29,13,073,43,31,64,031,49,32,60,248,50*7A
$GPGSV,3,2,09,14,31,107,47,20,37,296,49,16,26,193,47,46,43,203,46*78
$GPGSV,3,3,09,23,14,303,46,,,,,,,,,,,,*46
$GPGST,015210.00,,012.65,012.32,089.6,003.56,003.51,003.63*4A
$GPRMC,015210.00,A,4003.55635,N,08254.65439,W,004.18,001.0,241213,06.7,W,D*3C
$PTNLRTF,V,A,179546,08,3,4003.55635,N,08254.65439,W,00254,+000.037,+002.150,-000.008,0,1*5D
$PTNLRBA,1,1*57
$GPZDA,015211.00,24,12,2013,,*65
$GPGGA,015211.00,4003.55748,N,08254.65435,W,2,08,0.93,00254,M,-033,M,,*51
$GPGLL,4003.55748,N,08254.65435,W,015211.00,A,D*7E
$GPVTG,001.6,T,008.3,M,003.98,N,007.38,K,D*24
$GPGSA,A,3,25,29,31,32,14,20,16,23,,,,,1.79,0.93,1.53*0E
$GPGSV,3,1,09,25,20,042,46,29,13,073,45,31,64,031,49,32,60,248,50*7C
$GPGSV,3,2,09,14,31,107,47,20,37,296,49,16,26,193,47,46,43,203,46*78
$GPGSV,3,3,09,23,14,303,45,,,,,,,,,,,,*45
$GPGST,015211.00,,012.04,011.73,089.9,003.47,003.43,003.55*43
$GPRMC,015211.00,A,4003.55748,N,08254.65435,W,003.98,001.6,241213,06.7,W,D*33
$PTNLRTF,V,A,179547,08,3,4003.55748,N,08254.65435,W,00254,+000.056,+002.049,-000.007,0,1*5A
$PTNLRBA,1,1*57
$GPZDA,015213.00,24,12,2013,,*67
$GPGGA,015213.00,4003.55859,N,08254.65424,W,2,07,1.12,00254,M,-033,M,,*5B
$GPGLL,4003.55859,N,08254.65424,W,015213.00,A,D*73
$GPVTG,009.1,T,015.8,M,000.96,N,001.77,K,D*2C
$GPGSA,A,3,25,29,31,32,14,20,16,,,,,,2.25,1.12,1.95*07
$GPGSV,3,1,09,25,20,042,47,29,13,073,45,31,64,031,50,32,60,248,50*75
$GPGSV,3,2,09,14,31,107,47,20,37,296,49,16,26,193,48,46,43,203,46*77
$GPGSV,3,3,09,23,14,303,45,,,,,,,,,,,,*45
$GPGST,015213.00,,010.63,010.23,089.5,003.26,003.20,003.33*48
$GPRMC,015213.00,A,4003.55859,N,08254.65424,W,000.96,009.1,241213,06.7,W,D*3C
$PTNLRTF,V,A,179549,07,3,4003.55859,N,08254.65424,W,00254,+000.078,+000.486,-000.007,0,1*5D
$PTNLRBA,1,1*57
$GPZDA,015214.00,24,12,2013,,*60
$GPGGA,015214.00,4003.55855,N,08254.65427,W,2,08,0.93,00254,M,-033,M,,*54
$GPGLL,4003.55855,N,08254.65427,W,015214.00,A,D*7B
$GPVTG,185.9,T,192.6,M,000.16,N,000.30,K,D*2B
$GPGSA,A,3,25,29,31,32,14,20,16,23,,,,,1.80,0.93,1.53*08
$GPGSV,3,1,09,25,20,042,47,29,13,073,47,31,64,031,49,32,60,248,48*76
$GPGSV,3,2,09,14,31,107,45,20,37,296,49,16,26,193,46,46,43,203,46*7B
$GPGSV,3,3,09,23,14,303,47,,,,,,,,,,,,*47
$GPGST,015214.00,,009.98,009.57,089.7,003.16,003.09,003.23*43
$GPRMC,015214.00,A,4003.55855,N,08254.65427,W,000.16,185.9,241213,06.7,W,D*31
$PTNLRTF,V,A,179550,08,3,4003.55855,N,08254.65427,W,00254,-000.009,-000.082,-000.009,0,1*5D
$PTNLRBA,1,1*57
$GPZDA,015216.00,24,12,2013,,*62
$GPGGA,015216.00,4003.55862,N,08254.65429,W,2,08,0.93,00255,M,-033,M,,*5D
$GPGLL,4003.55862,N,08254.65429,W,015216.00,A,D*73
$GPVTG,000.0,T,006.7,M,000.00,N,000.00,K,D*27
$GPGSA,A,3,25,29,31,32,14,20,16,23,,,,,1.80,0.93,1.53*08
$GPGSV,3,1,09,25,20,042,47,29,13,073,48,31,64,031,49,32,60,248,50*70
$GPGSV,3,2,09,14,31,107,46,20,37,296,48,16,26,193,47,46,43,203,46*78
$GPGSV,3,3,09,23,14,303,47,,,,,,,,,,,,*47
$GPGST,015216.00,,009.63,009.28,089.9,003.10,003.05,003.18*41
$GPRMC,015216.00,A,4003.55862,N,08254.65429,W,000.00,000.0,241213,06.7,W,D*3B
$PTNLRTF,V,A,179552,08,3,4003.55862,N,08254.65429,W,00255,+000.000,+000.000,+000.000,0,1*58
$PTNLRBA,1,1*57
$GPZDA,015217.00,24,12,2013,,*63
$GPGGA,015217.00,4003.55865,N,08254.65430,W,2,08,0.93,00255,M,-033,M,,*53
$GPGLL,4003.55865,N,08254.65430,W,015217.00,A,D*7D
$GPVTG,000.0,T,006.7,M,000.00,N,000.00,K,D*27
$GPGSA,A,3,25,29,31,32,14,20,16,23,,,,,1.80,0.93,1.53*08
$GPGSV,3,1,09,25,20,042,47,29,13,073,48,31,64,031,47,32,60,248,50*7E
$GPGSV,3,2,09,14,31,108,46,20,37,296,48,16,27,193,47,46,43,203,47*77
$GPGSV,3,3,09,23,14,303,47,,,,,,,,,,,,*47
$GPGST,015217.00,,010.31,009.98,089.9,003.21,003.16,003.29*46
$GPRMC,015217.00,A,4003.55865,N,08254.65430,W,000.00,000.0,241213,06.7,W,D*35
$PTNLRTF,V,A,179553,08,3,4003.55865,N,08254.65430,W,00255,+000.000,+000.000,+000.000,0,1*56
$PTNLRBA,1,1*57
