$GPZDA,014748.00,24,12,2013,,*6D
$GPGGA,014748.00,4003.48283,N,08254.66599,W,2,08,0.89,00247,M,-033,M,,*5A
$GPGLL,4003.48283,N,08254.66599,W,014748.00,A,D*7C
$GPVTG,000.0,T,006.7,M,000.00,N,000.00,K,D*27
$GPGSA,A,3,25,01,29,32,14,20,16,23,,,,,1.77,0.89,1.53*08
$GPGSV,3,1,10,25,21,043,38,01,05,256,40,29,12,075,31,31,66,028,36*76
$GPGSV,3,2,10,32,61,252,36,14,32,106,29,20,36,298,39,16,25,193,46*70
$GPGSV,3,3,10,46,43,203,44,23,13,302,43,,,,,,,,*79
$GPGST,014748.00,,127.10,127.09,082.9,011.27,011.27,011.30*4F
$GPRMC,014748.00,A,4003.48283,N,08254.66599,W,000.00,000.0,241213,06.7,W,D*34
$$GPZDA,014751.00,24,12,2013,,*65
$GPGGA,014751.00,4003.48284,N,08254.66595,W,2,08,0.89,00247,M,-033,M,,*59
$GPGLL,4003.48284,N,08254.66595,W,014751.00,A,D*7F
$GPVTG,000.0,T,006.7,M,000.00,N,000.00,K,D*27
$GPGSA,A,3,25,01,29,31,14,20,16,23,,,,,1.74,0.89,1.49*03
$GPGSV,3,1,10,25,21,043,37,01,05,256,40,29,12,075,31,31,66,028,35*7A
$GPGSV,3,2,10,32,61,252,36,14,32,106,29,20,36,298,40,16,25,193,46*7E
$GPGSV,3,3,10,46,43,203,44,23,13,302,43,,,,,,,,*79
$GPGST,014751.00,,169.92,169.90,083.6,013.04,013.03,013.06*43
$GPRMC,014751.00,A,4003.48284,N,08254.66595,W,000.00,000.0,241213,06.7,W,D*37
$PTNLRTF,V,A,179287,08,3,4003.48284,N,08254.66595,W,00247,+000.000,+000.000,+000.000,0,1*5F
$PTNLRBA,1,1*57
$GPZDA,014752.00,24,12,2013,,*66
$GPGGA,014752.00,4003.48285,N,08254.66594,W,2,09,0.87,00247,M,-033,M,,*55
$GPGLL,4003.48285,N,08254.66594,W,014752.00,A,D*7C
$GPVTG,000.0,T,006.7,M,000.00,N,000.00,K,D*27
$GPGSA,A,3,25,01,29,31,32,14,20,16,23,,,,1.51,0.87,1.24*00
$GPGSV,3,1,10,25,21,043,37,01,05,256,40,29,12,075,31,31,66,028,35*7A
$GPGSV,3,2,10,32,61,252,36,14,32,106,23,20,36,298,39,16,25,193,45*79
$GPGSV,3,3,10,46,43,203,44,23,13,302,42,,,,,,,,*78
$GPGST,014752.00,,192.57,192.56,083.8,013.88,013.88,013.90*45
$GPRMC,014752.00,A,4003.48285,N,08254.66594,W,000.00,000.0,241213,06.7,W,D*34
$PTNLRTF,V,A,179288,09,3,4003.48285,N,08254.66594,W,00247,+000.000,+000.000,+000.000,0,1*51
$PTNLRBA,1,1*57
$GPZDA,014754.00,24,12,2013,,*60
$GPGGA,014754.00,4003.48284,N,08254.66590,W,2,08,0.89,00247,M,-033,M,,*59
$GPGLL,4003.48284,N,08254.66590,W,014754.00,A,D*7F
$GPVTG,135.1,T,141.8,M,000.10,N,000.19,K,D*25
$GPGSA,A,3,25,01,29,31,14,20,16,23,,,,,1.74,0.89,1.49*03
$GPGSV,3,1,10,25,21,043,36,01,05,256,41,29,12,075,30,31,66,028,36*78
$GPGSV,3,2,10,32,61,252,36,14,32,106,25,20,36,298,39,16,25,193,46*7C
$GPGSV,3,3,10,46,43,203,44,23,13,302,42,,,,,,,,*78
$GPGST,014754.00,,216.91,216.90,088.4,014.73,014.73,014.75*48
$GPRMC,014754.00,A,4003.48284,N,08254.66590,W,000.10,135.1,241213,06.7,W,D*30
$PTNLRTF,V,A,179290,08,3,4003.48284,N,08254.66590,W,00247,+000.037,-000.037,-000.139,0,1*57
$PTNLRBA,1,1*57
$GPZDA,014755.00,24,12,2013,,*61
$GPGGA,014755.00,4003.48290,N,08254.66583,W,2,09,0.87,00247,M,-033,M,,*50
$GPGLL,4003.48290,N,08254.66583,W,014755.00,A,D*79
$GPVTG,044.6,T,051.3,M,000.22,N,000.41,K,D*22
$GPGSA,A,3,25,01,29,31,32,14,20,16,23,,,,1.51,0.87,1.24*00
$GPGSV,3,1,10,25,21,043,36,01,05,256,41,29,12,075,32,31,66,028,35*79
$GPGSV,3,2,10,32,61,252,35,14,32,106,29,20,36,298,40,16,25,193,45*7E
$GPGSV,3,3,10,46,43,203,44,23,13,302,40,,,,,,,,*7A
$GPGST,014755.00,,204.66,204.65,075.1,014.31,014.31,014.33*4E
$GPRMC,014755.00,A,4003.48290,N,08254.66583,W,000.22,044.6,241213,06.7,W,D*37
$PTNLRTF,V,A,179292,09,3,4003.48290,N,08254.66583,W,00247,+000.080,+000.081,+000.037,0,1*5D
$PTNLRBA,1,1*57
$GPZDA,014757.00,24,12,2013,,*63
$GPGGA,014757.00,4003.48287,N,08254.66587,W,2,09,0.87,00247,M,-033,M,,*50
$GPGLL,4003.48287,N,08254.66587,W,014757.00,A,D*79
$GPVTG,000.0,T,006.7,M,000.00,N,000.00,K,D*27
$GPGSA,A,3,25,01,29,31,32,14,20,16,23,,,,1.51,0.87,1.24*00
$GPGSV,3,1,10,25,21,043,35,01,05,256,40,29,12,075,32,31,66,028,35*7B
$GPGSV,3,2,10,32,61,252,35,14,32,106,30,20,36,298,40,16,25,193,45*76
$GPGSV,3,3,10,46,43,203,44,23,13,302,39,,,,,,,,*74
$GPGST,014757.00,,191.26,191.25,081.3,013.83,013.83,013.85*4F
$GPRMC,014757.00,A,4003.48287,N,08254.66587,W,000.00,000.0,241213,06.7,W,D*31
$PTNLRTF,V,A,179293,09,3,4003.48287,N,08254.66587,W,00247,+000.000,+000.000,+000.000,0,1*5B
$PTNLRBA,1,1*57
$GPZDA,014758.00,24,12,2013,,*6C
$GPGGA,014758.00,4003.48287,N,08254.66585,W,2,09,0.87,00247,M,-033,M,,*5D
$GPGLL,4003.48287,N,08254.66585,W,014758.00,A,D*74
$GPVTG,000.0,T,006.7,M,000.00,N,000.00,K,D*27
$GPGSA,A,3,25,01,29,31,32,14,20,16,23,,,,1.51,0.87,1.24*00
$GPGSV,3,1,10,25,21,043,36,01,05,256,40,29,12,075,32,31,66,028,35*78
$GPGSV,3,2,10,32,61,252,35,14,32,106,29,20,36,298,39,16,25,193,45*70
$GPGSV,3,3,10,46,43,203,44,23,13,302,39,,,,,,,,*74
$GPGST,014758.00,,186.91,186.90,082.1,013.67,013.67,013.69*41
$GPRMC,014758.00,A,4003.48287,N,08254.66585,W,000.00,000.0,241213,06.7,W,D*3C
$PTNLRTF,V,A,179294,09,3,4003.48287,N,08254.66585,W,00247,+000.000,+000.000,+000.000,0,1*5E
$PTNLRBA,1,1*57
$GPZDA,014800.00,24,12,2013,,*6E
$GPGGA,014800.00,4003.48289,N,08254.66583,W,2,09,0.87,00247,M,-033,M,,*57
$GPGLL,4003.48289,N,08254.66583,W,014800.00,A,D*7E
$GPVTG,000.0,T,006.7,M,000.00,N,000.00,K,D*27
$GPGSA,A,3,25,01,29,31,32,14,20,16,23,,,,1.51,0.87,1.24*00
$GPGSV,3,1,10,25,21,043,36,01,05,256,40,29,12,075,32,31,66,028,35*78
$GPGSV,3,2,10,32,61,252,34,14,32,106,28,20,36,298,40,16,25,193,46*7D
$GPGSV,3,3,10,46,43,203,44,23,13,302,39,,,,,,,,*74
$GPGST,014800.00,,200.86,200.85,084.2,014.17,014.17,014.19*44
$GPRMC,014800.00,A,4003.48289,N,08254.66583,W,000.00,000.0,241213,06.7,W,D*36
$PTNLRTF,V,A,179296,09,3,4003.48289,N,08254.66583,W,00247,+000.000,+000.000,+000.000,0,1*54
$PTNLRBA,1,1*57
$GPZDA,014801.00,24,12,2013,,*6F
$GPGGA,014801.00,4003.48290,N,08254.66582,W,2,09,0.87,00247,M,-033,M,,*5F
$GPGLL,4003.48290,N,08254.66582,W,014801.00,A,D*76
$GPVTG,000.0,T,006.7,M,000.00,N,000.00,K,D*27
$GPGSA,A,3,25,01,29,31,32,14,20,16,23,,,,1.51,0.87,1.24*00
$GPGSV,3,1,10,25,21,043,36,01,05,256,40,29,12,075,31,31,66,028,34*7A
$GPGSV,3,2,10,32,61,252,34,14,32,106,27,20,36,298,40,16,25,193,46*72
$GPGSV,3,3,10,46,43,203,44,23,13,302,39,,,,,,,,*74
$GPGST,014801.00,,234.17,234.15,085.2,015.30,015.30,015.32*4D
$GPRMC,014801.00,A,4003.48290,N,08254.66582,W,000.00,000.0,241213,06.7,W,D*3E
$PTNLRTF,V,A,179297,09,3,4003.48290,N,08254.66582,W,00247,+000.000,+000.000,+000.000,0,1*5C
$PTNLRBA,1,1*57
$GPZDA,014803.00,24,12,2013,,*6D
$GPGGA,014803.00,4003.48294,N,08254.66579,W,2,08,0.96,00247,M,-033,M,,*5C
$GPGLL,4003.48294,N,08254.66579,W,014803.00,A,D*74
$GPVTG,000.0,T,006.7,M,000.00,N,000.00,K,D*27
$GPGSA,A,3,01,29,31,32,14,20,16,23,,,,,1.59,0.96,1.26*0D
$GPGSV,3,1,10,25,21,043,37,01,05,256,40,29,12,075,30,31,66,028,35*7B
$GPGSV,3,2,10,32,61,252,34,14,32,106,26,20,36,298,39,16,25,193,46*7D
$GPGSV,3,3,10,46,43,203,44,23,13,302,37,,,,,,,,*7A
$GPGST,014803.00,,277.38,277.36,086.1,016.65,016.65,016.67*40
$GPRMC,014803.00,A,4003.48294,N,08254.66579,W,000.00,000.0,241213,06.7,W,D*3C
$PTNLRTF,V,A,179299,08,3,4003.48294,N,08254.66579,W,00247,+000.000,+000.000,+000.000,0,1*53
$PTNLRBA,1,1*57
$GPZDA,014805.00,24,12,2013,,*6B
$GPGGA,014805.00,4003.48296,N,08254.66578,W,2,09,0.87,00247,M,-033,M,,*58
$GPGLL,4003.48296,N,08254.66578,W,014805.00,A,D*71
$GPVTG,000.0,T,006.7,M,000.00,N,000.00,K,D*27
$GPGSA,A,3,25,01,29,31,32,14,20,16,23,,,,1.51,0.87,1.24*00
$GPGSV,3,1,10,25,21,043,36,01,05,256,40,29,12,075,30,31,66,028,36*79
$GPGSV,3,2,10,32,61,252,35,14,32,106,28,20,36,298,39,16,25,193,45*71
$GPGSV,3,3,10,46,43,203,44,23,13,302,38,,,,,,,,*75
$GPGST,014805.00,,279.90,279.89,087.8,016.73,016.73,016.75*4B
$GPRMC,014805.00,A,4003.48296,N,08254.66578,W,000.00,000.0,241213,06.7,W,D*39
$PTNLRTF,V,A,179301,09,3,4003.48296,N,08254.66578,W,00247,+000.000,+000.000,+000.000,0,1*51
$PTNLRBA,1,1*57
$GPZDA,014806.00,24,12,2013,,*68
$GPGGA,014806.00,4003.48297,N,08254.66577,W,2,09,0.87,00247,M,-033,M,,*55
$GPGLL,4003.48297,N,08254.66577,W,014806.00,A,D*7C
$GPVTG,000.0,T,006.7,M,000.00,N,000.00,K,D*27
$GPGSA,A,3,25,01,29,31,32,14,20,16,23,,,,1.51,0.87,1.24*00
$GPGSV,3,1,10,25,21,043,36,01,05,256,40,29,12,075,30,31,66,028,35*7A
$GPGSV,3,2,10,32,61,252,34,14,32,106,27,20,36,298,39,16,25,193,46*7C
$GPGSV,3,3,10,46,43,203,45,23,13,302,37,,,,,,,,*7B
$GPGST,014806.00,,288.13,288.12,088.5,016.97,016.97,016.99*41
$GPRMC,014806.00,A,4003.48297,N,08254.66577,W,000.00,000.0,241213,06.7,W,D*34
$PTNLRTF,V,A,179302,09,3,4003.48297,N,08254.66577,W,00247,+000.000,+000.000,+000.000,0,1*5C
$PTNLRBA,1,1*57
$GPZDA,014807.00,24,12,2013,,*69
$GPGGA,014807.00,4003.48299,N,08254.66575,W,2,08,0.93,00247,M,-033,M,,*5C
$GPGLL,4003.48299,N,08254.66575,W,014807.00,A,D*71
$GPVTG,000.0,T,006.7,M,000.00,N,000.00,K,D*27
$GPGSA,A,3,25,01,31,32,14,20,16,23,,,,,1.66,0.93,1.37*08
$GPGSV,3,1,10,25,21,043,36,01,05,256,39,29,12,075,28,31,66,028,36*7E
$GPGSV,3,2,10,32,61,252,33,14,32,106,27,20,36,298,39,16,25,193,45*78
$GPGSV,3,3,10,46,43,203,45,23,13,302,37,,,,,,,,*7B
$GPGST,014807.00,,286.95,286.94,089.1,016.94,016.94,016.96*4A
$GPRMC,014807.00,A,4003.48299,N,08254.66575,W,000.00,000.0,241213,06.7,W,D*39
$PTNLRTF,V,A,179303,08,3,4003.48299,N,08254.66575,W,00247,+000.000,+000.000,+000.000,0,1*50
$PTNLRBA,1,1*57
$GPZDA,014809.00,24,12,2013,,*67
$GPGGA,014809.00,4003.48302,N,08254.66573,W,2,09,0.87,00247,M,-033,M,,*53
$GPGLL,4003.48302,N,08254.66573,W,014809.00,A,D*7A
$GPVTG,000.0,T,006.7,M,000.00,N,000.00,K,D*27
$GPGSA,A,3,25,01,29,31,32,14,20,16,23,,,,1.51,0.87,1.24*00
$GPGSV,3,1,10,25,21,043,37,01,05,256,40,29,12,075,28,31,66,028,36*71
$GPGSV,3,2,10,32,61,252,35,14,32,106,28,20,36,298,39,16,25,193,45*71
$GPGSV,3,3,10,46,43,203,45,23,13,302,37,,,,,,,,*7B
$GPGST,014809.00,,313.39,313.38,089.8,017.70,017.70,017.72*46
$GPRMC,014809.00,A,4003.48302,N,08254.66573,W,000.00,000.0,241213,06.7,W,D*32
$PTNLRTF,V,A,179305,09,3,4003.48302,N,08254.66573,W,00247,+000.000,+000.000,+000.000,0,1*52
$PTNLRBA,1,1*57
$GPZDA,014810.00,24,12,2013,,*6F
$GPGGA,014810.00,4003.48303,N,08254.66573,W,2,09,0.87,00247,M,-033,M,,*5A
$GPGLL,4003.48303,N,08254.66573,W,014810.00,A,D*73
$GPVTG,000.0,T,006.7,M,000.00,N,000.00,K,D*27
$GPGSA,A,3,25,01,29,31,32,14,20,16,23,,,,1.51,0.87,1.24*00
$GPGSV,3,1,10,25,21,043,37,01,05,256,39,29,12,075,31,31,66,028,37*76
$GPGSV,3,2,10,32,61,252,34,14,32,106,28,20,36,298,38,16,25,193,46*72
$GPGSV,3,3,10,46,43,203,45,23,13,302,36,,,,,,,,*7A
$GPGST,014810.00,,310.95,310.93,089.0,017.63,017.63,017.65*47
$GPRMC,014810.00,A,4003.48303,N,08254.66573,W,000.00,000.0,241213,06.7,W,D*3B
$PTNLRTF,V,A,179306,09,3,4003.48303,N,08254.66573,W,00247,+000.000,+000.000,+000.000,0,1*50
$PTNLRBA,1,1*57
$GPZDA,014812.00,24,12,2013,,*6D
$GPGGA,014812.00,4003.48304,N,08254.66574,W,2,09,0.87,00247,M,-033,M,,*58
$GPGLL,4003.48304,N,08254.66574,W,014812.00,A,D*71
$GPVTG,000.0,T,006.7,M,000.00,N,000.00,K,D*27
$GPGSA,A,3,25,01,29,31,32,14,20,16,23,,,,1.51,0.87,1.24*00
$GPGSV,3,1,10,25,21,043,38,01,05,256,39,29,12,075,32,31,66,028,38*75
$GPGSV,3,2,10,32,61,252,34,14,32,106,28,20,36,298,38,16,25,193,46*72
$GPGSV,3,3,10,46,43,203,45,23,13,302,37,,,,,,,,*7B
$GPGST,014812.00,,286.08,286.07,087.5,016.91,016.91,016.93*4F
$GPRMC,014812.00,A,4003.48304,N,08254.66574,W,000.00,000.0,241213,06.7,W,D*39
$PTNLRTF,V,A,179308,09,3,4003.48304,N,08254.66574,W,00247,+000.000,+000.000,+000.000,0,1*5E
$PTNLRBA,1,1*57
