$GPZDA,015249.00,24,12,2013,,*68
$GPGGA,015249.00,4003.58063,N,08254.65315,W,2,08,0.93,00256,M,-033,M,,*58
$GPGLL,4003.58063,N,08254.65315,W,015249.00,A,D*75
$GPVTG,000.0,T,006.7,M,000.00,N,000.00,K,D*27
$GPGSA,A,3,25,29,31,32,14,20,16,23,,,,,1.80,0.93,1.54*0F
$GPGSV,3,1,09,25,19,042,46,29,13,073,45,31,64,031,50,32,60,248,49*76
$GPGSV,3,2,09,14,31,108,47,20,37,296,48,16,27,193,49,46,43,203,43*7C
$GPGSV,3,3,09,23,15,303,46,,,,,,,,,,,,*47
$GPGST,015249.00,,009.24,009.01,088.3,003.04,003.00,003.15*45
$GPRMC,015249.00,A,4003.58063,N,08254.65315,W,000.00,000.0,241213,06.7,W,D*3D
$PTNLRTF,V$GPZDA,015253.00,24,12,2013,,*63
$GPGGA,015253.00,4003.58305,N,08254.65394,W,2,08,0.93,00256,M,-033,M,,*59
$GPGLL,4003.58305,N,08254.65394,W,015253.00,A,D*74
$GPVTG,335.1,T,341.8,M,004.92,N,009.11,K,D*2A
$GPGSA,A,3,25,29,31,32,14,20,16,23,,,,,1.81,0.93,1.55*0F
$GPGSV,3,1,09,25,19,042,46,29,13,073,46,31,64,031,49,32,60,248,50*75
$GPGSV,3,2,09,14,31,108,46,20,37,296,47,16,27,193,50,46,43,203,44*7D
$GPGSV,3,3,09,23,15,303,38,,,,,,,,,,,,*4E
$GPGST,015253.00,,009.81,009.46,076.5,003.13,003.08,003.21*4C
$GPRMC,015253.00,A,4003.58305,N,08254.65394,W,004.92,335.1,241213,06.7,W,D*37
$PTNLRTF,V,A,179589,08,3,4003.58305,N,08254.65394,W,00256,-001.066,+002.295,-000.015,0,1*52
$PTNLRBA,1,1*57
$GPZDA,015254.00,24,12,2013,,*64
$GPGGA,015254.00,4003.58402,N,08254.65512,W,2,08,0.93,00256,M,-033,M,,*56
$GPGLL,4003.58402,N,08254.65512,W,015254.00,A,D*7B
$GPVTG,316.3,T,323.0,M,004.79,N,008.87,K,D*2E
$GPGSA,A,3,25,29,31,32,14,20,16,23,,,,,1.81,0.93,1.55*0F
$GPGSV,3,1,09,25,19,042,38,29,13,073,46,31,64,031,47,32,60,248,50*72
$GPGSV,3,2,09,14,31,108,43,20,37,296,45,16,27,193,50,46,43,203,44*7A
$GPGSV,3,3,09,23,15,303,32,,,,,,,,,,,,*44
$GPGST,015254.00,,014.43,014.13,081.1,003.80,003.76,003.87*46
$GPRMC,015254.00,A,4003.58402,N,08254.65512,W,004.79,316.3,241213,06.7,W,D*3E
$PTNLRTF,V,A,179590,08,3,4003.58402,N,08254.65512,W,00256,-001.703,+001.782,+000.050,0,1*51
$PTNLRBA,1,1*57
$GPZDA,015256.00,24,12,2013,,*66
$GPGGA,015256.00,4003.58498,N,08254.65750,W,2,08,0.93,00256,M,-033,M,,*53
$GPGLL,4003.58498,N,08254.65750,W,015256.00,A,D*7E
$GPVTG,290.9,T,297.5,M,003.69,N,006.83,K,D*2C
$GPGSA,A,3,25,29,31,32,14,20,16,23,,,,,1.81,0.93,1.55*0F
$GPGSV,3,1,09,25,19,042,31,29,13,073,44,31,64,032,48,32,60,247,50*7A
$GPGSV,3,2,09,14,30,108,47,20,37,295,47,16,27,193,51,46,43,203,45*7E
$GPGSV,3,3,09,23,15,303,33,,,,,,,,,,,,*45
$GPGST,015256.00,,025.96,025.63,081.9,005.09,005.06,005.15*48
$GPRMC,015256.00,A,4003.58498,N,08254.65750,W,003.69,290.9,241213,06.7,W,D*38
$PTNLRTF,V,A,179592,08,3,4003.58498,N,08254.65750,W,00256,-001.774,+000.676,-000.006,0,1*5A
$PTNLRBA,1,1*57
$GPZDA,015257.00,24,12,2013,,*67
$GPGGA,015257.00,4003.58515,N,08254.65869,W,2,08,0.93,00256,M,-033,M,,*53
$GPGLL,4003.58515,N,08254.65869,W,015257.00,A,D*7E
$GPVTG,281.8,T,288.5,M,003.44,N,006.38,K,D*2C
$GPGSA,A,3,25,29,31,32,14,20,16,23,,,,,1.81,0.93,1.55*0F
$GPGSV,3,1,09,25,19,042,30,29,13,073,43,31,64,032,46,32,60,247,51*73
$GPGSV,3,2,09,14,30,108,47,20,37,295,47,16,27,193,48,46,43,203,46*75
$GPGSV,3,3,09,23,15,303,31,,,,,,,,,,,,*47
$GPGST,015257.00,,040.27,039.94,081.2,006.35,006.32,006.39*4B
$GPRMC,015257.00,A,4003.58515,N,08254.65869,W,003.44,281.8,241213,06.7,W,D*36
$PTNLRTF,V,A,179593,08,3,4003.58515,N,08254.65869,W,00256,-001.735,+000.362,+000.030,0,1*5C
$PTNLRBA,1,1*57
$GPZDA,015259.00,24,12,2013,,*69
$GPGGA,015259.00,4003.58513,N,08254.66098,W,2,08,0.93,00257,M,-033,M,,*5F
$GPGLL,4003.58513,N,08254.66098,W,015259.00,A,D*73
$GPVTG,266.6,T,273.3,M,003.25,N,006.02,K,D*27
$GPGSA,A,3,25,29,31,32,14,20,16,23,,,,,1.81,0.93,1.55*0F
$GPGSV,3,1,09,25,19,042,29,29,13,073,42,31,64,032,49,32,60,247,48*7D
$GPGSV,3,2,09,14,30,108,47,20,37,295,47,16,27,193,48,46,43,203,44*77
$GPGSV,3,3,09,23,15,303,38,,,,,,,,,,,,*4E
$GPGST,015259.00,,036.39,036.09,080.9,006.03,006.01,006.09*4C
$GPRMC,015259.00,A,4003.58513,N,08254.66098,W,003.25,266.6,241213,06.7,W,D*3B
$PTNLRTF,V,A,179595,08,3,4003.58513,N,08254.66098,W,00257,-001.670,-000.100,-000.130,0,1*5F
$PTNLRBA,1,1*57
$GPZDA,015300.00,24,12,2013,,*64
$GPGGA,015300.00,4003.58495,N,08254.66203,W,2,08,0.93,00257,M,-033,M,,*5D
$GPGLL,4003.58495,N,08254.66203,W,015300.00,A,D*71
$GPVTG,256.9,T,263.6,M,002.99,N,005.54,K,D*29
$GPGSA,A,3,25,29,31,32,14,20,16,23,,,,,1.81,0.93,1.55*0F
$GPGSV,3,1,09,25,19,042,31,29,13,073,40,31,64,032,48,32,60,247,49*76
$GPGSV,3,2,09,14,30,108,49,20,37,295,47,16,27,193,48,46,43,203,44*79
$GPGSV,3,3,09,23,15,303,42,,,,,,,,,,,,*43
$GPGST,015300.00,,035.68,035.39,080.2,005.97,005.95,006.03*47
$GPRMC,015300.00,A,4003.58495,N,08254.66203,W,002.99,256.9,241213,06.7,W,D*33
$PTNLRTF,V,A,179596,08,3,4003.58495,N,08254.66203,W,00257,-001.500,-000.348,-000.085,0,1*56
$PTNLRBA,1,1*57
$GPZDA,015302.00,24,12,2013,,*66
$GPGGA,015302.00,4003.58427,N,08254.66360,W,2,08,0.93,00257,M,-033,M,,*52
$GPGLL,4003.58427,N,08254.66360,W,015302.00,A,D*7E
$GPVTG,234.1,T,240.8,M,002.26,N,004.19,K,D*26
$GPGSA,A,3,25,29,31,32,14,20,16,23,,,,,1.81,0.93,1.55*0F
$GPGSV,3,1,09,25,19,042,30,29,13,073,44,31,64,032,50,32,60,247,49*7A
$GPGSV,3,2,09,14,30,108,46,20,37,295,47,16,27,193,48,46,43,203,43*71
$GPGSV,3,3,09,23,15,303,46,,,,,,,,,,,,*47
$GPGST,015302.00,,038.42,038.15,079.6,006.20,006.18,006.26*4F
$GPRMC,015302.00,A,4003.58427,N,08254.66360,W,002.26,234.1,241213,06.7,W,D*34
$PTNLRTF,V,A,179598,08,3,4003.58427,N,08254.66360,W,00257,-000.944,-000.682,-000.038,0,1*5D
$PTNLRBA,1,1*57
$GPZDA,015303.00,24,12,2013,,*67
$GPGGA,015303.00,4003.58378,N,08254.66408,W,2,08,0.93,00257,M,-033,M,,*57
$GPGLL,4003.58378,N,08254.66408,W,015303.00,A,D*7B
$GPVTG,216.8,T,223.5,M,002.21,N,004.10,K,D*29
$GPGSA,A,3,25,29,31,32,14,20,16,23,,,,,1.81,0.93,1.55*0F
$GPGSV,3,1,09,25,19,042,30,29,13,073,45,31,64,032,50,32,60,247,50*73
$GPGSV,3,2,09,14,30,108,48,20,37,295,48,16,27,193,47,46,43,203,43*7F
$GPGSV,3,3,09,23,15,303,47,,,,,,,,,,,,*46
$GPGST,015303.00,,035.50,035.24,079.1,005.96,005.94,006.02*47
$GPRMC,015303.00,A,4003.58378,N,08254.66408,W,002.21,216.8,241213,06.7,W,D*3F
$PTNLRTF,V,A,179599,08,3,4003.58378,N,08254.66408,W,00257,-000.682,-000.912,-000.050,0,1*55
$PTNLRBA,1,1*57
$GPZDA,015305.00,24,12,2013,,*61
$GPGGA,015305.00,4003.58262,N,08254.66484,W,2,08,0.93,00257,M,-033,M,,*5F
$GPGLL,4003.58262,N,08254.66484,W,015305.00,A,D*73
$GPVTG,200.0,T,206.7,M,002.75,N,005.09,K,D*2B
$GPGSA,A,3,25,29,31,32,14,20,16,23,,,,,1.81,0.93,1.55*0F
$GPGSV,3,1,09,25,19,042,24,29,13,073,48,31,64,032,48,32,60,247,50*72
$GPGSV,3,2,09,14,30,108,48,20,37,295,46,16,27,193,45,46,43,203,42*72
$GPGSV,3,3,09,23,15,303,48,,,,,,,,,,,,*49
$GPGST,015305.00,,034.21,033.95,080.5,005.85,005.83,005.91*45
$GPRMC,015305.00,A,4003.58262,N,08254.66484,W,002.75,200.0,241213,06.7,W,D*39
$PTNLRTF,V,A,179601,08,3,4003.58262,N,08254.66484,W,00257,-000.484,-001.329,+000.004,0,1*59
$PTNLRBA,1,1*57
$GPZDA,015306.00,24,12,2013,,*62
$GPGGA,015306.00,4003.58186,N,08254.66512,W,2,07,1.02,00257,M,-033,M,,*5D
$GPGLL,4003.58186,N,08254.66512,W,015306.00,A,D*77
$GPVTG,194.1,T,200.8,M,002.99,N,005.54,K,D*27
$GPGSA,A,3,29,31,32,14,20,16,23,,,,,,1.87,1.02,1.57*05
$GPGSV,3,1,09,25,19,042,34,29,13,073,48,31,64,032,48,32,60,247,49*7B
$GPGSV,3,2,09,14,30,108,47,20,37,295,46,16,27,193,46,46,43,203,42*7E
$GPGSV,3,3,09,23,15,303,47,,,,,,,,,,,,*46
$GPGST,015306.00,,032.69,032.44,081.5,005.72,005.70,005.79*42
$GPRMC,015306.00,A,4003.58186,N,08254.66512,W,002.99,194.1,241213,06.7,W,D*30
$PTNLRTF,V,A,179602,07,3,4003.58186,N,08254.66512,W,00257,-000.375,-001.493,+000.035,0,1*5F
$PTNLRBA,1,1*57
$GPZDA,015308.00,24,12,2013,,*6C
$GPGGA,015308.00,4003.58021,N,08254.66548,W,2,08,0.93,00256,M,-033,M,,*57
$GPGLL,4003.58021,N,08254.66548,W,015308.00,A,D*7A
$GPVTG,188.2,T,194.9,M,003.13,N,005.80,K,D*2C
$GPGSA,A,3,25,29,31,32,14,20,16,23,,,,,1.81,0.93,1.55*0F
$GPGSV,3,1,09,25,19,042,36,29,13,073,48,31,64,032,50,32,60,247,51*79
$GPGSV,3,2,09,14,30,108,45,20,37,295,45,16,27,193,47,46,43,203,44*78
$GPGSV,3,3,09,23,15,303,47,,,,,,,,,,,,*46
$GPGST,015308.00,,029.73,029.50,082.7,005.45,005.43,005.53*4F
$GPRMC,015308.00,A,4003.58021,N,08254.66548,W,003.13,188.2,241213,06.7,W,D*30
$PTNLRTF,V,A,179604,08,3,4003.58021,N,08254.66548,W,00256,-000.231,-001.594,-000.097,0,1*5D
$PTNLRBA,1,1*57
$GPZDA,015309.00,24,12,2013,,*6D
$GPGGA,015309.00,4003.57937,N,08254.66556,W,2,08,0.93,00256,M,-033,M,,*58
$GPGLL,4003.57937,N,08254.66556,W,015309.00,A,D*75
$GPVTG,183.9,T,190.6,M,003.09,N,005.73,K,D*20
$GPGSA,A,3,25,29,31,32,14,20,16,23,,,,,1.81,0.93,1.55*0F
$GPGSV,3,1,09,25,19,042,39,29,13,073,47,31,64,032,49,32,60,247,50*70
$GPGSV,3,2,09,14,30,108,46,20,37,295,45,16,27,193,48,46,43,203,45*75
$GPGSV,3,3,09,23,15,303,46,,,,,,,,,,,,*47
$GPGST,015309.00,,027.66,027.43,083.5,005.26,005.24,005.33*49
$GPRMC,015309.00,A,4003.57937,N,08254.66556,W,003.09,183.9,241213,06.7,W,D*34
$PTNLRTF,V,A,179606,08,3,4003.57937,N,08254.66556,W,00256,-000.109,-001.588,-000.104,0,1*5F
$PTNLRBA,1,1*57
$GPZDA,015311.00,24,12,2013,,*64
$GPGGA,015311.00,4003.57757,N,08254.66565,W,2,08,0.93,00256,M,-033,M,,*59
$GPGLL,4003.57757,N,08254.66565,W,015311.00,A,D*74
$GPVTG,181.2,T,187.9,M,003.36,N,006.21,K,D*28
$GPGSA,A,3,25,29,31,32,14,20,16,23,,,,,1.81,0.93,1.55*0F
$GPGSV,3,1,09,25,19,042,37,29,13,073,47,31,64,032,50,32,60,247,50*76
$GPGSV,3,2,09,14,30,108,47,20,37,295,46,16,27,193,47,46,43,203,44*79
$GPGSV,3,3,09,23,15,303,47,,,,,,,,,,,,*46
$GPGST,015311.00,,024.69,024.47,084.4,004.97,004.95,005.05*48
$GPRMC,015311.00,A,4003.57757,N,08254.66565,W,003.36,181.2,241213,06.7,W,D*30
$PTNLRTF,V,A,179607,08,3,4003.57757,N,08254.66565,W,00256,-000.036,-001.726,-000.006,0,1*5E
$PTNLRBA,1,1*57
$GPZDA,015313.00,24,12,2013,,*66
$GPGGA,015313.00,4003.57579,N,08254.66563,W,2,08,0.93,00256,M,-033,M,,*53
$GPGLL,4003.57579,N,08254.66563,W,015313.00,A,D*7E
$GPVTG,179.7,T,186.4,M,003.25,N,006.03,K,D*24
$GPGSA,A,3,25,29,31,32,14,20,16,23,,,,,1.81,0.93,1.55*0F
$GPGSV,3,1,09,25,19,042,45,29,13,073,46,31,64,032,50,32,60,247,51*73
$GPGSV,3,2,09,14,30,108,47,20,37,295,45,16,27,193,47,46,43,203,45*7B
$GPGSV,3,3,09,23,15,303,44,,,,,,,,,,,,*45
$GPGST,015313.00,,021.66,021.45,085.4,004.65,004.63,004.74*45
$GPRMC,015313.00,A,4003.57579,N,08254.66563,W,003.25,179.7,241213,06.7,W,D*3A
$PTNLRTF,V,A,179609,08,3,4003.57579,N,08254.66563,W,00256,+000.008,-001.674,+000.050,0,1*50
$PTNLRBA,1,1*57
$GPZDA,015314.00,24,12,2013,,*61
$GPGGA,015314.00,4003.57492,N,08254.66563,W,2,08,0.93,00256,M,-033,M,,*50
$GPGLL,4003.57492,N,08254.66563,W,015314.00,A,D*7D
$GPVTG,180.5,T,187.2,M,003.17,N,005.87,K,D*29
$GPGSA,A,3,25,29,31,32,14,20,16,23,,,,,1.81,0.93,1.55*0F
$GPGSV,3,1,09,25,19,042,47,29,13,073,47,31,64,032,50,32,60,247,49*79
$GPGSV,3,2,09,14,30,108,47,20,37,295,46,16,27,193,47,46,43,203,46*7B
$GPGSV,3,3,09,23,15,303,45,,,,,,,,,,,,*44
$GPGST,015314.00,,020.57,020.36,085.7,004.54,004.51,004.63*42
$GPRMC,015314.00,A,4003.57492,N,08254.66563,W,003.17,180.5,241213,06.7,W,D*3C
$PTNLRTF,V,A,179610,08,3,4003.57492,N,08254.66563,W,00256,-000.013,-001.631,-000.033,0,1*52
$PTNLRBA,1,1*57
