$GPZDA,004938.00,08,03,2014,,*6C
$GPGGA,004938.00,3919.52918,N,08206.40245,W,1,09,1.02,00250,M,-033,M,,*56
$GPGLL,3919.52918,N,08206.40245,W,004938.00,A,A*73
$GPVTG,108.8,T,116.0,M,000.5,N,000.8,K,A*29
$GPGSA,A,3,03,27,19,11,23,07,08,13,16,,,,1.71,1.02,1.37*06
$GPGSV,3,1,09,03,73,104,41,27,58,072,43,19,59,155,38,11,11,167,36*74
$GPGSV,3,2,09,23,41,193,38,07,43,312,29,08,13,302,26,13,62,243,29*79
$GPGSV,3,3,09,16,40,051,29,,,,,,,,,,,,*4C
$GPGST,004938.00,,498.08,385.45,039.8,020.77,021.26,021.14*4C
$GPRMC,004938.00,A,3919.52918,N,08206.40245,W,000.5,108.8,080314,07.2,W,A*02
$PTNLRTF,V,A,521394,09,3,3919.52918,N,082021395,09,3,3919.52977,N,08206.40292,W,00250,+000.000,+000.000,+000.000,0,1*59
$PTNLRBA,1,1*57
$GPZDA,004941.00,08,03,2014,,*62
$GPGGA,004941.00,3919.53024,N,08206.40306,W,1,09,1.02,00250,M,-033,M,,*59
$GPGLL,3919.53024,N,08206.40306,W,004941.00,A,A*7C
$GPVTG,000.0,T,007.2,M,000.0,N,000.0,K,A*26
$GPGSA,A,3,03,27,19,11,23,07,08,13,16,,,,1.71,1.02,1.37*06
$GPGSV,3,1,09,03,73,104,41,27,58,072,43,19,59,155,39,11,11,167,37*74
$GPGSV,3,2,09,23,41,193,38,07,43,312,27,08,13,302,27,13,62,243,29*76
$GPGSV,3,3,09,16,40,051,30,,,,,,,,,,,,*44
$GPGST,004941.00,,625.47,543.00,039.7,024.01,024.33,024.27*4E
$GPRMC,004941.00,A,3919.53024,N,08206.40306,W,000.0,000.0,080314,07.2,W,A*09
$PTNLRTF,V,A,521397,09,3,3919.53024,N,08206.40306,W,00250,+000.000,+000.000,+000.000,0,1*59
$PTNLRBA,1,1*57
$GPZDA,004942.00,08,03,2014,,*61
$GPGGA,004942.00,3919.53006,N,08206.40260,W,1,08,1.10,00250,M,-033,M,,*59
$GPGLL,3919.53006,N,08206.40260,W,004942.00,A,A*7E
$GPVTG,000.0,T,007.2,M,000.0,N,000.0,K,A*26
$GPGSA,A,3,03,27,19,11,23,08,13,16,,,,,1.77,1.10,1.39*0A
$GPGSV,3,1,09,03,73,104,41,27,58,072,43,19,59,155,39,11,11,167,36*75
$GPGSV,3,2,09,23,41,193,39,07,43,312,27,08,13,302,28,13,62,243,30*70
$GPGSV,3,3,09,16,40,051,29,,,,,,,,,,,,*4C
$GPGST,004942.00,,612.51,538.07,039.7,023.84,024.13,024.08*40
$GPRMC,004942.00,A,3919.53006,N,08206.40260,W,000.0,000.0,080314,07.2,W,A*0B
$PTNLRTF,V,A,521398,08,3,3919.53006,N,08206.40260,W,00250,+000.000,+000.000,+000.000,0,1*56
$PTNLRBA,1,1*57
$GPZDA,004944.00,08,03,2014,,*67
$GPGGA,004944.00,3919.53040,N,08206.40261,W,1,09,1.02,00250,M,-033,M,,*5E
$GPGLL,3919.53040,N,08206.40261,W,004944.00,A,A*7B
$GPVTG,000.0,T,007.2,M,000.0,N,000.0,K,A*26
$GPGSA,A,3,03,27,19,11,23,07,08,13,16,,,,1.71,1.02,1.37*06
$GPGSV,3,1,09,03,73,104,41,27,58,072,43,19,59,155,39,11,11,167,36*75
$GPGSV,3,2,09,23,41,193,38,07,43,312,26,08,13,302,26,13,62,243,28*77
$GPGSV,3,3,09,16,40,051,30,,,,,,,,,,,,*44
$GPGST,004944.00,,654.94,594.39,039.6,024.88,025.11,025.08*4E
$GPRMC,004944.00,A,3919.53040,N,08206.40261,W,000.0,000.0,080314,07.2,W,A*0E
$PTNLRTF,V,A,521400,09,3,3919.53040,N,08206.40261,W,00250,+000.000,+000.000,+000.000,0,1*52
$PTNLRBA,1,1*57
$GPZDA,004945.00,08,03,2014,,*66
$GPGGA,004945.00,3919.53057,N,08206.40278,W,1,09,1.02,00249,M,-033,M,,*59
$GPGLL,3919.53057,N,08206.40278,W,004945.00,A,A*74
$GPVTG,000.0,T,007.2,M,000.0,N,000.0,K,A*26
$GPGSA,A,3,03,27,19,11,23,07,08,13,16,,,,1.71,1.02,1.37*06
$GPGSV,3,1,09,03,73,104,41,27,58,072,43,19,59,155,39,11,11,167,36*75
$GPGSV,3,2,09,23,41,193,37,07,43,312,26,08,13,302,25,13,62,243,31*73
$GPGSV,3,3,09,16,40,051,30,,,,,,,,,,,,*44
$GPGST,004945.00,,660.42,605.76,039.5,025.06,025.26,025.25*4C
$GPRMC,004945.00,A,3919.53057,N,08206.40278,W,000.0,000.0,080314,07.2,W,A*01
$PTNLRTF,V,A,521401,09,3,3919.53057,N,08206.40278,W,00249,+000.000,+000.000,+000.000,0,1*55
$PTNLRBA,1,1*57
$GPZDA,004946.00,08,03,2014,,*65
$GPGGA,004946.00,3919.53065,N,08206.40292,W,1,09,1.02,00249,M,-033,M,,*5F
$GPGLL,3919.53065,N,08206.40292,W,004946.00,A,A*72
$GPVTG,000.0,T,007.2,M,000.0,N,000.0,K,A*26
$GPGSA,A,3,03,27,19,11,23,07,08,13,16,,,,1.71,1.02,1.37*06
$GPGSV,3,1,09,03,73,104,41,27,58,072,43,19,59,155,39,11,11,167,37*74
$GPGSV,3,2,09,23,41,193,37,07,43,312,26,08,13,302,27,13,62,243,31*71
$GPGSV,3,3,09,16,40,051,30,,,,,,,,,,,,*44
$GPGST,004946.00,,689.04,639.72,039.5,025.68,025.87,025.86*4B
$GPRMC,004946.00,A,3919.53065,N,08206.40292,W,000.0,000.0,080314,07.2,W,A*07
$PTNLRTF,V,A,521402,09,3,3919.53065,N,08206.40292,W,00249,+000.000,+000.000,+000.000,0,1*53
$PTNLRBA,1,1*57
$GPZDA,004948.00,08,03,2014,,*6B
$GPGGA,004948.00,3919.53086,N,08206.40327,W,1,09,1.02,00248,M,-033,M,,*52
$GPGLL,3919.53086,N,08206.40327,W,004948.00,A,A*7E
$GPVTG,000.0,T,007.2,M,000.0,N,000.0,K,A*26
$GPGSA,A,3,03,27,19,11,23,07,08,13,16,,,,1.71,1.02,1.37*06
$GPGSV,3,1,09,03,73,104,41,27,58,072,44,19,59,155,39,11,11,167,36*72
$GPGSV,3,2,09,23,41,193,37,07,43,312,27,08,13,302,28,13,62,243,31*7F
$GPGSV,3,3,09,16,40,051,29,,,,,,,,,,,,*4C
$GPGST,004948.00,,708.47,668.29,039.4,026.16,026.31,026.32*49
$GPRMC,004948.00,A,3919.53086,N,08206.40327,W,000.0,000.0,080314,07.2,W,A*0B
$PTNLRTF,V,A,521404,09,3,3919.53086,N,08206.40327,W,00248,+000.000,+000.000,+000.000,0,1*56
$PTNLRBA,1,1*57
$GPZDA,004949.00,08,03,2014,,*6A
$GPGGA,004949.00,3919.53085,N,08206.40326,W,1,09,1.02,00248,M,-033,M,,*51
$GPGLL,3919.53085,N,08206.40326,W,004949.00,A,A*7D
$GPVTG,148.3,T,155.5,M,000.4,N,000.8,K,A*25
$GPGSA,A,3,03,27,19,11,23,07,08,13,16,,,,1.71,1.02,1.37*06
$GPGSV,3,1,09,03,73,104,40,27,58,072,43,19,59,155,38,11,11,167,35*76
$GPGSV,3,2,09,23,41,193,36,07,43,312,27,08,13,302,27,13,62,243,31*71
$GPGSV,3,3,09,16,40,051,29,,,,,,,,,,,,*4C
$GPGST,004949.00,,695.29,658.98,039.3,025.95,026.09,026.10*48
$GPRMC,004949.00,A,3919.53085,N,08206.40326,W,000.4,148.3,080314,07.2,W,A*02
$PTNLRTF,V,A,521405,09,3,3919.53085,N,08206.40326,W,00248,+000.112,-000.182,+000.006,0,1*5C
$PTNLRBA,1,1*57
$GPZDA,004951.00,08,03,2014,,*63
$GPGGA,004951.00,3919.53084,N,08206.40337,W,1,09,1.02,00248,M,-033,M,,*59
$GPGLL,3919.53084,N,08206.40337,W,004951.00,A,A*75
$GPVTG,108.9,T,116.1,M,000.6,N,001.1,K,A*22
$GPGSA,A,3,03,27,19,11,23,07,08,13,16,,,,1.71,1.02,1.37*06
$GPGSV,3,1,09,03,73,104,41,27,58,072,43,19,59,155,39,11,11,167,35*76
$GPGSV,3,2,09,23,41,193,35,07,43,312,27,08,13,302,29,13,62,243,30*7D
$GPGSV,3,3,09,16,40,051,30,,,,,,,,,,,,*44
$GPGST,004951.00,,707.36,677.67,039.0,026.26,026.37,026.39*46
$GPRMC,004951.00,A,3919.53084,N,08206.40337,W,000.6,108.9,080314,07.2,W,A*06
$PTNLRTF,V,A,521407,09,3,3919.53084,N,08206.40337,W,00248,+000.278,-000.095,+000.023,0,1*50
$PTNLRBA,1,1*57
$GPZDA,004952.00,08,03,2014,,*60
$GPGGA,004952.00,3919.53090,N,08206.40377,W,1,09,1.02,00248,M,-033,M,,*5B
$GPGLL,3919.53090,N,08206.40377,W,004952.00,A,A*77
$GPVTG,278.2,T,285.3,M,000.3,N,000.6,K,A*25
$GPGSA,A,3,03,27,19,11,23,07,08,13,16,,,,1.71,1.02,1.37*06
$GPGSV,3,1,09,03,73,104,41,27,58,072,43,19,59,155,39,11,11,167,34*77
$GPGSV,3,2,09,23,41,193,35,07,43,312,29,08,13,302,29,13,62,243,30*73
$GPGSV,3,3,09,16,40,051,30,,,,,,,,,,,,*44
$GPGST,004952.00,,704.95,678.05,038.9,026.24,026.35,026.37*42
$GPRMC,004952.00,A,3919.53090,N,08206.40377,W,000.3,278.2,080314,07.2,W,A*0E
$PTNLRTF,V,A,521408,09,3,3919.53090,N,08206.40377,W,00248,-000.165,+000.024,+000.037,0,1*5E
$PTNLRBA,1,1*57
$GPZDA,004954.00,08,03,2014,,*66
$GPGGA,004954.00,3919.53116,N,08206.40397,W,1,09,1.02,00247,M,-033,M,,*53
$GPGLL,3919.53116,N,08206.40397,W,004954.00,A,A*70
$GPVTG,344.2,T,351.4,M,000.2,N,000.3,K,A*20
$GPGSA,A,3,03,27,19,11,23,07,08,13,16,,,,1.71,1.02,1.37*06
$GPGSV,3,1,09,03,73,104,41,27,58,072,43,19,59,155,39,11,11,167,36*75
$GPGSV,3,2,09,23,41,193,35,07,43,312,29,08,13,302,29,13,62,243,30*73
$GPGSV,3,3,09,16,40,051,31,,,,,,,,,,,,*45
$GPGST,004954.00,,680.05,658.00,038.6,025.82,025.91,025.94*40
$GPRMC,004954.00,A,3919.53116,N,08206.40397,W,000.2,344.2,080314,07.2,W,A*06
$PTNLRTF,V,A,521410,09,3,3919.53116,N,08206.40397,W,00247,-000.024,+000.085,+000.030,0,1*51
$PTNLRBA,1,1*57
$GPZDA,004955.00,08,03,2014,,*67
$GPGGA,004955.00,3919.53142,N,08206.40425,W,1,09,1.02,00246,M,-033,M,,*5C
$GPGLL,3919.53142,N,08206.40425,W,004955.00,A,A*7E
$GPVTG,301.3,T,308.5,M,000.4,N,000.8,K,A*20
$GPGSA,A,3,03,27,19,11,23,07,08,13,16,,,,1.71,1.02,1.37*06
$GPGSV,3,1,09,03,73,104,41,27,58,072,43,19,59,155,39,11,11,167,36*75
$GPGSV,3,2,09,23,41,193,35,07,43,312,29,08,13,302,27,13,62,243,29*75
$GPGSV,3,3,09,16,40,051,31,,,,,,,,,,,,*45
$GPGST,004955.00,,655.40,635.38,038.4,025.36,025.45,025.48*4D
$GPRMC,004955.00,A,3919.53142,N,08206.40425,W,000.4,301.3,080314,07.2,W,A*0E
$PTNLRTF,V,A,521411,09,3,3919.53142,N,08206.40425,W,00246,-000.180,+000.109,+000.010,0,1*56
$PTNLRBA,1,1*57
