$GPZDA,213445.00,16,02,2014,,*61
$GPGGA,213445.00,3917.25877,N,08203.79244,W,1,08,0.95,00311,M,-033,M,,*57
$GPGLL,3917.25877,N,08203.79244,W,213445.00,A,A*78
$GPVTG,000.0,T,007.2,M,000.0,N,000.0,K,A*26
$GPGSA,A,3,32,22,01,16,20,25,29,31,,,,,1.67,0.95,1.37*00
$GPGSV,3,1,09,32,62,274,43,22,11,160,37,01,11,267,31,16,10,194,33*78
$GPGSV,3,2,09,20,29,308,28,25,31,048,34,29,08,089,34,31,75,349,35*7A
$GPGSV,3,3,09,14,41,094,29,,,,,,,,,,,,*46
$GPGST,213445.00,,065.20,060.22,066.0,008.02,007.81,008.54*46
$GPRMC,213445.00,A,3917.25877,N,08203.79244,W,000.0,000.0,160214,07.2,W,A*03
$PTNLRTF,V,A,$GPZDA,213447.00,16,02,2014,,*63
$GPGGA,213447.00,3917.25891,N,08203.79253,W,1,07,1.09,00311,M,-033,M,,*50
$GPGLL,3917.25891,N,08203.79253,W,213447.00,A,A*74
$GPVTG,000.0,T,007.2,M,000.0,N,000.0,K,A*26
$GPGSA,A,3,32,01,16,20,25,29,31,,,,,,1.75,1.09,1.37*07
$GPGSV,3,1,09,32,62,274,43,22,11,160,37,01,11,267,32,16,10,194,33*7B
$GPGSV,3,2,09,20,29,308,30,25,31,048,34,29,08,089,34,31,75,349,35*73
$GPGSV,3,3,09,14,41,094,28,,,,,,,,,,,,*47
$GPGST,213447.00,,060.22,056.22,068.1,007.72,007.53,008.21*4C
$GPRMC,213447.00,A,3917.25891,N,08203.79253,W,000.0,000.0,160214,07.2,W,A*0F
$PTNLRTF,V,A,077703,07,3,3917.25891,N,08203.79253,W,00311,+000.000,+000.000,+000.000,0,1*5B
$PTNLRBA,1,1*57
$GPZDA,213448.00,16,02,2014,,*6C
$GPGGA,213448.00,3917.25878,N,08203.79243,W,1,08,0.95,00311,M,-033,M,,*52
$GPGLL,3917.25878,N,08203.79243,W,213448.00,A,A*7D
$GPVTG,211.0,T,218.3,M,000.1,N,000.1,K,A*29
$GPGSA,A,3,32,22,01,16,20,25,29,31,,,,,1.67,0.95,1.37*00
$GPGSV,3,1,09,32,62,274,43,22,11,160,37,01,11,267,31,16,10,194,32*79
$GPGSV,3,2,09,20,29,308,31,25,31,048,34,29,08,089,31,31,75,349,35*77
$GPGSV,3,3,09,14,41,094,30,,,,,,,,,,,,*4E
$GPGST,213448.00,,055.76,052.15,068.7,007.44,007.25,007.91*42
$GPRMC,213448.00,A,3917.25878,N,08203.79243,W,000.1,211.0,160214,07.2,W,A*05
$PTNLRTF,V,A,077704,08,3,3917.25878,N,08203.79243,W,00311,-000.013,-000.022,+000.033,0,1*57
$PTNLRBA,1,1*57
$GPZDA,213450.00,16,02,2014,,*65
$GPGGA,213449.00,3917.25853,N,08203.79239,W,1,08,0.95,00312,M,-033,M,,*54
$GPGLL,3917.25853,N,08203.79239,W,213449.00,A,A*78
$GPVTG,186.4,T,193.7,M,000.2,N,000.4,K,A*22
$GPGSA,A,3,32,22,01,16,20,25,29,31,,,,,1.67,0.95,1.37*00
$GPGSV,3,1,09,32,62,274,43,22,11,160,38,01,11,267,31,16,10,194,33*77
$GPGSV,3,2,09,20,29,308,32,25,31,048,34,29,08,089,34,31,75,349,37*73
$GPGSV,3,3,09,14,41,094,27,,,,,,,,,,,,*48
$GPGST,213449.00,,052.04,048.81,069.6,007.19,007.01,007.65*42
$GPRMC,213449.00,A,3917.25853,N,08203.79239,W,000.2,186.4,160214,07.2,W,A*0A
$PTNLRTF,V,A,077706,08,3,3917.25853,N,08203.79239,W,00312,-000.012,-000.105,-000.010,0,1*50
$PTNLRBA,1,1*57
$GPZDA,213451.00,16,02,2014,,*64
$GPGGA,213451.00,3917.25832,N,08203.79229,W,1,08,0.95,00312,M,-033,M,,*5B
$GPGLL,3917.25832,N,08203.79229,W,213451.00,A,A*77
$GPVTG,000.0,T,007.2,M,000.0,N,000.0,K,A*26
$GPGSA,A,3,32,22,01,16,20,25,29,31,,,,,1.67,0.95,1.37*00
$GPGSV,3,1,09,32,62,273,43,22,11,160,37,01,11,267,32,16,10,194,33*7C
$GPGSV,3,2,09,20,29,308,31,25,31,048,33,29,08,089,33,31,75,349,37*70
$GPGSV,3,3,09,14,41,094,26,,,,,,,,,,,,*49
$GPGST,213451.00,,045.12,042.48,071.3,006.70,006.54,007.15*41
$GPRMC,213451.00,A,3917.25832,N,08203.79229,W,000.0,000.0,160214,07.2,W,A*0C
$PTNLRTF,V,A,077707,08,3,3917.25832,N,08203.79229,W,00312,+000.000,+000.000,+000.000,0,1*57
$PTNLRBA,1,1*57
$GPZDA,213452.00,16,02,2014,,*67
$GPGGA,213452.00,3917.25824,N,08203.79228,W,1,08,0.95,00312,M,-033,M,,*5E
$GPGLL,3917.25824,N,08203.79228,W,213452.00,A,A*72
$GPVTG,000.0,T,007.2,M,000.0,N,000.0,K,A*26
$GPGSA,A,3,32,22,01,16,20,25,29,31,,,,,1.67,0.95,1.37*00
$GPGSV,3,1,09,32,62,273,42,22,11,160,37,01,11,267,32,16,10,194,33*7D
$GPGSV,3,2,09,20,29,308,31,25,31,048,34,29,08,089,32,31,75,349,37*76
$GPGSV,3,3,09,14,41,094,26,,,,,,,,,,,,*49
$GPGST,213452.00,,042.55,040.16,072.3,006.51,006.35,006.95*41
$GPRMC,213452.00,A,3917.25824,N,08203.79228,W,000.0,000.0,160214,07.2,W,A*09
$PTNLRTF,V,A,077708,08,3,3917.25824,N,08203.79228,W,00312,+000.000,+000.000,+000.000,0,1*5E
$PTNLRBA,1,1*57
$GPZDA,213454.00,16,02,2014,,*61
$GPGGA,213454.00,3917.25808,N,08203.79238,W,1,08,0.95,00312,M,-033,M,,*57
$GPGLL,3917.25808,N,08203.79238,W,213454.00,A,A*7B
$GPVTG,000.0,T,007.2,M,000.0,N,000.0,K,A*26
$GPGSA,A,3,32,22,01,16,20,25,29,31,,,,,1.67,0.95,1.37*00
$GPGSV,3,1,09,32,62,273,43,22,11,160,37,01,11,267,32,16,10,194,32*7D
$GPGSV,3,2,09,20,29,308,31,25,31,048,34,29,08,089,31,31,75,349,37*75
$GPGSV,3,3,09,14,41,094,26,,,,,,,,,,,,*49
$GPGST,213454.00,,040.11,038.13,074.4,006.32,006.19,006.74*4A
$GPRMC,213454.00,A,3917.25808,N,08203.79238,W,000.0,000.0,160214,07.2,W,A*00
$PTNLRTF,V,A,077710,08,3,3917.25808,N,08203.79238,W,00312,+000.000,+000.000,+000.000,0,1*58
$PTNLRBA,1,1*57
$GPZDA,213455.00,16,02,2014,,*60
$GPGGA,213455.00,3917.25795,N,08203.79245,W,1,08,0.95,00312,M,-033,M,,*57
$GPGLL,3917.25795,N,08203.79245,W,213455.00,A,A*7B
$GPVTG,000.0,T,007.2,M,000.0,N,000.0,K,A*26
$GPGSA,A,3,32,22,01,16,20,25,29,31,,,,,1.67,0.95,1.37*00
$GPGSV,3,1,09,32,62,273,43,22,11,160,36,01,11,267,31,16,10,194,33*7E
$GPGSV,3,2,09,20,29,308,31,25,31,048,34,29,08,089,31,31,75,349,37*75
$GPGSV,3,3,09,14,41,094,25,,,,,,,,,,,,*4A
$GPGST,213455.00,,039.22,037.42,075.6,006.25,006.13,006.66*42
$GPRMC,213455.00,A,3917.25795,N,08203.79245,W,000.0,000.0,160214,07.2,W,A*00
$PTNLRTF,V,A,077711,08,3,3917.25795,N,08203.79245,W,00312,+000.000,+000.000,+000.000,0,1*58
$PTNLRBA,1,1*57
$GPZDA,213457.00,16,02,2014,,*62
$GPGGA,213457.00,3917.25779,N,08203.79236,W,1,07,1.08,00312,M,-033,M,,*59
$GPGLL,3917.25779,N,08203.79236,W,213457.00,A,A*7F
$GPVTG,127.8,T,135.0,M,000.2,N,000.3,K,A*29
$GPGSA,A,3,32,22,01,16,20,29,31,,,,,,1.75,1.08,1.38*0E
$GPGSV,3,1,09,32,62,273,43,22,11,160,36,01,11,267,30,16,10,194,33*7F
$GPGSV,3,2,09,20,29,308,31,25,31,048,36,29,08,089,30,31,75,349,37*76
$GPGSV,3,3,09,14,41,094,27,,,,,,,,,,,,*48
$GPGST,213457.00,,040.94,039.41,078.7,006.39,006.28,006.77*47
$GPRMC,213457.00,A,3917.25779,N,08203.79236,W,000.2,127.8,160214,07.2,W,A*0A
$PTNLRTF,V,A,077713,07,3,3917.25779,N,08203.79236,W,00312,+000.075,-000.058,-000.035,0,1*5A
$PTNLRBA,1,1*57
$GPZDA,213458.00,16,02,2014,,*6D
$GPGGA,213458.00,3917.25791,N,08203.79254,W,1,07,1.08,00311,M,-033,M,,*57
$GPGLL,3917.25791,N,08203.79254,W,213458.00,A,A*72
$GPVTG,312.9,T,320.2,M,000.1,N,000.2,K,A*2A
$GPGSA,A,3,32,22,01,16,20,29,31,,,,,,1.75,1.08,1.38*0E
$GPGSV,3,1,09,32,62,273,44,22,11,160,38,01,11,267,30,16,10,194,33*76
$GPGSV,3,2,09,20,29,308,33,25,31,048,36,29,08,089,32,31,75,349,37*76
$GPGSV,3,3,09,14,41,094,28,,,,,,,,,,,,*47
$GPGST,213458.00,,043.53,042.11,079.0,006.59,006.49,006.94*43
$GPRMC,213458.00,A,3917.25791,N,08203.79254,W,000.1,312.9,160214,07.2,W,A*01
$PTNLRTF,V,A,077714,07,3,3917.25791,N,08203.79254,W,00311,-000.040,+000.037,-000.007,0,1*52
$PTNLRBA,1,1*57
$GPZDA,213500.00,16,02,2014,,*61
$GPGGA,213500.00,3917.25780,N,08203.79269,W,1,08,0.95,00311,M,-033,M,,*5F
$GPGLL,3917.25780,N,08203.79269,W,213500.00,A,A*70
$GPVTG,000.0,T,007.2,M,000.0,N,000.0,K,A*26
$GPGSA,A,3,32,22,01,16,20,25,29,31,,,,,1.67,0.95,1.37*00
$GPGSV,3,1,09,32,62,273,44,22,11,160,38,01,11,267,30,16,10,194,33*76
$GPGSV,3,2,09,20,29,308,33,25,31,048,35,29,08,089,33,31,75,349,37*74
$GPGSV,3,3,09,14,41,094,29,,,,,,,,,,,,*46
$GPGST,213500.00,,043.47,042.32,082.8,006.59,006.51,006.93*49
$GPRMC,213500.00,A,3917.25780,N,08203.79269,W,000.0,000.0,160214,07.2,W,A*0B
$PTNLRTF,V,A,077716,08,3,3917.25780,N,08203.79269,W,00311,+000.000,+000.000,+000.000,0,1*56
$PTNLRBA,1,1*57
$GPZDA,213501.00,16,02,2014,,*60
$GPGGA,213501.00,3917.25781,N,08203.79267,W,1,08,0.95,00311,M,-033,M,,*51
$GPGLL,3917.25781,N,08203.79267,W,213501.00,A,A*7E
$GPVTG,000.0,T,007.2,M,000.0,N,000.0,K,A*26
$GPGSA,A,3,32,22,01,16,20,25,29,31,,,,,1.67,0.95,1.37*00
$GPGSV,3,1,09,32,62,273,43,22,11,160,38,01,11,267,30,16,10,194,33*71
$GPGSV,3,2,09,20,29,308,34,25,31,048,35,29,08,089,34,31,75,349,37*74
$GPGSV,3,3,09,14,41,094,30,,,,,,,,,,,,*4E
$GPGST,213501.00,,044.18,043.13,084.8,006.65,006.57,006.97*4C
$GPRMC,213501.00,A,3917.25781,N,08203.79267,W,000.0,000.0,160214,07.2,W,A*05
$PTNLRTF,V,A,077717,08,3,3917.25781,N,08203.79267,W,00311,+000.000,+000.000,+000.000,0,1*58
$PTNLRBA,1,1*57
$GPZDA,213503.00,16,02,2014,,*62
$GPGGA,213502.00,3917.25769,N,08203.79266,W,1,08,0.95,00311,M,-033,M,,*55
$GPGLL,3917.25769,N,08203.79266,W,213502.00,A,A*7A
$GPVTG,000.0,T,007.2,M,000.0,N,000.0,K,A*26
$GPGSA,A,3,32,22,01,16,20,25,29,31,,,,,1.67,0.95,1.37*00
$GPGSV,3,1,09,32,62,273,43,22,11,160,38,01,11,267,30,16,10,194,33*71
$GPGSV,3,2,09,20,29,308,34,25,31,048,34,29,08,089,33,31,75,349,37*72
$GPGSV,3,3,09,14,41,094,30,,,,,,,,,,,,*4E
$GPGST,213502.00,,047.43,046.47,087.5,006.89,006.82,007.19*45
$GPRMC,213502.00,A,3917.25769,N,08203.79266,W,000.0,000.0,160214,07.2,W,A*01
$PTNLRTF,V,A,077719,08,3,3917.25769,N,08203.79266,W,00311,+000.000,+000.000,+000.000,0,1*51
$PTNLRBA,1,1*57
$GPZDA,213504.00,16,02,2014,,*65
$GPGGA,213504.00,3917.25753,N,08203.79263,W,1,08,0.95,00311,M,-033,M,,*5F
$GPGLL,3917.25753,N,08203.79263,W,213504.00,A,A*70
$GPVTG,000.0,T,007.2,M,000.0,N,000.0,K,A*26
$GPGSA,A,3,32,22,01,16,20,25,29,31,,,,,1.67,0.95,1.37*00
$GPGSV,3,1,09,32,62,273,43,22,11,160,39,01,11,267,29,16,10,194,32*79
$GPGSV,3,2,09,20,29,308,33,25,31,048,34,29,08,089,34,31,75,349,37*72
$GPGSV,3,3,09,14,41,094,31,,,,,,,,,,,,*4F
$GPGST,213504.00,,054.41,053.58,087.5,007.38,007.32,007.65*43
$GPRMC,213504.00,A,3917.25753,N,08203.79263,W,000.0,000.0,160214,07.2,W,A*0B
$PTNLRTF,V,A,077720,08,3,3917.25753,N,08203.79263,W,00311,+000.000,+000.000,+000.000,0,1*57
$PTNLRBA,1,1*57
$GPZDA,213505.00,16,02,2014,,*64
$GPGGA,213505.00,3917.25744,N,08203.79257,W,1,08,0.95,00311,M,-033,M,,*5F
$GPGLL,3917.25744,N,08203.79257,W,213505.00,A,A*70
$GPVTG,000.0,T,007.2,M,000.0,N,000.0,K,A*26
$GPGSA,A,3,32,22,01,16,20,25,29,31,,,,,1.67,0.95,1.37*00
$GPGSV,3,1,09,32,62,273,44,22,11,160,38,01,11,267,28,16,10,194,32*7E
$GPGSV,3,2,09,20,29,308,32,25,31,048,34,29,08,089,34,31,75,349,38*7C
$GPGSV,3,3,09,14,41,094,31,,,,,,,,,,,,*4F
$GPGST,213505.00,,056.33,055.54,084.5,007.50,007.45,007.77*41
$GPRMC,213505.00,A,3917.25744,N,08203.79257,W,000.0,000.0,160214,07.2,W,A*0B
$PTNLRTF,V,A,077721,08,3,3917.25744,N,08203.79257,W,00311,+000.000,+000.000,+000.000,0,1*57
$PTNLRBA,1,1*57
$GPZDA,213507.00,16,02,2014,,*66
$GPGGA,213507.00,3917.25752,N,08203.79258,W,1,08,0.95,00310,M,-033,M,,*54
$GPGLL,3917.25752,N,08203.79258,W,213507.00,A,A*7A
$GPVTG,000.0,T,007.2,M,000.0,N,000.0,K,A*26
$GPGSA,A,3,32,22,01,16,20,25,29,31,,,,,1.67,0.95,1.37*00
$GPGSV,3,1,09,32,62,273,44,22,11,160,38,01,11,267,28,16,10,194,33*7F
$GPGSV,3,2,09,20,29,308,31,25,31,048,33,29,08,089,35,31,75,349,38*79
$GPGSV,3,3,09,14,41,094,30,,,,,,,,,,,,*4E
$GPGST,213507.00,,085.61,084.87,079.8,009.25,009.21,009.46*4B
$GPRMC,213507.00,A,3917.25752,N,08203.79258,W,000.0,000.0,160214,07.2,W,A*01
$PTNLRTF,V,A,077723,08,3,3917.25752,N,08203.79258,W,00310,+000.000,+000.000,+000.000,0,1*5C
$PTNLRBA,1,1*57
