$GPZDA,,,,,,*48
$GPGGA,,3917.26428,N,08203.79550,W,7,00,,,,,,,*49
$GPGLL,3917.26428,N,08203.79550,W,,V,M*4F
$GPVTG,,,,,,,,,M*33
$GPGSA,A,1,,,,,,,,,,,,,,,*1E
$GPGSV,1,1,00,,,,,,,,,,,,,,,,*79
$GPRMC,,V,3917.26428,N,08203.79550,W,,,,,,M*78
$PTNLRTF,V,V,,00,0,,,,,,,,,,*5A
$PTNLRBA,1,1*57
$GPZDA,,,,,,*48
$GPGGA,,3917.26428,N,08203.79550,W,7,00,,,,,,,*49
$GPGLL,3917.26428,N,08203.79550,W,,V,M*4F
$GPVTG,,,,,,,,,M*33
$GPGSA,A,1,,,,,,,,,,,,,,,*1E
$GPGSV,1,1,00,,,,,,,,,,,,,,,,*79
$GPRMC,,V,3917.26428,N,08203.79550,W,,,,,,M*78
$PTNLRTF,V,V,,00,0,,,,,,,,,,*5A
$PTNLRBA,1,1*57
$GPZDA,,,,,,*48
$GPGGA,,3917.26428,N,08203.79550,W,7,00,,,,,,,*49
$GPGLL,3917.26428,N,08203.79550,W,,V,M*4F
$GPVTG,,,,,,,,,M*33
$GPGSA,A,1,,,,,,,,,,,,,,,*1E
$GPGSV,1,1,03,21,,000,36,26,,000,46,25,,000,39,,,,*47
$GPRMC,,V,3917.26428,N,08203.79550,W,,,,,,M*78
$PTNLRTF,V,V,,00,0,,,,,,,,,,*5A
$PTNLRBA,1,1*57
$GPZDA,,,,,,*48
$GPGGA,,3917.26428,N,08203.79550,W,7,00,,,,,,,*49
$GPGLL,3917.26428,N,08203.79550,W,,V,M*4F
$GPVTG,,,,,,,,,M*33
$GPGSA,A,1,,,,,,,,,,,,,,,*1E
$GPGSV,1,1,04,21,,000,36,26,,000,46,25,,000,36,15,,000,40*7F
$GPRMC,,V,3917.26428,N,08203.79550,W,,,,,,M*78
$PTNLRTF,V,V,,00,0,,,,,,,,,,*5A
$PTNLRBA,1,1*57
$GPZDA,,,,,,*48
$GPGGA,,3917.26428,N,08203.79550,W,7,00,,,,,,,*49
$GPGLL,3917.26428,N,08203.79550,W,,V,M*4F
$GPVTG,,,,,,,,,M*33
$GPGSA,A,1,,,,,,,,,,,,,,,*1E
$GPGSV,1,1,04,21,,000,36,26,,000,46,25,,000,36,15,,000,40*7F
$GPRMC,,V,3917.26428,N,08203.79550,W,,,,,,M*78
$PTNLRTF,V,V,,00,0,,,,,,,,,,*5A
$PTNLRBA,1,1*57
$GPZDA,,,,,,*48
$GPGGA,,3917.26428,N,08203.79550,W,7,00,,,,,,,*49
$GPGLL,3917.26428,N,08203.79550,W,,V,M*4F
$GPVTG,,,,,,,,,M*33
$GPGSA,A,1,,,,,,,,,,,,,,,*1E
$GPGSV,1,1,04,21,,000,35,26,,000,46,25,,000,36,15,,000,40*7C
$GPRMC,,V,3917.26428,N,08203.79550,W,,,,,,M*78
$PTNLRTF,V,V,,00,0,,,,,,,,,,*5A
$PTNLRBA,1,1*57
$GPZDA,,,,,,*48
$GPGGA,,3917.26428,N,08203.79550,W,7,00,,,,,,,*49
$GPGLL,3917.26428,N,08203.79550,W,,V,M*4F
$GPVTG,,,,,,,,,M*33
$GPGSA,A,1,,,,,,,,,,,,,,,*1E
$GPGSV,1,1,04,21,,000,36,26,,000,46,25,,000,36,15,,000,40*7F
$GPRMC,,V,3917.26428,N,08203.79550,W,,,,,,M*78
$PTNLRTF,V,V,586999,00,0,,,,,,,,,,*58
$PTNLRBA,1,1*57
$GPZDA,,,,,,*48
$GPGGA,,3917.26428,N,08203.79550,W,7,00,,,,,,,*49
$GPGLL,3917.26428,N,08203.79550,W,,V,M*4F
$GPVTG,,,,,,,,,M*33
$GPGSA,A,1,,,,,,,,,,,,,,,*1E
$GPGSV,1,1,04,21,,000,36,26,,000,46,25,,000,37,15,18,184,40*7A
$GPRMC,,V,3917.26428,N,08203.79550,W,,,,,,M*78
$PTNLRTF,V,V,587000,00,0,,,,,,,,,,*50
$PTNLRBA,1,1*57
$GPZDA,,,,,,*48
$GPGGA,,3917.26428,N,08203.79550,W,7,00,,,,,,,*49
$GPGLL,3917.26428,N,08203.79550,W,,V,M*4F
$GPVTG,,,,,,,,,M*33
$GPGSA,A,1,,,,,,,,,,,,,,,*1E
$GPGSV,1,1,04,21,,000,36,26,,000,46,25,,000,37,15,18,184,40*7A
$GPRMC,,V,3917.26428,N,08203.79550,W,,,,,,M*78
$PTNLRTF,V,V,587001,00,0,,,,,,,,,,*51
$PTNLRBA,1,1*57
$GPZDA,,,,,,*48
$GPGGA,,3917.26428,N,08203.79550,W,7,00,,,,,,,*49
$GPGLL,3917.26428,N,08203.79550,W,,V,M*4F
$GPVTG,,,,,,,,,M*33
$GPGSA,A,1,,,,,,,,,,,,,,,*1E
$GPGSV,1,1,04,21,,000,36,26,,000,46,25,,000,37,15,18,184,41*7B
$GPRMC,,V,3917.26428,N,08203.79550,W,,,,,,M*78
$PTNLRTF,V,V,587003,00,0,,,,,,,,,,*53
$PTNLRBA,1,1*57
$GPZDA,,,,,,*48
$GPGGA,,3917.26428,N,08203.79550,W,7,00,,,,,,,*49
$GPGLL,3917.26428,N,08203.79550,W,,V,M*4F
$GPVTG,,,,,,,,,M*33
$GPGSA,A,1,,,,,,,,,,,,,,,*1E
$GPGSV,1,1,04,21,,000,36,26,,000,46,25,,000,37,15,18,184,40*7A
$GPRMC,,V,3917.26428,N,08203.79550,W,,,,,,M*78
$PTNLRTF,V,V,587004,00,0,,,,,,,,,,*54
$PTNLRBA,1,1*57
$GPZDA,,,,,,*48
$GPGGA,,3917.26428,N,08203.79550,W,7,00,,,,,,,*49
$GPGLL,3917.26428,N,08203.79550,W,,V,M*4F
$GPVTG,,,,,,,,,M*33
$GPGSA,A,1,,,,,,,,,,,,,,,*1E
$GPGSV,1,1,04,21,,000,36,26,,000,46,25,,000,37,15,18,184,40*7A
$GPRMC,,V,3917.26428,N,08203.79550,W,,,,,,M*78
$PTNLRTF,V,V,587005,00,0,,,,,,,,,,*55
$PTNLRBA,1,1*57
$GPZDA,,,,,,*48
$GPGGA,,3917.26428,N,08203.79550,W,7,00,,,,,,,*49
$GPGLL,3917.26428,N,08203.79550,W,,V,M*4F
$GPVTG,,,,,,,,,M*33
$GPGSA,A,1,,,,,,,,,,,,,,,*1E
$GPGSV,1,1,04,21,,000,36,26,,000,46,25,,000,37,15,18,184,40*7A
$GPRMC,,V,3917.26428,N,08203.79550,W,,,,,,M*78
$PTNLRTF,V,V,587006,00,0,,,,,,,,,,*56
$PTNLRBA,1,1*57
$GPZDA,,,,,,*48
$GPGGA,,3917.26428,N,08203.79550,W,7,00,,,,,,,*49
$GPGLL,3917.26428,N,08203.79550,W,,V,M*4F
$GPVTG,,,,,,,,,M*33
$GPGSA,A,1,,,,,,,,,,,,,,,*1E
$GPGSV,1,1,04,21,,000,36,26,,000,46,25,,000,37,15,18,184,40*7A
$GPRMC,,V,3917.26428,N,08203.79550,W,,,,,,M*78
$PTNLRTF,V,V,587007,00,0,,,,,,,,,,*57
$PTNLRBA,1,1*57
$GPZDA,,,,,,*48
$GPGGA,,3917.26428,N,08203.79550,W,7,00,,,,,,,*49
$GPGLL,3917.26428,N,08203.79550,W,,V,M*4F
$GPVTG,,,,,,,,,M*33
$GPGSA,A,1,,,,,,,,,,,,,,,*1E
$GPGSV,2,1,05,21,,000,36,26,,000,46,25,,000,37,15,18,184,40*78
$GPGSV,2,2,05,02,,000,31,,,,,,,,,,,,*4C
$GPRMC,,V,3917.26428,N,08203.79550,W,,,,,,M*78
$PTNLRTF,V,V,587008,00,0,,,,,,,,,,*58
$PTNLRBA,1,1*57
$GPZDA,,,,,,*48
$GPGGA,,3917.26428,N,08203.79550,W,7,00,,,,,,,*49
$GPGLL,3917.26428,N,08203.79550,W,,V,M*4F
$GPVTG,,,,,,,,,M*33
$GPGSA,A,1,,,,,,,,,,,,,,,*1E
$GPGSV,2,1,05,21,,000,36,26,,000,46,25,,000,37,15,18,184,40*78
$GPGSV,2,2,05,02,,000,33,,,,,,,,,,,,*4E
$GPRMC,,V,3917.26428,N,08203.79550,W,,,,,,M*78
$PTNLRTF,V,V,587009,00,0,,,,,,,,,,*59
$PTNLRBA,1,1*57
$GPZDA,,,,,,*48
$GPGGA,,3917.26428,N,08203.79550,W,7,00,,,,,,,*49
$GPGLL,3917.26428,N,08203.79550,W,,V,M*4F
$GPVTG,,,,,,,,,M*33
$GPGSA,A,1,,,,,,,,,,,,,,,*1E
$GPGSV,2,1,05,21,,000,36,26,,000,46,25,,000,37,15,18,184,40*78
$GPGSV,2,2,05,02,,000,33,,,,,,,,,,,,*4E
$GPRMC,,V,3917.26428,N,08203.79550,W,,,,,,M*78
$PTNLRTF,V,V,587010,00,0,,,,,,,,,,*51
$PTNLRBA,1,1*57
$GPZDA,,,,,,*48
$GPGGA,,3917.26428,N,08203.79550,W,7,00,,,,,,,*49
$GPGLL,3917.26428,N,08203.79550,W,,V,M*4F
$GPVTG,,,,,,,,,M*33
$GPGSA,A,1,,,,,,,,,,,,,,,*1E
$GPGSV,2,1,05,21,,000,36,26,,000,46,25,,000,37,15,18,184,40*78
$GPGSV,2,2,05,02,,000,34,,,,,,,,,,,,*49
$GPRMC,,V,3917.26428,N,08203.79550,W,,,,,,M*78
$PTNLRTF,V,V,587011,00,0,,,,,,,,,,*50
$PTNLRBA,1,1*57
$GPZDA,,,,,,*48
$GPGGA,,3917.26428,N,08203.79550,W,7,00,,,,,,,*49
$GPGLL,3917.26428,N,08203.79550,W,,V,M*4F
$GPVTG,,,,,,,,,M*33
$GPGSA,A,1,,,,,,,,,,,,,,,*1E
$GPGSV,2,1,05,21,,000,36,26,,000,46,25,,000,36,15,18,184,40*79
$GPGSV,2,2,05,02,,000,33,,,,,,,,,,,,*4E
$GPRMC,,V,3917.26428,N,08203.79550,W,,,,,,M*78
$PTNLRTF,V,V,587012,00,0,,,,,,,,,,*53
$PTNLRBA,1,1*57
$GPZDA,,,,,,*48
$GPGGA,,3917.26428,N,08203.79550,W,7,00,,,,,,,*49
$GPGLL,3917.26428,N,08203.79550,W,,V,M*4F
$GPVTG,,,,,,,,,M*33
$GPGSA,A,1,,,,,,,,,,,,,,,*1E
$GPGSV,2,1,05,21,,000,37,26,,000,46,25,,000,36,15,18,184,39*76
$GPGSV,2,2,05,02,,000,33,,,,,,,,,,,,*4E
$GPRMC,,V,3917.26428,N,08203.79550,W,,,,,,M*78
$PTNLRTF,V,V,587013,00,0,,,,,,,,,,*52
$PTNLRBA,1,1*57
$GPZDA,,,,,,*48
$GPGGA,,3917.26428,N,08203.79550,W,7,00,,,,,,,*49
$GPGLL,3917.26428,N,08203.79550,W,,V,M*4F
$GPVTG,,,,,,,,,M*33
$GPGSA,A,1,,,,,,,,,,,,,,,*1E
$GPGSV,2,1,05,21,,000,36,26,,000,46,25,,000,36,15,18,184,40*79
$GPGSV,2,2,05,02,,000,34,,,,,,,,,,,,*49
$GPRMC,,V,3917.26428,N,08203.79550,W,,,,,,M*78
$PTNLRTF,V,V,587014,00,0,,,,,,,,,,*55
$PTNLRBA,1,1*57
$GPZDA,,,,,,*48
$GPGGA,,3917.26428,N,08203.79550,W,7,00,,,,,,,*49
$GPGLL,3917.26428,N,08203.79550,W,,V,M*4F
$GPVTG,,,,,,,,,M*33
$GPGSA,A,1,,,,,,,,,,,,,,,*1E
$GPGSV,2,1,05,21,,000,37,26,,000,46,25,,000,36,15,18,184,40*78
$GPGSV,2,2,05,02,,000,33,,,,,,,,,,,,*4E
$GPRMC,,V,3917.26428,N,08203.79550,W,,,,,,M*78
$PTNLRTF,V,V,587015,00,0,,,,,,,,,,*54
$PTNLRBA,1,1*57
$GPZDA,190336.00,16,11,2013,,*6F
$GPGGA,,3917.26428,N,08203.79550,W,7,00,,,,,,,*49
$GPGLL,3917.26428,N,08203.79550,W,,V,M*4F
$GPVTG,,,,,,,,,M*33
$GPGSA,A,1,,,,,,,,,,,,,,,*1E
$GPGSV,2,1,05,21,,000,37,26,,000,46,25,,000,36,15,18,184,40*78
$GPGSV,2,2,05,02,,000,34,,,,,,,,,,,,*49
$GPRMC,190336.00,V,3917.26428,N,08203.79550,W,,,,,,M*58
$PTNLRTF,V,V,587016,00,0,,,,,,,,,,*57
$PTNLRBA,1,1*57
$GPZDA,190337.00,16,11,2013,,*6E
$GPGGA,,3917.26428,N,08203.79550,W,7,00,,,,,,,*49
$GPGLL,3917.26428,N,08203.79550,W,,V,M*4F
$GPVTG,,,,,,,,,M*33
$GPGSA,A,1,,,,,,,,,,,,,,,*1E
$GPGSV,2,1,06,21,,000,37,26,,000,46,25,,000,36,15,18,184,40*7B
$GPGSV,2,2,06,02,,000,34,29,,000,36,,,,,,,,*74
$GPRMC,190337.00,V,3917.26428,N,08203.79550,W,,,,,,M*59
$PTNLRTF,V,V,587017,00,0,,,,,,,,,,*56
$PTNLRBA,1,1*57
$GPZDA,190338.00,16,11,2013,,*61
$GPGGA,,3917.26428,N,08203.79550,W,7,00,,,,,,,*49
$GPGLL,3917.26428,N,08203.79550,W,,V,M*4F
$GPVTG,,,,,,,,,M*33
$GPGSA,A,1,,,,,,,,,,,,,,,*1E
$GPGSV,2,1,06,21,,000,37,26,,000,46,25,,000,36,15,18,184,40*7B
$GPGSV,2,2,06,02,,000,35,29,,000,36,,,,,,,,*75
$GPRMC,190338.00,V,3917.26428,N,08203.79550,W,,,,,,M*56
$PTNLRTF,V,V,587018,00,0,,,,,,,,,,*59
$PTNLRBA,1,1*57
$GPZDA,190339.00,16,11,2013,,*60
$GPGGA,,3917.26428,N,08203.79550,W,7,00,,,,,,,*49
$GPGLL,3917.26428,N,08203.79550,W,,V,M*4F
$GPVTG,,,,,,,,,M*33
$GPGSA,A,1,,,,,,,,,,,,,,,*1E
$GPGSV,2,1,06,21,,000,37,26,,000,46,25,,000,36,15,18,184,40*7B
$GPGSV,2,2,06,02,,000,36,29,,000,36,,,,,,,,*76
$GPRMC,190339.00,V,3917.26428,N,08203.79550,W,,,,,,M*57
$PTNLRTF,V,V,587019,00,0,,,,,,,,,,*58
$PTNLRBA,1,1*57
$GPZDA,190340.00,16,11,2013,,*6E
$GPGGA,,3917.26428,N,08203.79550,W,7,00,,,,,,,*49
$GPGLL,3917.26428,N,08203.79550,W,,V,M*4F
$GPVTG,,,,,,,,,M*33
$GPGSA,A,1,,,,,,,,,,,,,,,*1E
$GPGSV,2,1,06,21,,000,37,26,,000,46,25,,000,36,15,18,184,40*7B
$GPGSV,2,2,06,02,,000,35,29,,000,37,,,,,,,,*74
$GPRMC,190340.00,V,3917.26428,N,08203.79550,W,,,,,,M*59
$PTNLRTF,V,V,587020,00,0,,,,,,,,,,*52
$PTNLRBA,1,1*57
$GPZDA,190341.00,16,11,2013,,*6F
$GPGGA,,3917.26428,N,08203.79550,W,7,00,,,,,,,*49
$GPGLL,3917.26428,N,08203.79550,W,,V,M*4F
$GPVTG,,,,,,,,,M*33
$GPGSA,A,1,,,,,,,,,,,,,,,*1E
$GPGSV,2,1,06,21,,000,37,26,,000,46,25,,000,36,15,18,184,40*7B
$GPGSV,2,2,06,02,,000,35,29,,000,37,,,,,,,,*74
$GPRMC,190341.00,V,3917.26428,N,08203.79550,W,,,,,,M*58
$PTNLRTF,V,V,587021,00,0,,,,,,,,,,*53
$PTNLRBA,1,1*57
$GPZDA,190342.00,16,11,2013,,*6C
$GPGGA,,3917.26428,N,08203.79550,W,7,00,,,,,,,*49
$GPGLL,3917.26428,N,08203.79550,W,,V,M*4F
$GPVTG,,,,,,,,,M*33
$GPGSA,A,1,,,,,,,,,,,,,,,*1E
$GPGSV,2,1,06,21,,000,37,26,,000,46,25,,000,36,15,18,184,40*7B
$GPGSV,2,2,06,02,,000,36,29,,000,37,,,,,,,,*77
$GPRMC,190342.00,V,3917.26428,N,08203.79550,W,,,,,,M*5B
$PTNLRTF,V,V,587022,00,0,,,,,,,,,,*50
$PTNLRBA,1,1*57
$GPZDA,190343.00,16,11,2013,,*6D
$GPGGA,,3917.26428,N,08203.79550,W,7,00,,,,,,,*49
$GPGLL,3917.26428,N,08203.79550,W,,V,M*4F
$GPVTG,,,,,,,,,M*33
$GPGSA,A,1,,,,,,,,,,,,,,,*1E
$GPGSV,2,1,06,21,,000,37,26,,000,46,25,,000,36,15,18,184,40*7B
$GPGSV,2,2,06,02,,000,35,29,,000,37,,,,,,,,*74
$GPRMC,190343.00,V,3917.26428,N,08203.79550,W,,,,,,M*5A
$PTNLRTF,V,V,587023,00,0,,,,,,,,,,*51
$PTNLRBA,1,1*57
$GPZDA,190344.00,16,11,2013,,*6A
$GPGGA,,3917.26428,N,08203.79550,W,7,00,,,,,,,*49
$GPGLL,3917.26428,N,08203.79550,W,,V,M*4F
$GPVTG,,,,,,,,,M*33
$GPGSA,A,1,,,,,,,,,,,,,,,*1E
$GPGSV,2,1,06,21,,000,37,26,,000,46,25,,000,36,15,18,184,40*7B
$GPGSV,2,2,06,02,,000,35,29,,000,37,,,,,,,,*74
$GPRMC,190344.00,V,3917.26428,N,08203.79550,W,,,,,,M*5D
$PTNLRTF,V,V,587024,00,0,,,,,,,,,,*56
$PTNLRBA,1,1*57
$GPZDA,190345.00,16,11,2013,,*6B
$GPGGA,,3917.26428,N,08203.79550,W,7,00,,,,,,,*49
$GPGLL,3917.26428,N,08203.79550,W,,V,M*4F
$GPVTG,,,,,,,,,M*33
$GPGSA,A,1,,,,,,,,,,,,,,,*1E
$GPGSV,2,1,06,21,,000,37,26,,000,46,25,,000,36,15,18,184,40*7B
$GPGSV,2,2,06,02,,000,36,29,,000,37,,,,,,,,*77
$GPRMC,190345.00,V,3917.26428,N,08203.79550,W,,,,,,M*5C
$PTNLRTF,V,V,587025,00,0,,,,,,,,,,*57
$PTNLRBA,1,1*57
