$GPZDA,,,,,,*48
$GPGGA,,3917.26134,N,08203.78597,W,7,00,,,,,,,*4B
$GPGLL,3917.26134,N,08203.78597,W,,V,M*4D
$GPVTG,,,,,,,,,M*33
$GPGSA,A,1,,,,,,,,,,,,,,,*1E
$GPGSV,1,1,02,02,,000,35,15,,000,42,,,,,,,,*7D
$GPRMC,,V,3917.26134,N,08203.78597,W,,,,,,M*7A
$PTNLRTF,V,A,,00,0,,,,,,,,,,*4D
$PTNLRBA,1,1*57
$GPZDA,,,,,,*48
$GPGGA,,3917.26134,N,08203.78597,W,7,00,,,,,,,*4B
$GPGLL,3917.26134,N,08203.78597,W,,V,M*4D
$GPVTG,,,,,,,,,M*33
$GPGSA,A,1,,,,,,,,,,,,,,,*1E
$GPGSV,1,1,04,02,,000,37,15,,000,42,29,,000,37,18,,000,34*78
$GPRMC,,V,3917.26134,N,08203.78597,W,,,,,,M*7A
$PTNLRTF,V,A,,00,0,,,,,,,,,,*4D
$PTNLRBA,1,1*57
$GPZDA,,,,,,*48
$GPGGA,,3917.26134,N,08203.78597,W,7,00,,,,,,,*4B
$GPGLL,3917.26134,N,08203.78597,W,,V,M*4D
$GPVTG,,,,,,,,,M*33
$GPGSA,A,1,,,,,,,,,,,,,,,*1E
$GPGSV,1,1,04,02,,000,36,15,,000,42,29,,000,39,18,,000,34*77
$GPRMC,,V,3917.26134,N,08203.78597,W,,,,,,M*7A
$PTNLRTF,V,A,,00,0,,,,,,,,,,*4D
$PTNLRBA,1,1*57
$GPZDA,,,,,,*48
$GPGGA,,3917.26134,N,08203.78597,W,7,00,,,,,,,*4B
$GPGLL,3917.26134,N,08203.78597,W,,V,M*4D
$GPVTG,,,,,,,,,M*33
$GPGSA,A,1,,,,,,,,,,,,,,,*1E
$GPGSV,1,1,04,02,,000,37,15,,000,42,29,,000,38,18,,000,34*77
$GPRMC,,V,3917.26134,N,08203.78597,W,,,,,,M*7A
$PTNLRTF,V,A,,00,0,,,,,,,,,,*4D
$PTNLRBA,1,1*57
$GPZDA,,,,,,*48
$GPGGA,,3917.26134,N,08203.78597,W,7,00,,,,,,,*4B
$GPGLL,3917.26134,N,08203.78597,W,,V,M*4D
$GPVTG,,,,,,,,,M*33
$GPGSA,A,1,,,,,,,,,,,,,,,*1E
$GPGSV,1,1,04,02,,000,37,15,,000,43,29,,000,38,18,,000,34*76
$GPRMC,,V,3917.26134,N,08203.78597,W,,,,,,M*7A
$PTNLRTF,V,A,,00,0,,,,,,,,,,*4D
$PTNLRBA,1,1*57
$GPZDA,,,,,,*48
$GPGGA,,3917.26134,N,08203.78597,W,7,00,,,,,,,*4B
$GPGLL,3917.26134,N,08203.78597,W,,V,M*4D
$GPVTG,,,,,,,,,M*33
$GPGSA,A,1,,,,,,,,,,,,,,,*1E
$GPGSV,1,1,04,02,,000,36,15,,000,42,29,,000,39,18,,000,34*77
$GPRMC,,V,3917.26134,N,08203.78597,W,,,,,,M*7A
$PTNLRTF,V,A,,00,0,,,,,,,,,,*4D
$PTNLRBA,1,1*57
$GPZDA,,,,,,*48
$GPGGA,,3917.26134,N,08203.78597,W,7,00,,,,,,,*4B
$GPGLL,3917.26134,N,08203.78597,W,,V,M*4D
$GPVTG,,,,,,,,,M*33
$GPGSA,A,1,,,,,,,,,,,,,,,*1E
$GPGSV,2,1,06,02,,000,36,15,,000,44,29,,000,37,18,,000,34*7E
$GPGSV,2,2,06,08,,000,33,09,,000,36,,,,,,,,*7B
$GPRMC,,V,3917.26134,N,08203.78597,W,,,,,,M*7A
$PTNLRTF,V,A,,00,0,,,,,,,,,,*4D
$PTNLRBA,1,1*57
$GPZDA,,,,,,*48
$GPGGA,,3917.26134,N,08203.78597,W,7,05,,,,,,,*4E
$GPGLL,3917.26134,N,08203.78597,W,,V,M*4D
$GPVTG,,,,,,,,,M*33
$GPGSA,A,1,02,15,18,08,09,,,,,,,,,,*10
$GPGSV,2,1,06,02,,000,38,15,,000,43,29,,000,38,18,,000,35*79
$GPGSV,2,2,06,08,,000,32,09,,000,38,,,,,,,,*74
$GPRMC,,V,3917.26134,N,08203.78597,W,,,,,,M*7A
$PTNLRTF,V,A,594691,05,0,,,,,,,,,,*4E
$PTNLRBA,1,1*57
$GPZDA,211116.00,09,11,2013,,*6B
$GPGGA,211116.00,3917.27228,N,08203.79841,W,1,06,1.91,00315,M,-033,M,,*54
$GPGLL,3917.27228,N,08203.79841,W,211116.00,A,A*74
$GPVTG,087.0,T,094.3,M,000.1,N,000.2,K,A*21
$GPGSA,A,3,02,15,29,18,08,09,,,,,,,3.10,1.91,2.44*0E
$GPGSV,2,1,06,02,,000,37,15,,000,42,29,,000,38,18,,000,34*76
$GPGSV,2,2,06,08,,000,34,09,,000,39,,,,,,,,*73
$GPGST,211116.00,,086.38,079.06,063.8,009.22,008.97,017.32*45
$GPRMC,211116.00,A,3917.27228,N,08203.79841,W,000.1,087.0,091113,07.2,W,A*0A
$PTNLRTF,V,A,594693,06,3,3917.27228,N,08203.79841,W,00315,+000.054,+000.003,-000.020,1,1*5A
$PTNLRBA,1,1*57
$GPZDA,211117.00,09,11,2013,,*6A
$GPGGA,211117.00,3917.26832,N,08203.79018,W,1,05,9.19,00314,M,-033,M,,*5B
$GPGLL,3917.26832,N,08203.79018,W,211117.00,A,A*71
$GPVTG,343.5,T,350.7,M,000.1,N,000.2,K,A*20
$GPGSA,A,3,02,15,29,08,09,,,,,,,,20.9,9.19,18.8*05
$GPGSV,2,1,07,02,12,121,38,15,66,173,42,29,49,214,39,18,28,266,34*7F
$GPGSV,2,2,07,08,10,049,35,09,13,051,39,21,41,309,36,,,,*40
$GPGST,211117.00,,272.96,071.76,002.9,008.50,016.51,024.41*45
$GPRMC,211117.00,A,3917.26832,N,08203.79018,W,000.1,343.5,091113,07.2,W,A*01
$PTNLRTF,V,A,594694,05,3,3917.26832,N,08203.79018,W,00314,-000.018,+000.061,-000.002,1,1*51
$PTNLRBA,1,1*57
$GPZDA,211119.00,09,11,2013,,*64
$GPGGA,211119.00,3917.26793,N,08203.79288,W,1,06,1.75,00309,M,-033,M,,*57
$GPGLL,3917.26793,N,08203.79288,W,211119.00,A,A*70
$GPVTG,012.7,T,019.9,M,000.2,N,000.4,K,A*20
$GPGSA,A,3,02,15,29,18,09,21,,,,,,,2.90,1.75,2.31*04
$GPGSV,3,1,09,02,12,121,37,15,66,173,42,29,49,214,38,18,28,266,35*7F
$GPGSV,3,2,09,08,10,049,33,09,13,051,38,21,41,309,35,26,57,069,37*76
$GPGSV,3,3,09,05,33,062,31,,,,,,,,,,,,*43
$GPGST,211119.00,,103.99,073.07,060.5,009.82,008.98,017.22*4C
$GPRMC,211119.00,A,3917.26793,N,08203.79288,W,000.2,012.7,091113,07.2,W,A*06
$PTNLRTF,V,A,594695,06,3,3917.26793,N,08203.79288,W,00309,+000.023,+000.104,-000.003,1,1*5D
$PTNLRBA,1,1*57
$GPZDA,211120.00,09,11,2013,,*6E
$GPGGA,211120.00,3917.26455,N,08203.79774,W,1,07,1.53,00295,M,-033,M,,*53
$GPGLL,3917.26455,N,08203.79774,W,211120.00,A,A*75
$GPVTG,338.5,T,345.7,M,000.1,N,000.1,K,A*2B
$GPGSA,A,3,02,15,29,18,09,21,26,,,,,,2.22,1.53,1.61*0B
$GPGSV,3,1,09,02,12,121,37,15,66,173,42,29,49,214,38,18,28,266,35*7F
$GPGSV,3,2,09,08,10,049,34,09,13,051,37,21,41,309,36,26,57,069,38*72
$GPGSV,3,3,09,05,33,062,31,,,,,,,,,,,,*43
$GPGST,211120.00,,094.57,066.26,087.1,009.72,008.14,014.26*4D
$GPRMC,211120.00,A,3917.26455,N,08203.79774,W,000.1,338.5,091113,07.2,W,A*09
$PTNLRTF,V,A,594696,07,3,3917.26455,N,08203.79774,W,00295,-000.014,+000.035,+000.003,1,1*53
$PTNLRBA,1,1*57
$GPZDA,211121.00,09,11,2013,,*6F
$GPGGA,211121.00,3917.26205,N,08203.79131,W,1,06,1.75,00301,M,-033,M,,*5F
$GPGLL,3917.26205,N,08203.79131,W,211121.00,A,A*70
$GPVTG,333.8,T,341.0,M,000.3,N,000.5,K,A*28
$GPGSA,A,3,02,15,29,18,09,21,,,,,,,2.90,1.75,2.31*04
$GPGSV,3,1,09,02,12,121,37,15,66,173,43,29,49,214,38,18,28,266,35*7E
$GPGSV,3,2,09,08,10,049,33,09,13,051,37,21,41,309,36,26,57,069,37*7A
$GPGSV,3,3,09,05,33,062,32,,,,,,,,,,,,*40
$GPGST,211121.00,,122.21,084.75,052.8,010.42,009.92,017.79*47
$GPRMC,211121.00,A,3917.26205,N,08203.79131,W,000.3,333.8,091113,07.2,W,A*08
$PTNLRTF,V,A,594697,06,3,3917.26205,N,08203.79131,W,00301,-000.067,+000.136,-000.012,1,1*5B
$PTNLRBA,1,1*57
$GPZDA,211122.00,09,11,2013,,*6C
$GPGGA,211122.00,3917.26184,N,08203.79032,W,1,06,1.25,00300,M,-033,M,,*50
$GPGLL,3917.26184,N,08203.79032,W,211122.00,A,A*7B
$GPVTG,351.7,T,358.9,M,000.1,N,000.1,K,A*24
$GPGSA,A,3,02,15,29,18,09,21,,,,,,,2.41,1.25,2.06*09
$GPGSV,3,1,09,02,12,121,37,15,66,173,43,29,49,214,39,18,28,266,35*7F
$GPGSV,3,2,09,08,10,049,34,09,13,051,38,21,41,309,36,26,57,069,37*72
$GPGSV,3,3,09,05,33,062,32,,,,,,,,,,,,*40
$GPGST,211122.00,,103.40,072.61,060.5,009.79,008.95,017.20*4A
$GPRMC,211122.00,A,3917.26184,N,08203.79032,W,000.1,351.7,091113,07.2,W,A*0A
$PTNLRTF,V,A,594698,06,3,3917.26184,N,08203.79032,W,00300,-000.004,+000.027,+000.005,0,1*58
$PTNLRBA,1,1*57
$GPZDA,211123.00,09,11,2013,,*6D
$GPGGA,211123.00,3917.26203,N,08203.79247,W,1,09,1.00,00295,M,-033,M,,*58
$GPGLL,3917.26203,N,08203.79247,W,211123.00,A,A*76
$GPVTG,000.0,T,007.2,M,000.0,N,000.0,K,A*26
$GPGSA,A,3,02,15,29,18,08,09,21,26,05,,,,1.77,1.00,1.46*06
$GPGSV,3,1,09,02,12,121,36,15,66,173,43,29,49,214,38,18,28,266,34*7E
$GPGSV,3,2,09,08,10,049,33,09,13,051,37,21,41,309,35,26,57,069,38*76
$GPGSV,3,3,09,05,33,062,32,,,,,,,,,,,,*40
$GPGST,211123.00,,057.12,054.37,047.3,007.47,007.46,011.89*4F
$GPRMC,211123.00,A,3917.26203,N,08203.79247,W,000.0,000.0,091113,07.2,W,A*06
$PTNLRTF,V,A,594699,09,3,3917.26203,N,08203.79247,W,00295,+000.000,+000.000,+000.000,0,1*55
$PTNLRBA,1,1*57
$GPZDA,211124.00,09,11,2013,,*6A
$GPGGA,211124.00,3917.26171,N,08203.79223,W,1,09,1.00,00294,M,-033,M,,*5A
$GPGLL,3917.26171,N,08203.79223,W,211124.00,A,A*75
$GPVTG,000.0,T,007.2,M,000.0,N,000.0,K,A*26
$GPGSA,A,3,02,15,29,18,08,09,21,26,05,,,,1.77,1.00,1.46*06
$GPGSV,3,1,09,02,12,121,37,15,66,173,42,29,49,214,38,18,28,266,34*7E
$GPGSV,3,2,09,08,10,049,32,09,13,051,37,21,41,309,37,26,57,069,37*7A
$GPGSV,3,3,09,05,33,062,31,,,,,,,,,,,,*43
$GPGST,211124.00,,055.41,054.44,045.2,007.41,007.41,010.41*4F
$GPRMC,211124.00,A,3917.26171,N,08203.79223,W,000.0,000.0,091113,07.2,W,A*05
$PTNLRTF,V,A,594700,09,3,3917.26171,N,08203.79223,W,00294,+000.000,+000.000,+000.000,0,1*51
$PTNLRBA,1,1*57
$GPZDA,211125.00,09,11,2013,,*6B
$GPGGA,211125.00,3917.26169,N,08203.79232,W,1,09,1.00,00293,M,-033,M,,*55
$GPGLL,3917.26169,N,08203.79232,W,211125.00,A,A*7D
$GPVTG,000.0,T,007.2,M,000.0,N,000.0,K,A*26
$GPGSA,A,3,02,15,29,18,08,09,21,26,05,,,,1.77,1.00,1.46*06
$GPGSV,3,1,09,02,12,121,36,15,66,173,42,29,49,214,38,18,28,266,33*78
$GPGSV,3,2,09,08,10,049,32,09,13,051,37,21,41,309,36,26,57,069,37*7B
$GPGSV,3,3,09,05,33,062,31,,,,,,,,,,,,*43
$GPGST,211125.00,,048.70,048.10,036.8,006.95,006.96,009.37*48
$GPRMC,211125.00,A,3917.26169,N,08203.79232,W,000.0,000.0,091113,07.2,W,A*0D
$PTNLRTF,V,A,594701,09,3,3917.26169,N,08203.79232,W,00293,+000.000,+000.000,+000.000,0,1*5E
$PTNLRBA,1,1*57
$GPZDA,211126.00,09,11,2013,,*68
$GPGGA,211126.00,3917.26208,N,08203.79220,W,1,09,1.00,00295,M,-033,M,,*57
$GPGLL,3917.26208,N,08203.79220,W,211126.00,A,A*79
$GPVTG,000.0,T,007.2,M,000.0,N,000.0,K,A*26
$GPGSA,A,3,02,15,29,18,08,09,21,26,05,,,,1.77,1.00,1.46*06
$GPGSV,3,1,10,02,12,121,36,15,66,173,42,29,49,214,38,18,28,266,33*70
$GPGSV,3,2,10,08,10,049,31,09,13,051,37,21,41,309,36,26,57,069,37*70
$GPGSV,3,3,10,05,33,062,30,46,39,202,34,,,,,,,,*75
$GPGST,211126.00,,045.04,044.57,038.6,006.69,006.70,008.73*40
$GPRMC,211126.00,A,3917.26208,N,08203.79220,W,000.0,000.0,091113,07.2,W,A*09
$PTNLRTF,V,A,594703,08,3,3917.26208,N,08203.79220,W,00295,+000.000,+000.000,+000.000,0,1*5C
$PTNLRBA,1,1*57
$GPZDA,211127.00,09,11,2013,,*69
$GPGGA,211127.00,3917.26170,N,08203.79237,W,1,08,1.03,00293,M,-033,M,,*58
$GPGLL,3917.26170,N,08203.79237,W,211127.00,A,A*72
$GPVTG,000.0,T,007.2,M,000.0,N,000.0,K,A*26
$GPGSA,A,3,02,15,29,18,08,21,26,05,,,,,1.83,1.03,1.51*01
$GPGSV,3,1,10,02,12,121,35,15,66,173,42,29,49,214,39,18,28,266,33*72
$GPGSV,3,2,10,08,10,049,32,09,13,051,37,21,41,309,36,26,57,069,37*73
$GPGSV,3,3,10,05,33,062,30,46,39,202,36,,,,,,,,*77
$GPGST,211127.00,,047.08,046.52,061.9,006.85,006.83,008.58*4C
$GPRMC,211127.00,A,3917.26170,N,08203.79237,W,000.0,000.0,091113,07.2,W,A*02
$PTNLRTF,V,A,594703,08,3,3917.26170,N,08203.79237,W,00293,+000.000,+000.000,+000.000,0,1*50
$PTNLRBA,1,1*57
$GPZDA,211128.00,09,11,2013,,*66
$GPGGA,211128.00,3917.26163,N,08203.79196,W,1,07,1.11,00294,M,-033,M,,*56
$GPGLL,3917.26163,N,08203.79196,W,211128.00,A,A*77
$GPVTG,000.0,T,007.2,M,000.0,N,000.0,K,A*26
$GPGSA,A,3,02,15,18,08,21,26,05,,,,,,1.88,1.11,1.52*01
$GPGSV,3,1,10,02,12,121,35,15,66,173,42,29,49,214,39,18,28,266,33*72
$GPGSV,3,2,10,08,10,049,31,09,13,051,37,21,41,309,36,26,57,069,38*7F
$GPGSV,3,3,10,05,33,062,29,46,39,202,36,,,,,,,,*7F
$GPGST,211128.00,,044.82,043.99,058.6,006.68,006.65,008.20*41
$GPRMC,211128.00,A,3917.26163,N,08203.79196,W,000.0,000.0,091113,07.2,W,A*07
$PTNLRTF,V,A,594704,07,3,3917.26163,N,08203.79196,W,00294,+000.000,+000.000,+000.000,0,1*55
$PTNLRBA,1,1*57
$GPZDA,211129.00,09,11,2013,,*67
$GPGGA,211129.00,3917.26158,N,08203.79168,W,1,09,1.00,00293,M,-033,M,,*57
$GPGLL,3917.26158,N,08203.79168,W,211129.00,A,A*7F
$GPVTG,000.0,T,007.2,M,000.0,N,000.0,K,A*26
$GPGSA,A,3,02,15,29,18,08,09,21,26,05,,,,1.77,1.00,1.46*06
$GPGSV,3,1,10,02,12,121,34,15,66,173,42,29,49,214,39,18,28,266,33*73
$GPGSV,3,2,10,08,10,049,31,09,13,051,37,21,41,309,36,26,57,069,37*70
$GPGSV,3,3,10,05,33,062,30,46,39,202,36,,,,,,,,*77
$GPGST,211129.00,,041.32,040.70,064.4,006.42,006.39,007.83*40
$GPRMC,211129.00,A,3917.26158,N,08203.79168,W,000.0,000.0,091113,07.2,W,A*0F
$PTNLRTF,V,A,594706,09,3,3917.26158,N,08203.79168,W,00293,+000.000,+000.000,+000.000,0,1*57
$PTNLRBA,1,1*57
$GPZDA,211130.00,09,11,2013,,*6F
$GPGGA,211130.00,3917.26158,N,08203.79143,W,1,09,1.00,00293,M,-033,M,,*56
$GPGLL,3917.26158,N,08203.79143,W,211130.00,A,A*7E
$GPVTG,000.0,T,007.2,M,000.0,N,000.0,K,A*26
$GPGSA,A,3,02,15,29,18,08,09,21,26,05,,,,1.77,1.00,1.46*06
$GPGSV,3,1,10,02,12,121,35,15,66,173,42,29,49,214,39,18,28,266,34*75
$GPGSV,3,2,10,08,10,049,33,09,13,051,38,21,41,309,37,26,57,069,37*7C
$GPGSV,3,3,10,05,33,062,29,46,39,202,37,,,,,,,,*7E
$GPGST,211130.00,,039.76,039.33,075.9,006.30,006.27,007.59*4E
$GPRMC,211130.00,A,3917.26158,N,08203.79143,W,000.0,000.0,091113,07.2,W,A*0E
$PTNLRTF,V,A,594707,08,3,3917.26158,N,08203.79143,W,00293,+000.000,+000.000,+000.000,0,1*5E
$PTNLRBA,1,1*57
$GPZDA,211131.00,09,11,2013,,*6E
$GPGGA,211131.00,3917.26139,N,08203.79111,W,1,08,1.06,00294,M,-033,M,,*57
$GPGLL,3917.26139,N,08203.79111,W,211131.00,A,A*7F
$GPVTG,000.0,T,007.2,M,000.0,N,000.0,K,A*26
$GPGSA,A,3,02,15,29,18,08,09,21,05,,,,,2.11,1.06,1.82*0F
$GPGSV,3,1,10,02,12,121,35,15,66,173,42,29,49,214,39,18,28,266,34*75
$GPGSV,3,2,10,08,10,049,33,09,13,051,38,21,41,309,36,26,57,069,37*7D
$GPGSV,3,3,10,05,33,062,28,46,39,202,36,,,,,,,,*7E
$GPGST,211131.00,,037.57,037.08,076.5,006.13,006.09,007.35*4C
$GPRMC,211131.00,A,3917.26139,N,08203.79111,W,000.0,000.0,091113,07.2,W,A*0F
$PTNLRTF,V,A,594708,09,3,3917.26139,N,08203.79111,W,00294,+000.000,+000.000,+000.000,0,1*57
$PTNLRBA,1,1*57
$GPZDA,211132.00,09,11,2013,,*6D
$GPGGA,211132.00,3917.26164,N,08203.79101,W,1,09,1.00,00294,M,-033,M,,*5A
$GPGLL,3917.26164,N,08203.79101,W,211132.00,A,A*75
$GPVTG,000.0,T,007.2,M,000.0,N,000.0,K,A*26
$GPGSA,A,3,02,15,29,18,08,09,21,26,05,,,,1.77,1.00,1.46*06
$GPGSV,3,1,10,02,12,121,35,15,66,173,41,29,49,214,39,18,28,266,34*76
$GPGSV,3,2,10,08,10,049,34,09,13,051,39,21,41,309,36,26,57,069,37*7B
$GPGSV,3,3,10,05,33,062,30,46,39,202,37,,,,,,,,*76
$GPGST,211132.00,,039.25,038.84,075.8,006.26,006.23,007.35*4F
$GPRMC,211132.00,A,3917.26164,N,08203.79101,W,000.0,000.0,091113,07.2,W,A*05
$PTNLRTF,V,A,594709,08,3,3917.26164,N,08203.79101,W,00294,+000.000,+000.000,+000.000,0,1*5E
$PTNLRBA,1,1*57
$GPZDA,211133.00,09,11,2013,,*6C
$GPGGA,211133.00,3917.26172,N,08203.79141,W,1,08,1.06,00294,M,-033,M,,*5F
$GPGLL,3917.26172,N,08203.79141,W,211133.00,A,A*77
$GPVTG,000.0,T,007.2,M,000.0,N,000.0,K,A*26
$GPGSA,A,3,02,15,29,18,08,09,21,05,,,,,2.11,1.06,1.82*0F
$GPGSV,3,1,10,02,12,121,35,15,66,173,41,29,49,214,38,18,28,266,34*77
$GPGSV,3,2,10,08,10,049,33,09,13,051,39,21,41,309,37,26,57,069,37*7D
$GPGSV,3,3,10,05,33,062,30,46,39,202,37,,,,,,,,*76
$GPGST,211133.00,,048.19,047.82,066.8,006.94,006.92,007.87*41
$GPRMC,211133.00,A,3917.26172,N,08203.79141,W,000.0,000.0,091113,07.2,W,A*07
$PTNLRTF,V,A,594710,09,3,3917.26172,N,08203.79141,W,00294,+000.000,+000.000,+000.000,0,1*54
$PTNLRBA,1,1*57
$GPZDA,211134.00,09,11,2013,,*6B
$GPGGA,211134.00,3917.26186,N,08203.79126,W,1,09,1.00,00295,M,-033,M,,*54
$GPGLL,3917.26186,N,08203.79126,W,211134.00,A,A*7A
$GPVTG,000.0,T,007.2,M,000.0,N,000.0,K,A*26
$GPGSA,A,3,02,15,29,18,08,09,21,26,05,,,,1.77,1.00,1.46*06
$GPGSV,3,1,10,02,12,121,35,15,66,173,41,29,49,214,39,18,28,266,34*76
$GPGSV,3,2,10,08,10,049,33,09,13,051,39,21,41,309,37,26,57,069,36*7C
$GPGSV,3,3,10,05,33,062,31,46,39,202,37,,,,,,,,*77
$GPGST,211134.00,,049.79,049.44,075.9,007.06,007.03,007.90*43
$GPRMC,211134.00,A,3917.26186,N,08203.79126,W,000.0,000.0,091113,07.2,W,A*0A
$PTNLRTF,V,A,594710,09,3,3917.26186,N,08203.79126,W,00295,+000.000,+000.000,+000.000,0,1*5F
$PTNLRBA,1,1*57
$GPZDA,211135.00,09,11,2013,,*6A
$GPGGA,211135.00,3917.26200,N,08203.79126,W,1,09,1.00,00296,M,-033,M,,*5B
$GPGLL,3917.26200,N,08203.79126,W,211135.00,A,A*76
$GPVTG,000.0,T,007.2,M,000.0,N,000.0,K,A*26
$GPGSA,A,3,02,15,29,18,08,09,21,26,05,,,,1.77,1.00,1.46*06
$GPGSV,3,1,10,02,12,121,34,15,66,173,41,29,49,214,38,18,28,266,34*76
$GPGSV,3,2,10,08,10,049,34,09,13,051,39,21,41,309,36,26,57,069,36*7A
$GPGSV,3,3,10,05,33,062,30,46,39,202,37,,,,,,,,*76
$GPGST,211135.00,,053.02,052.68,079.6,007.28,007.26,008.05*4A
$GPRMC,211135.00,A,3917.26200,N,08203.79126,W,000.0,000.0,091113,07.2,W,A*06
$PTNLRTF,V,A,594711,09,3,3917.26200,N,08203.79126,W,00296,+000.000,+000.000,+000.000,0,1*50
$PTNLRBA,1,1*57
$GPZDA,211136.00,09,11,2013,,*69
$GPGGA,211136.00,3917.26198,N,08203.79132,W,1,08,1.06,00295,M,-033,M,,*5B
$GPGLL,3917.26198,N,08203.79132,W,211136.00,A,A*72
$GPVTG,000.0,T,007.2,M,000.0,N,000.0,K,A*26
$GPGSA,A,3,02,15,29,18,08,09,21,05,,,,,2.11,1.06,1.82*0F
$GPGSV,3,1,10,02,12,121,34,15,66,173,41,29,49,214,38,18,28,266,34*76
$GPGSV,3,2,10,08,10,049,34,09,13,051,38,21,41,309,37,26,57,069,37*7B
$GPGSV,3,3,10,05,33,062,32,46,39,202,37,,,,,,,,*74
$GPGST,211136.00,,055.64,055.27,078.2,007.46,007.44,008.17*49
$GPRMC,211136.00,A,3917.26198,N,08203.79132,W,000.0,000.0,091113,07.2,W,A*02
$PTNLRTF,V,A,594712,08,3,3917.26198,N,08203.79132,W,00295,+000.000,+000.000,+000.000,0,1*56
$PTNLRBA,1,1*57
$GPZDA,211137.00,09,11,2013,,*68
$GPGGA,211137.00,3917.26177,N,08203.79160,W,1,09,1.00,00295,M,-033,M,,*5B
$GPGLL,3917.26177,N,08203.79160,W,211137.00,A,A*75
$GPVTG,000.0,T,007.2,M,000.0,N,000.0,K,A*26
$GPGSA,A,3,02,15,29,18,08,09,21,26,05,,,,1.77,1.00,1.46*06
$GPGSV,3,1,10,02,12,121,34,15,66,173,41,29,49,214,38,18,28,266,34*76
$GPGSV,3,2,10,08,10,049,33,09,13,051,38,21,41,309,37,26,57,069,38*73
$GPGSV,3,3,10,05,33,062,29,46,39,202,37,,,,,,,,*7E
$GPGST,211137.00,,058.56,058.13,081.3,007.65,007.63,008.30*48
$GPRMC,211137.00,A,3917.26177,N,08203.79160,W,000.0,000.0,091113,07.2,W,A*05
$PTNLRTF,V,A,594714,08,3,3917.26177,N,08203.79160,W,00295,+000.000,+000.000,+000.000,0,1*56
$PTNLRBA,1,1*57
$GPZDA,211138.00,09,11,2013,,*67
$GPGGA,211138.00,3917.26163,N,08203.79156,W,1,08,1.06,00295,M,-033,M,,*53
$GPGLL,3917.26163,N,08203.79156,W,211138.00,A,A*7A
$GPVTG,000.0,T,007.2,M,000.0,N,000.0,K,A*26
$GPGSA,A,3,02,15,29,18,08,09,21,05,,,,,2.11,1.06,1.82*0F
$GPGSV,3,1,10,02,12,121,34,15,66,173,41,29,49,214,39,18,28,266,34*77
$GPGSV,3,2,10,08,10,049,34,09,13,051,38,21,41,309,37,26,57,069,37*7B
$GPGSV,3,3,10,05,33,062,30,46,39,202,37,,,,,,,,*76
$GPGST,211138.00,,066.35,065.91,080.2,008.15,008.12,008.73*4D
$GPRMC,211138.00,A,3917.26163,N,08203.79156,W,000.0,000.0,091113,07.2,W,A*0A
$PTNLRTF,V,A,594714,08,3,3917.26163,N,08203.79156,W,00295,+000.000,+000.000,+000.000,0,1*56
$PTNLRBA,1,1*57
$GPZDA,211139.00,09,11,2013,,*66
$GPGGA,211139.00,3917.26152,N,08203.79147,W,1,08,1.07,00295,M,-033,M,,*51
$GPGLL,3917.26152,N,08203.79147,W,211139.00,A,A*79
$GPVTG,000.0,T,007.2,M,000.0,N,000.0,K,A*26
$GPGSA,A,3,02,15,18,08,09,21,26,05,,,,,1.81,1.07,1.47*02
$GPGSV,3,1,10,02,12,121,33,15,66,173,41,29,49,214,38,18,28,266,34*71
$GPGSV,3,2,10,08,10,049,33,09,13,051,39,21,41,309,37,26,57,069,38*72
$GPGSV,3,3,10,05,33,062,30,46,39,202,37,,,,,,,,*76
$GPGST,211139.00,,079.09,078.60,081.5,008.89,008.87,009.40*41
$GPRMC,211139.00,A,3917.26152,N,08203.79147,W,000.0,000.0,091113,07.2,W,A*09
$PTNLRTF,V,A,594715,08,3,3917.26152,N,08203.79147,W,00295,+000.000,+000.000,+000.000,0,1*55
$PTNLRBA,1,1*57
$GPZDA,211140.00,09,11,2013,,*68
$GPGGA,211140.00,3917.26134,N,08203.79156,W,1,09,1.00,00295,M,-033,M,,*59
$GPGLL,3917.26134,N,08203.79156,W,211140.00,A,A*77
$GPVTG,000.0,T,007.2,M,000.0,N,000.0,K,A*26
$GPGSA,A,3,02,15,29,18,08,09,21,26,05,,,,1.77,1.00,1.46*06
$GPGSV,3,1,10,02,12,121,34,15,66,173,41,29,49,214,38,18,28,266,34*76
$GPGSV,3,2,10,08,10,049,34,09,13,051,41,21,41,309,37,26,57,069,38*7A
$GPGSV,3,3,10,05,33,062,29,46,39,202,36,,,,,,,,*7F
$GPGST,211140.00,,083.02,082.51,084.1,009.11,009.08,009.57*47
$GPRMC,211140.00,A,3917.26134,N,08203.79156,W,000.0,000.0,091113,07.2,W,A*07
$PTNLRTF,V,A,594716,09,3,3917.26134,N,08203.79156,W,00295,+000.000,+000.000,+000.000,0,1*57
$PTNLRBA,1,1*57
$GPZDA,211141.00,09,11,2013,,*69
$GPGGA,211141.00,3917.26135,N,08203.79146,W,1,08,1.07,00295,M,-033,M,,*5E
$GPGLL,3917.26135,N,08203.79146,W,211141.00,A,A*76
$GPVTG,000.0,T,007.2,M,000.0,N,000.0,K,A*26
$GPGSA,A,3,02,15,18,08,09,21,26,05,,,,,1.81,1.07,1.47*02
$GPGSV,3,1,10,02,12,121,34,15,66,173,41,29,49,214,38,18,28,266,34*76
$GPGSV,3,2,10,08,10,049,33,09,13,051,40,21,41,309,37,26,57,069,37*73
$GPGSV,3,3,10,05,33,062,29,46,39,202,37,,,,,,,,*7E
$GPGST,211141.00,,080.72,080.20,083.5,008.98,008.96,009.43*46
$GPRMC,211141.00,A,3917.26135,N,08203.79146,W,000.0,000.0,091113,07.2,W,A*06
$PTNLRTF,V,A,594717,08,3,3917.26135,N,08203.79146,W,00295,+000.000,+000.000,+000.000,0,1*57
$PTNLRBA,1,1*57
$GPZDA,211142.00,09,11,2013,,*6A
$GPGGA,211142.00,3917.26137,N,08203.79149,W,1,08,1.16,00295,M,-033,M,,*50
$GPGLL,3917.26137,N,08203.79149,W,211142.00,A,A*78
$GPVTG,000.0,T,007.2,M,000.0,N,000.0,K,A*26
$GPGSA,A,3,02,15,29,18,08,09,26,05,,,,,1.87,1.16,1.47*0C
$GPGSV,3,1,10,02,12,121,33,15,66,173,41,29,49,214,39,18,28,266,33*77
$GPGSV,3,2,10,08,10,049,33,09,13,051,40,21,41,309,37,26,57,069,37*73
$GPGSV,3,3,10,05,33,062,28,46,39,202,36,,,,,,,,*7E
$GPGST,211142.00,,076.58,076.05,088.1,008.75,008.72,009.18*42
$GPRMC,211142.00,A,3917.26137,N,08203.79149,W,000.0,000.0,091113,07.2,W,A*08
$PTNLRTF,V,A,594718,08,3,3917.26137,N,08203.79149,W,00295,+000.000,+000.000,+000.000,0,1*55
$PTNLRBA,1,1*57
$GPZDA,211143.00,09,11,2013,,*6B
$GPGGA,211143.00,3917.26136,N,08203.79173,W,1,08,1.06,00294,M,-033,M,,*59
$GPGLL,3917.26136,N,08203.79173,W,211143.00,A,A*71
$GPVTG,000.0,T,007.2,M,000.0,N,000.0,K,A*26
$GPGSA,A,3,02,15,29,18,08,09,21,05,,,,,2.10,1.06,1.82*0E
$GPGSV,3,1,10,02,12,121,34,15,66,173,42,29,49,214,38,18,28,266,33*72
$GPGSV,3,2,10,08,10,049,34,09,13,051,40,21,41,309,37,26,57,069,39*7A
$GPGSV,3,3,10,05,33,062,29,46,39,202,36,,,,,,,,*7F
$GPGST,211143.00,,082.82,082.31,086.7,009.10,009.07,009.50*46
$GPRMC,211143.00,A,3917.26136,N,08203.79173,W,000.0,000.0,091113,07.2,W,A*01
$PTNLRTF,V,A,594719,08,3,3917.26136,N,08203.79173,W,00294,+000.000,+000.000,+000.000,0,1*5D
$PTNLRBA,1,1*57
$GPZDA,211144.00,09,11,2013,,*6C
$GPGGA,211144.00,3917.26140,N,08203.79186,W,1,08,1.06,00294,M,-033,M,,*55
$GPGLL,3917.26140,N,08203.79186,W,211144.00,A,A*7D
$GPVTG,000.0,T,007.2,M,000.0,N,000.0,K,A*26
$GPGSA,A,3,02,15,29,18,08,09,21,05,,,,,2.10,1.06,1.82*0E
$GPGSV,3,1,10,02,12,121,33,15,66,173,41,29,49,214,39,18,28,266,34*70
$GPGSV,3,2,10,08,10,049,35,09,13,051,40,21,41,309,37,26,57,069,37*75
$GPGSV,3,3,10,05,33,062,29,46,39,202,36,,,,,,,,*7F
$GPGST,211144.00,,078.75,078.24,086.0,008.87,008.85,009.27*4E
$GPRMC,211144.00,A,3917.26140,N,08203.79186,W,000.0,000.0,091113,07.2,W,A*0D
$PTNLRTF,V,A,594720,08,3,3917.26140,N,08203.79186,W,00294,+000.000,+000.000,+000.000,0,1*5C
$PTNLRBA,1,1*57
$GPZDA,211145.00,09,11,2013,,*6D
$GPGGA,211145.00,3917.26144,N,08203.79209,W,1,09,1.00,00293,M,-033,M,,*54
$GPGLL,3917.26144,N,08203.79209,W,211145.00,A,A*7C
$GPVTG,000.0,T,007.2,M,000.0,N,000.0,K,A*26
$GPGSA,A,3,02,15,29,18,08,09,21,26,05,,,,1.77,1.00,1.46*06
$GPGSV,3,1,10,02,12,121,33,15,66,173,42,29,49,214,38,18,28,266,33*75
$GPGSV,3,2,10,08,10,049,34,09,13,051,40,21,41,309,37,26,57,069,37*74
$GPGSV,3,3,10,05,33,062,28,46,39,202,36,,,,,,,,*7E
$GPGST,211145.00,,082.32,081.82,086.6,009.07,009.05,009.44*40
$GPRMC,211145.00,A,3917.26144,N,08203.79209,W,000.0,000.0,091113,07.2,W,A*0C
$PTNLRTF,V,A,594721,09,3,3917.26144,N,08203.79209,W,00293,+000.000,+000.000,+000.000,0,1*5B
$PTNLRBA,1,1*57
$GPZDA,211146.00,09,11,2013,,*6E
$GPGGA,211146.00,3917.26143,N,08203.79211,W,1,09,1.00,00293,M,-033,M,,*59
$GPGLL,3917.26143,N,08203.79211,W,211146.00,A,A*71
$GPVTG,000.0,T,007.2,M,000.0,N,000.0,K,A*26
$GPGSA,A,3,02,15,29,18,08,09,21,26,05,,,,1.77,1.00,1.46*06
$GPGSV,3,1,10,02,12,121,33,15,66,173,42,29,49,214,38,18,28,266,32*74
$GPGSV,3,2,10,08,10,049,36,09,13,051,40,21,41,309,37,26,57,069,38*79
$GPGSV,3,3,10,05,33,062,29,46,39,202,36,,,,,,,,*7F
$GPGST,211146.00,,079.90,079.41,087.5,008.94,008.91,009.30*41
$GPRMC,211146.00,A,3917.26143,N,08203.79211,W,000.0,000.0,091113,07.2,W,A*01
$PTNLRTF,V,A,594722,09,3,3917.26143,N,08203.79211,W,00293,+000.000,+000.000,+000.000,0,1*56
$PTNLRBA,1,1*57
$GPZDA,211147.00,09,11,2013,,*6F
$GPGGA,211147.00,3917.26150,N,08203.79209,W,1,08,1.16,00293,M,-033,M,,*55
$GPGLL,3917.26150,N,08203.79209,W,211147.00,A,A*7B
$GPVTG,000.0,T,007.2,M,000.0,N,000.0,K,A*26
$GPGSA,A,3,02,15,29,18,08,09,26,05,,,,,1.87,1.16,1.47*0C
$GPGSV,3,1,10,02,12,121,33,15,66,173,42,29,49,214,38,18,28,266,34*72
$GPGSV,3,2,10,08,10,049,35,09,13,051,41,21,41,309,37,26,57,069,37*74
$GPGSV,3,3,10,05,33,062,30,46,39,202,37,,,,,,,,*76
$GPGST,211147.00,,076.89,076.39,089.5,008.77,008.74,009.12*4F
$GPRMC,211147.00,A,3917.26150,N,08203.79209,W,000.0,000.0,091113,07.2,W,A*0B
$PTNLRTF,V,A,594723,08,3,3917.26150,N,08203.79209,W,00293,+000.000,+000.000,+000.000,0,1*5D
$PTNLRBA,1,1*57
$GPZDA,211148.00,09,11,2013,,*60
$GPGGA,211148.00,3917.26154,N,08203.79214,W,1,09,1.00,00293,M,-033,M,,*54
$GPGLL,3917.26154,N,08203.79214,W,211148.00,A,A*7C
$GPVTG,000.0,T,007.2,M,000.0,N,000.0,K,A*26
$GPGSA,A,3,02,15,29,18,08,09,21,26,05,,,,1.77,1.00,1.46*06
$GPGSV,3,1,10,02,12,121,33,15,66,173,42,29,49,214,38,18,28,266,34*72
$GPGSV,3,2,10,08,10,049,35,09,13,051,40,21,41,309,37,26,57,069,38*7A
$GPGSV,3,3,10,05,33,062,31,46,39,202,37,,,,,,,,*77
$GPGST,211148.00,,075.06,074.57,088.5,008.66,008.64,009.00*4D
$GPRMC,211148.00,A,3917.26154,N,08203.79214,W,000.0,000.0,091113,07.2,W,A*0C
$PTNLRTF,V,A,594724,09,3,3917.26154,N,08203.79214,W,00293,+000.000,+000.000,+000.000,0,1*53
$PTNLRBA,1,1*57
$GPZDA,211149.00,09,11,2013,,*61
$GPGGA,211149.00,3917.26157,N,08203.79230,W,1,09,1.00,00293,M,-033,M,,*50
$GPGLL,3917.26157,N,08203.79230,W,211149.00,A,A*78
$GPVTG,000.0,T,007.2,M,000.0,N,000.0,K,A*26
$GPGSA,A,3,02,15,29,18,08,09,21,26,05,,,,1.77,1.00,1.46*06
$GPGSV,3,1,10,02,12,121,34,15,66,173,41,29,49,214,37,18,28,266,34*79
$GPGSV,3,2,10,08,10,049,35,09,13,051,39,21,41,309,37,26,57,069,37*7B
$GPGSV,3,3,10,05,33,062,31,46,39,202,37,,,,,,,,*77
$GPGST,211149.00,,074.35,073.86,087.9,008.62,008.59,008.95*42
$GPRMC,211149.00,A,3917.26157,N,08203.79230,W,000.0,000.0,091113,07.2,W,A*08
$PTNLRTF,V,A,594725,09,3,3917.26157,N,08203.79230,W,00293,+000.000,+000.000,+000.000,0,1*57
$PTNLRBA,1,1*57
$GPZDA,211150.00,09,11,2013,,*69
$GPGGA,211150.00,3917.26160,N,08203.79245,W,1,09,1.00,00293,M,-033,M,,*5E
$GPGLL,3917.26160,N,08203.79245,W,211150.00,A,A*76
$GPVTG,000.0,T,007.2,M,000.0,N,000.0,K,A*26
$GPGSA,A,3,02,15,29,18,08,09,21,26,05,,,,1.77,1.00,1.46*06
$GPGSV,3,1,10,02,12,121,34,15,66,173,41,29,49,214,37,18,28,266,33*7E
$GPGSV,3,2,10,08,10,049,34,09,13,051,40,21,41,309,37,26,57,069,38*7B
$GPGSV,3,3,10,05,33,062,30,46,39,202,36,,,,,,,,*77
$GPGST,211150.00,,072.91,072.43,087.6,008.54,008.51,008.85*49
$GPRMC,211150.00,A,3917.26160,N,08203.79245,W,000.0,000.0,091113,07.2,W,A*06
$PTNLRTF,V,A,594726,09,3,3917.26160,N,08203.79245,W,00293,+000.000,+000.000,+000.000,0,1*52
$PTNLRBA,1,1*57
$GPZDA,211151.00,09,11,2013,,*68
$GPGGA,211151.00,3917.26172,N,08203.79249,W,1,08,1.07,00293,M,-033,M,,*56
$GPGLL,3917.26172,N,08203.79249,W,211151.00,A,A*78
$GPVTG,000.0,T,007.2,M,000.0,N,000.0,K,A*26
$GPGSA,A,3,02,15,18,08,09,21,26,05,,,,,1.81,1.07,1.46*03
$GPGSV,3,1,10,02,12,121,34,15,66,173,41,29,49,214,38,18,28,266,34*76
$GPGSV,3,2,10,08,10,049,34,09,13,051,40,21,41,309,37,26,57,069,38*7B
$GPGSV,3,3,10,05,33,062,29,46,39,202,37,,,,,,,,*7E
$GPGST,211151.00,,069.69,069.20,088.0,008.35,008.32,008.65*4F
$GPRMC,211151.00,A,3917.26172,N,08203.79249,W,000.0,000.0,091113,07.2,W,A*08
$PTNLRTF,V,A,594727,08,3,3917.26172,N,08203.79249,W,00293,+000.000,+000.000,+000.000,0,1*5D
$PTNLRBA,1,1*57
$GPZDA,211152.00,09,11,2013,,*6B
$GPGGA,211152.00,3917.26171,N,08203.79258,W,1,09,1.00,00293,M,-033,M,,*50
$GPGLL,3917.26171,N,08203.79258,W,211152.00,A,A*78
$GPVTG,000.0,T,007.2,M,000.0,N,000.0,K,A*26
$GPGSA,A,3,02,15,29,18,08,09,21,26,05,,,,1.77,1.00,1.46*06
$GPGSV,3,1,10,02,12,121,34,15,66,173,41,29,49,214,38,18,28,266,33*71
$GPGSV,3,2,10,08,10,049,35,09,13,051,40,21,41,309,38,26,57,069,38*75
$GPGSV,3,3,10,05,33,062,29,46,39,202,37,,,,,,,,*7E
$GPGST,211152.00,,069.47,068.99,087.8,008.33,008.31,008.63*47
$GPRMC,211152.00,A,3917.26171,N,08203.79258,W,000.0,000.0,091113,07.2,W,A*08
$PTNLRTF,V,A,594728,09,3,3917.26171,N,08203.79258,W,00293,+000.000,+000.000,+000.000,0,1*50
$PTNLRBA,1,1*57
$GPZDA,211153.00,09,11,2013,,*6A
$GPGGA,211153.00,3917.26168,N,08203.79268,W,1,09,1.00,00292,M,-033,M,,*5B
$GPGLL,3917.26168,N,08203.79268,W,211153.00,A,A*72
$GPVTG,000.0,T,007.2,M,000.0,N,000.0,K,A*26
$GPGSA,A,3,02,15,29,18,08,09,21,26,05,,,,1.77,1.00,1.46*06
$GPGSV,3,1,10,02,12,121,33,15,66,173,41,29,49,214,37,18,28,266,35*7F
$GPGSV,3,2,10,08,10,049,35,09,13,051,38,21,41,309,38,26,57,069,38*7A
$GPGSV,3,3,10,05,33,062,32,46,39,202,37,,,,,,,,*74
$GPGST,211153.00,,071.34,070.85,087.5,008.45,008.42,008.73*46
$GPRMC,211153.00,A,3917.26168,N,08203.79268,W,000.0,000.0,091113,07.2,W,A*02
$PTNLRTF,V,A,594729,09,3,3917.26168,N,08203.79268,W,00292,+000.000,+000.000,+000.000,0,1*5B
$PTNLRBA,1,1*57
$GPZDA,211154.00,09,11,2013,,*6D
$GPGGA,211154.00,3917.26171,N,08203.79273,W,1,09,1.00,00292,M,-033,M,,*5E
$GPGLL,3917.26171,N,08203.79273,W,211154.00,A,A*77
$GPVTG,000.0,T,007.2,M,000.0,N,000.0,K,A*26
$GPGSA,A,3,02,15,29,18,08,09,21,26,05,,,,1.77,1.00,1.46*06
$GPGSV,3,1,10,02,12,121,32,15,66,173,41,29,49,214,37,18,28,266,34*7F
$GPGSV,3,2,10,08,10,049,36,09,13,051,38,21,41,309,38,26,57,069,38*79
$GPGSV,3,3,10,05,33,062,31,46,39,202,36,,,,,,,,*76
$GPGST,211154.00,,077.95,077.45,086.9,008.83,008.80,009.09*42
$GPRMC,211154.00,A,3917.26171,N,08203.79273,W,000.0,000.0,091113,07.2,W,A*07
$PTNLRTF,V,A,594730,09,3,3917.26171,N,08203.79273,W,00292,+000.000,+000.000,+000.000,0,1*51
$PTNLRBA,1,1*57
$GPZDA,211155.00,09,11,2013,,*6C
$GPGGA,211155.00,3917.26172,N,08203.79284,W,1,09,1.00,00292,M,-033,M,,*54
$GPGLL,3917.26172,N,08203.79284,W,211155.00,A,A*7D
$GPVTG,000.0,T,007.2,M,000.0,N,000.0,K,A*26
$GPGSA,A,3,02,15,29,18,08,09,21,26,05,,,,1.77,1.00,1.46*06
$GPGSV,3,1,10,02,12,121,34,15,66,173,42,29,49,214,37,18,28,266,35*7B
$GPGSV,3,2,10,08,10,049,36,09,13,051,37,21,41,309,38,26,57,069,37*79
$GPGSV,3,3,10,05,33,062,31,46,39,202,36,,,,,,,,*76
$GPGST,211155.00,,084.34,083.83,086.3,009.18,009.16,009.42*4D
$GPRMC,211155.00,A,3917.26172,N,08203.79284,W,000.0,000.0,091113,07.2,W,A*0D
$PTNLRTF,V,A,594731,09,3,3917.26172,N,08203.79284,W,00292,+000.000,+000.000,+000.000,0,1*5B
$PTNLRBA,1,1*57
$GPZDA,211156.00,09,11,2013,,*6F
$GPGGA,211156.00,3917.26181,N,08203.79281,W,1,09,1.00,00293,M,-033,M,,*5F
$GPGLL,3917.26181,N,08203.79281,W,211156.00,A,A*77
$GPVTG,000.0,T,007.2,M,000.0,N,000.0,K,A*26
$GPGSA,A,3,02,15,29,18,08,09,21,26,05,,,,1.77,1.00,1.46*06
$GPGSV,3,1,10,02,12,121,34,15,66,173,42,29,49,214,37,18,28,266,34*7A
$GPGSV,3,2,10,08,10,049,34,09,13,051,38,21,41,309,38,26,57,069,37*74
$GPGSV,3,3,10,05,33,062,31,46,39,202,36,,,,,,,,*76
$GPGST,211156.00,,089.77,089.28,086.4,009.47,009.45,009.70*45
$GPRMC,211156.00,A,3917.26181,N,08203.79281,W,000.0,000.0,091113,07.2,W,A*07
$PTNLRTF,V,A,594732,09,3,3917.26181,N,08203.79281,W,00293,+000.000,+000.000,+000.000,0,1*50
$PTNLRBA,1,1*57
$GPZDA,211157.00,09,11,2013,,*6E
$GPGGA,211157.00,3917.26177,N,08203.79288,W,1,08,1.06,00292,M,-033,M,,*58
$GPGLL,3917.26177,N,08203.79288,W,211157.00,A,A*76
$GPVTG,169.7,T,177.0,M,000.2,N,000.3,K,A*2A
$GPGSA,A,3,02,15,29,18,08,09,21,05,,,,,2.10,1.06,1.82*0E
$GPGSV,3,1,10,02,12,121,33,15,66,173,41,29,49,214,38,18,28,266,34*71
$GPGSV,3,2,10,08,10,049,35,09,13,051,38,21,41,309,38,26,57,069,38*7A
$GPGSV,3,3,10,05,33,062,29,46,39,202,37,,,,,,,,*7E
$GPGST,211157.00,,087.36,086.87,086.9,009.35,009.32,009.57*48
$GPRMC,211157.00,A,3917.26177,N,08203.79288,W,000.2,169.7,091113,07.2,W,A*0D
$PTNLRTF,V,A,594733,08,3,3917.26177,N,08203.79288,W,00292,+000.016,-000.086,-000.111,0,1*59
$PTNLRBA,1,1*57
$GPZDA,211158.00,09,11,2013,,*61
$GPGGA,211158.00,3917.26182,N,08203.79290,W,1,09,1.00,00292,M,-033,M,,*53
$GPGLL,3917.26182,N,08203.79290,W,211158.00,A,A*7A
$GPVTG,204.1,T,211.3,M,000.1,N,000.2,K,A*26
$GPGSA,A,3,02,15,29,18,08,09,21,26,05,,,,1.77,1.00,1.46*06
$GPGSV,3,1,10,02,12,121,34,15,66,173,41,29,49,214,38,18,28,266,34*76
$GPGSV,3,2,10,08,10,049,35,09,13,051,39,21,41,309,37,26,57,069,38*74
$GPGSV,3,3,10,05,33,062,28,46,39,202,36,,,,,,,,*7E
$GPGST,211158.00,,085.49,084.99,086.4,009.25,009.22,009.46*4D
$GPRMC,211158.00,A,3917.26182,N,08203.79290,W,000.1,204.1,091113,07.2,W,A*0C
$PTNLRTF,V,A,594734,09,3,3917.26182,N,08203.79290,W,00292,-000.023,-000.051,-000.013,0,1*55
$PTNLRBA,1,1*57
$GPZDA,211159.00,09,11,2013,,*60
$GPGGA,211159.00,3917.26184,N,08203.79291,W,1,08,1.03,00293,M,-033,M,,*56
$GPGLL,3917.26184,N,08203.79291,W,211159.00,A,A*7C
$GPVTG,000.0,T,007.2,M,000.0,N,000.0,K,A*26
$GPGSA,A,3,02,15,29,18,08,21,26,05,,,,,1.82,1.03,1.50*01
$GPGSV,3,1,10,02,12,121,34,15,66,173,41,29,49,214,38,18,28,266,35*77
$GPGSV,3,2,10,08,10,049,34,09,13,051,39,21,41,309,38,26,57,069,37*75
$GPGSV,3,3,10,05,33,062,30,46,39,202,36,,,,,,,,*77
$GPGST,211159.00,,083.27,082.79,086.6,009.13,009.10,009.34*49
$GPRMC,211159.00,A,3917.26184,N,08203.79291,W,000.0,000.0,091113,07.2,W,A*0C
$PTNLRTF,V,A,594735,08,3,3917.26184,N,08203.79291,W,00293,+000.000,+000.000,+000.000,0,1*52
$PTNLRBA,1,1*57
$GPZDA,211200.00,09,11,2013,,*6F
$GPGGA,211200.00,3917.26190,N,08203.79297,W,1,09,1.00,00293,M,-033,M,,*58
$GPGLL,3917.26190,N,08203.79297,W,211200.00,A,A*70
$GPVTG,317.5,T,324.7,M,000.2,N,000.4,K,A*27
$GPGSA,A,3,02,15,29,18,08,09,21,26,05,,,,1.77,1.00,1.46*06
$GPGSV,3,1,10,02,12,121,34,15,66,173,41,29,49,214,38,18,28,266,34*76
$GPGSV,3,2,10,08,10,049,34,09,13,051,39,21,41,309,38,26,57,069,37*75
$GPGSV,3,3,10,05,33,062,31,46,39,202,37,,,,,,,,*77
$GPGST,211200.00,,082.51,082.02,086.2,009.08,009.06,009.29*4F
$GPRMC,211200.00,A,3917.26190,N,08203.79297,W,000.2,317.5,091113,07.2,W,A*02
$PTNLRTF,V,A,594736,09,3,3917.26190,N,08203.79297,W,00293,-000.068,+000.075,+000.028,0,1*53
$PTNLRBA,1,1*57
$GPZDA,211201.00,09,11,2013,,*6E
$GPGGA,211201.00,3917.26191,N,08203.79308,W,1,09,1.00,00293,M,-033,M,,*5F
$GPGLL,3917.26191,N,08203.79308,W,211201.00,A,A*77
$GPVTG,306.3,T,313.5,M,000.2,N,000.4,K,A*27
$GPGSA,A,3,02,15,29,18,08,09,21,26,05,,,,1.77,1.00,1.46*06
$GPGSV,3,1,10,02,12,121,33,15,66,173,42,29,49,214,39,18,28,266,34*73
$GPGSV,3,2,10,08,10,049,35,09,13,051,39,21,41,309,38,26,57,069,37*74
$GPGSV,3,3,10,05,33,062,32,46,39,202,36,,,,,,,,*75
$GPGST,211201.00,,077.70,077.21,086.1,008.81,008.79,009.03*4E
$GPRMC,211201.00,A,3917.26191,N,08203.79308,W,000.2,306.3,091113,07.2,W,A*03
$PTNLRTF,V,A,594737,09,3,3917.26191,N,08203.79308,W,00293,-000.083,+000.061,+000.066,0,1*5E
$PTNLRBA,1,1*57
$GPZDA,211202.00,09,11,2013,,*6D
$GPGGA,211202.00,3917.26183,N,08203.79315,W,1,09,1.00,00293,M,-033,M,,*53
$GPGLL,3917.26183,N,08203.79315,W,211202.00,A,A*7B
$GPVTG,341.8,T,349.0,M,000.1,N,000.1,K,A*23
$GPGSA,A,3,02,15,29,18,08,09,21,26,05,,,,1.77,1.00,1.46*06
$GPGSV,3,1,10,02,12,121,33,15,66,173,41,29,49,214,38,18,28,266,34*71
$GPGSV,3,2,10,08,10,049,37,09,13,051,39,21,41,309,38,26,57,069,37*76
$GPGSV,3,3,10,05,33,062,30,46,39,202,37,,,,,,,,*76
$GPGST,211202.00,,073.78,073.29,086.1,008.59,008.56,008.80*4F
$GPRMC,211202.00,A,3917.26183,N,08203.79315,W,000.1,341.8,091113,07.2,W,A*04
$PTNLRTF,V,A,594738,09,3,3917.26183,N,08203.79315,W,00293,-000.012,+000.035,+000.063,0,1*52
$PTNLRBA,1,1*57
$GPZDA,211203.00,09,11,2013,,*6C
$GPGGA,211203.00,3917.26181,N,08203.79321,W,1,08,1.03,00293,M,-033,M,,*55
$GPGLL,3917.26181,N,08203.79321,W,211203.00,A,A*7F
$GPVTG,348.4,T,355.6,M,000.2,N,000.4,K,A*2B
$GPGSA,A,3,02,15,29,18,09,21,26,05,,,,,1.86,1.03,1.54*00
$GPGSV,3,1,10,02,12,121,34,15,66,173,42,29,49,214,38,18,28,266,34*75
$GPGSV,3,2,10,08,10,049,37,09,13,051,40,21,41,309,38,26,57,069,38*77
$GPGSV,3,3,10,05,33,062,30,46,39,202,37,,,,,,,,*76
$GPGST,211203.00,,070.72,070.23,086.3,008.41,008.38,008.62*41
$GPRMC,211203.00,A,3917.26181,N,08203.79321,W,000.2,348.4,091113,07.2,W,A*06
$PTNLRTF,V,A,594739,08,3,3917.26181,N,08203.79321,W,00293,-000.020,+000.096,-000.068,0,1*52
$PTNLRBA,1,1*57
$GPZDA,211204.00,09,11,2013,,*6B
$GPGGA,211204.00,3917.26184,N,08203.79315,W,1,09,1.00,00293,M,-033,M,,*52
$GPGLL,3917.26184,N,08203.79315,W,211204.00,A,A*7A
$GPVTG,017.7,T,024.9,M,000.1,N,000.3,K,A*2F
$GPGSA,A,3,02,15,29,18,08,09,21,26,05,,,,1.77,1.00,1.46*06
$GPGSV,3,1,10,02,12,121,34,15,66,173,42,29,49,214,38,18,28,266,34*75
$GPGSV,3,2,10,08,10,049,36,09,13,051,40,21,41,309,38,26,57,069,38*76
$GPGSV,3,3,10,05,33,062,31,46,39,202,37,,,,,,,,*77
$GPGST,211204.00,,067.49,067.00,086.2,008.22,008.19,008.43*4B
$GPRMC,211204.00,A,3917.26184,N,08203.79315,W,000.1,017.7,091113,07.2,W,A*0A
$PTNLRTF,V,A,594740,09,3,3917.26184,N,08203.79315,W,00293,+000.022,+000.069,+000.056,0,1*50
$PTNLRBA,1,1*57
$GPZDA,211205.00,09,11,2013,,*6A
$GPGGA,211205.00,3917.26178,N,08203.79317,W,1,09,1.00,00293,M,-033,M,,*52
$GPGLL,3917.26178,N,08203.79317,W,211205.00,A,A*7A
$GPVTG,000.0,T,007.2,M,000.0,N,000.0,K,A*26
$GPGSA,A,3,02,15,29,18,08,09,21,26,05,,,,1.77,1.00,1.46*06
$GPGSV,3,1,10,02,12,121,34,15,66,173,41,29,49,214,38,18,28,266,35*77
$GPGSV,3,2,10,08,10,049,37,09,13,051,39,21,41,309,37,26,57,069,38*76
$GPGSV,3,3,10,05,33,062,30,46,39,202,37,,,,,,,,*76
$GPGST,211205.00,,061.92,061.44,085.7,007.87,007.84,008.08*4E
$GPRMC,211205.00,A,3917.26178,N,08203.79317,W,000.0,000.0,091113,07.2,W,A*0A
$PTNLRTF,V,A,594741,09,3,3917.26178,N,08203.79317,W,00293,+000.000,+000.000,+000.000,0,1*5C
$PTNLRBA,1,1*57
$GPZDA,211206.00,09,11,2013,,*69
$GPGGA,211206.00,3917.26180,N,08203.79324,W,1,09,1.00,00292,M,-033,M,,*57
$GPGLL,3917.26180,N,08203.79324,W,211206.00,A,A*7E
$GPVTG,000.0,T,007.2,M,000.0,N,000.0,K,A*26
$GPGSA,A,3,02,15,29,18,08,09,21,26,05,,,,1.77,1.00,1.46*06
$GPGSV,3,1,10,02,12,121,35,15,66,173,41,29,49,214,39,18,28,266,35*77
$GPGSV,3,2,10,08,10,049,36,09,13,051,39,21,41,309,38,26,57,069,38*78
$GPGSV,3,3,10,05,33,062,31,46,39,202,36,,,,,,,,*76
$GPGST,211206.00,,059.95,059.48,085.6,007.74,007.71,007.95*4A
$GPRMC,211206.00,A,3917.26180,N,08203.79324,W,000.0,000.0,091113,07.2,W,A*0E
$PTNLRTF,V,A,594742,09,3,3917.26180,N,08203.79324,W,00292,+000.000,+000.000,+000.000,0,1*59
$PTNLRBA,1,1*57
$GPZDA,211207.00,09,11,2013,,*68
$GPGGA,211207.00,3917.26181,N,08203.79328,W,1,09,1.00,00292,M,-033,M,,*5B
$GPGLL,3917.26181,N,08203.79328,W,211207.00,A,A*72
$GPVTG,000.0,T,007.2,M,000.0,N,000.0,K,A*26
$GPGSA,A,3,02,15,29,18,08,09,21,26,05,,,,1.77,1.00,1.46*06
$GPGSV,3,1,10,02,12,121,34,15,66,173,42,29,49,214,40,18,28,266,34*7A
$GPGSV,3,2,10,08,10,049,37,09,13,051,39,21,41,309,38,26,57,069,38*79
$GPGSV,3,3,10,05,33,062,30,46,39,202,35,,,,,,,,*74
$GPGST,211207.00,,055.23,054.76,085.3,007.43,007.40,007.65*46
$GPRMC,211207.00,A,3917.26181,N,08203.79328,W,000.0,000.0,091113,07.2,W,A*02
$PTNLRTF,V,A,594743,09,3,3917.26181,N,08203.79328,W,00292,+000.000,+000.000,+000.000,0,1*55
$PTNLRBA,1,1*57
$GPZDA,211208.00,09,11,2013,,*67
$GPGGA,211208.00,3917.26186,N,08203.79331,W,1,09,1.00,00292,M,-033,M,,*5B
$GPGLL,3917.26186,N,08203.79331,W,211208.00,A,A*72
$GPVTG,000.0,T,007.2,M,000.0,N,000.0,K,A*26
$GPGSA,A,3,02,15,29,18,08,09,21,26,05,,,,1.77,1.00,1.46*06
$GPGSV,3,1,10,02,12,121,34,15,66,173,42,29,49,214,40,18,28,266,34*7A
$GPGSV,3,2,10,08,10,049,35,09,13,051,38,21,41,309,38,26,57,069,38*7A
$GPGSV,3,3,10,05,33,062,31,46,39,202,36,,,,,,,,*76
$GPGST,211208.00,,052.75,052.29,085.1,007.26,007.23,007.48*4A
$GPRMC,211208.00,A,3917.26186,N,08203.79331,W,000.0,000.0,091113,07.2,W,A*02
$PTNLRTF,V,A,594744,09,3,3917.26186,N,08203.79331,W,00292,+000.000,+000.000,+000.000,0,1*5D
$PTNLRBA,1,1*57
$GPZDA,211209.00,09,11,2013,,*66
$GPGGA,211209.00,3917.26191,N,08203.79333,W,2,09,1.00,00292,M,-033,M,,*5D
$GPGLL,3917.26191,N,08203.79333,W,211209.00,A,D*72
$GPVTG,000.0,T,007.2,M,000.00,N,000.00,K,D*23
$GPGSA,A,3,02,15,29,18,08,09,21,26,05,,,,1.77,1.00,1.46*06
$GPGSV,3,1,10,02,12,121,34,15,66,173,41,29,49,214,39,18,28,266,34*77
$GPGSV,3,2,10,08,10,049,36,09,13,051,37,21,41,309,38,26,57,069,38*76
$GPGSV,3,3,10,05,33,062,31,46,39,202,36,,,,,,,,*76
$GPGST,211209.00,,049.33,048.88,085.0,007.02,006.99,007.24*4E
$GPRMC,211209.00,A,3917.26191,N,08203.79333,W,000.00,000.0,091113,07.2,W,D*32
$PTNLRTF,V,A,594745,09,3,3917.26191,N,08203.79333,W,00292,+000.000,+000.000,+000.000,0,1*58
$PTNLRBA,1,1*57
$GPZDA,211210.00,09,11,2013,,*6E
$GPGGA,211210.00,3917.26194,N,08203.79331,W,2,09,1.00,00292,M,-033,M,,*52
$GPGLL,3917.26194,N,08203.79331,W,211210.00,A,D*7D
$GPVTG,000.0,T,007.2,M,000.00,N,000.00,K,D*23
$GPGSA,A,3,02,15,29,18,08,09,21,26,05,,,,1.77,1.00,1.46*06
$GPGSV,3,1,10,02,12,121,35,15,66,173,41,29,49,214,40,18,28,266,34*78
$GPGSV,3,2,10,08,10,049,35,09,13,051,38,21,41,309,39,26,57,069,38*7B
$GPGSV,3,3,10,05,33,062,31,46,39,202,36,,,,,,,,*76
$GPGST,211210.00,,045.18,044.75,085.2,006.72,006.69,006.94*4C
$GPRMC,211210.00,A,3917.26194,N,08203.79331,W,000.00,000.0,091113,07.2,W,D*3D
$PTNLRTF,V,A,594746,09,3,3917.26194,N,08203.79331,W,00292,+000.000,+000.000,+000.000,0,1*5C
$PTNLRBA,1,1*57
$GPZDA,211211.00,09,11,2013,,*6F
$GPGGA,211211.00,3917.26198,N,08203.79326,W,2,09,1.00,00292,M,-033,M,,*59
$GPGLL,3917.26198,N,08203.79326,W,211211.00,A,D*76
$GPVTG,000.0,T,007.2,M,000.00,N,000.00,K,D*23
$GPGSA,A,3,02,15,29,18,08,09,21,26,05,,,,1.77,1.00,1.46*06
$GPGSV,3,1,10,02,12,121,35,15,66,173,41,29,49,214,40,18,28,266,35*79
$GPGSV,3,2,10,08,10,049,37,09,13,051,38,21,41,309,38,26,57,069,37*77
$GPGSV,3,3,10,05,33,062,32,46,39,202,36,,,,,,,,*75
$GPGST,211211.00,,044.69,044.27,085.1,006.69,006.65,006.90*4C
$GPRMC,211211.00,A,3917.26198,N,08203.79326,W,000.00,000.0,091113,07.2,W,D*36
$PTNLRTF,V,A,594747,09,3,3917.26198,N,08203.79326,W,00292,+000.000,+000.000,+000.000,0,1*57
$PTNLRBA,1,1*57
$GPZDA,211212.00,09,11,2013,,*6C
$GPGGA,211212.00,3917.26203,N,08203.79333,W,2,09,1.00,00292,M,-033,M,,*5F
$GPGLL,3917.26203,N,08203.79333,W,211212.00,A,D*70
$GPVTG,000.0,T,007.2,M,000.00,N,000.00,K,D*23
$GPGSA,A,3,02,15,29,18,08,09,21,26,05,,,,1.77,1.00,1.46*06
$GPGSV,3,1,10,02,12,121,34,15,66,173,41,29,49,214,41,18,28,266,35*79
$GPGSV,3,2,10,08,10,049,36,09,13,051,39,21,41,309,39,26,57,069,37*76
$GPGSV,3,3,10,05,33,062,34,46,39,202,37,,,,,,,,*72
$GPGST,211212.00,,042.49,042.08,084.7,006.52,006.49,006.73*4C
$GPRMC,211212.00,A,3917.26203,N,08203.79333,W,000.00,000.0,091113,07.2,W,D*30
$PTNLRTF,V,A,594748,09,3,3917.26203,N,08203.79333,W,00292,+000.000,+000.000,+000.000,0,1*5D
$PTNLRBA,1,1*57
$GPZDA,211213.00,09,11,2013,,*6D
$GPGGA,211213.00,3917.26204,N,08203.79334,W,2,09,1.00,00292,M,-033,M,,*5E
$GPGLL,3917.26204,N,08203.79334,W,211213.00,A,D*71
$GPVTG,000.0,T,007.2,M,000.00,N,000.00,K,D*23
$GPGSA,A,3,02,15,29,18,08,09,21,26,05,,,,1.77,1.00,1.46*06
$GPGSV,3,1,10,02,12,121,33,15,66,173,42,29,49,214,38,18,28,266,35*73
$GPGSV,3,2,10,08,10,049,35,09,13,051,38,21,41,309,38,26,57,069,37*75
$GPGSV,3,3,10,05,33,062,31,46,39,202,37,,,,,,,,*77
$GPGST,211213.00,,042.95,042.55,084.6,006.55,006.52,006.76*4D
$GPRMC,211213.00,A,3917.26204,N,08203.79334,W,000.00,000.0,091113,07.2,W,D*31
$PTNLRTF,V,A,594749,09,3,3917.26204,N,08203.79334,W,00292,+000.000,+000.000,+000.000,0,1*5C
$PTNLRBA,1,1*57
$GPZDA,211214.00,09,11,2013,,*6A
$GPGGA,211214.00,3917.26198,N,08203.79340,W,2,08,1.19,00291,M,-033,M,,*56
$GPGLL,3917.26198,N,08203.79340,W,211214.00,A,D*73
$GPVTG,000.0,T,007.2,M,000.00,N,000.00,K,D*23
$GPGSA,A,3,02,15,29,08,09,21,26,05,,,,,2.08,1.19,1.70*09
$GPGSV,3,1,10,02,12,121,35,15,66,173,42,29,49,214,37,18,28,266,36*79
$GPGSV,3,2,10,08,10,049,35,09,13,051,37,21,41,309,38,26,57,069,38*75
$GPGSV,3,3,10,05,33,062,32,46,39,202,37,,,,,,,,*74
$GPGST,211214.00,,045.04,044.65,084.7,006.71,006.68,006.91*47
$GPRMC,211214.00,A,3917.26198,N,08203.79340,W,000.00,000.0,091113,07.2,W,D*33
$PTNLRTF,V,A,594750,08,3,3917.26198,N,08203.79340,W,00291,+000.000,+000.000,+000.000,0,1*53
$PTNLRBA,1,1*57
$GPZDA,211215.00,09,11,2013,,*6B
$GPGGA,211215.00,3917.26199,N,08203.79351,W,2,09,1.00,00292,M,-033,M,,*5C
$GPGLL,3917.26199,N,08203.79351,W,211215.00,A,D*73
$GPVTG,000.0,T,007.2,M,000.00,N,000.00,K,D*23
$GPGSA,A,3,02,15,29,18,08,09,21,26,05,,,,1.77,1.00,1.46*06
$GPGSV,3,1,10,02,12,121,35,15,66,173,42,29,49,214,37,18,28,266,35*7A
$GPGSV,3,2,10,08,10,049,35,09,13,051,37,21,41,309,38,26,57,069,38*75
$GPGSV,3,3,10,05,33,062,32,46,39,202,38,,,,,,,,*7B
$GPGST,211215.00,,048.42,048.04,084.7,006.96,006.93,007.14*43
$GPRMC,211215.00,A,3917.26199,N,08203.79351,W,000.00,000.0,091113,07.2,W,D*33
$PTNLRTF,V,A,594751,09,3,3917.26199,N,08203.79351,W,00292,+000.000,+000.000,+000.000,0,1*51
$PTNLRBA,1,1*57
