$GPZDA,025252.00,07,02,2014,,*66
$GPGGA,025252.00,3917.26376,N,08203.79865,W,1,11,0.91,00291,M,-033,M,,*55
$GPGLL,3917.26376,N,08203.79865,W,025252.00,A,A*7F
$GPVTG,000.0,T,007.2,M,000.0,N,000.0,K,A*26
$GPGSA,A,3,09,08,07,23,13,19,16,11,03,06,27,,1.56,0.91,1.27*06
$GPGSV,3,1,11,09,08,305,30,08,14,303,39,07,44,313,36,23,40,194,39*78
$GPGSV,3,2,11,13,61,240,37,19,61,155,31,16,38,053,40,11,13,166,31*7C
$GPGSV,3,3,11,03,72,092,34,06,48,057,37,27,57,068,48,,,,*4A
$GPGST,025252.00,,061.30,061.02,046.3,007.82,007.82,007.90*45
$GPRMC,025252.00,A,3917.26376,N,08203.79865,W,000.0,000.0,070214,0$GPZDA,025254.00,07,02,2014,,*60
$GPGGA,025254.00,3917.26381,N,08203.79863,W,1,11,0.91,00291,M,-033,M,,*5D
$GPGLL,3917.26381,N,08203.79863,W,025254.00,A,A*77
$GPVTG,000.0,T,007.2,M,000.0,N,000.0,K,A*26
$GPGSA,A,3,09,08,07,23,13,19,16,11,03,06,27,,1.56,0.91,1.27*06
$GPGSV,3,1,11,09,08,305,30,08,14,303,40,07,44,313,36,23,40,194,39*76
$GPGSV,3,2,11,13,61,240,37,19,61,155,30,16,38,053,40,11,13,166,31*7D
$GPGSV,3,3,11,03,72,092,36,06,48,057,36,27,57,068,48,,,,*49
$GPGST,025254.00,,066.33,066.06,046.4,008.14,008.14,008.21*46
$GPRMC,025254.00,A,3917.26381,N,08203.79863,W,000.0,000.0,070214,07.2,W,A*0C
$PTNLRTF,V,A,442390,11,3,3917.26381,N,08203.79863,W,00291,+000.000,+000.000,+000.000,0,1*59
$PTNLRBA,1,1*57
$GPZDA,025255.00,07,02,2014,,*61
$GPGGA,025255.00,3917.26383,N,08203.79862,W,1,11,0.91,00291,M,-033,M,,*5F
$GPGLL,3917.26383,N,08203.79862,W,025255.00,A,A*75
$GPVTG,000.0,T,007.2,M,000.0,N,000.0,K,A*26
$GPGSA,A,3,09,08,07,23,13,19,16,11,03,06,27,,1.56,0.91,1.27*06
$GPGSV,3,1,11,09,08,305,25,08,14,303,39,07,44,313,34,23,40,194,40*70
$GPGSV,3,2,11,13,61,240,37,19,61,155,33,16,38,053,41,11,13,166,31*7F
$GPGSV,3,3,11,03,72,092,34,06,48,057,34,27,57,068,48,,,,*49
$GPGST,025255.00,,070.38,070.12,046.4,008.38,008.38,008.45*4B
$GPRMC,025255.00,A,3917.26383,N,08203.79862,W,000.0,000.0,070214,07.2,W,A*0E
$PTNLRTF,V,A,442391,11,3,3917.26383,N,08203.79862,W,00291,+000.000,+000.000,+000.000,0,1*5B
$PTNLRBA,1,1*57
$GPZDA,025257.00,07,02,2014,,*63
$GPGGA,025257.00,3917.26383,N,08203.79861,W,1,11,0.91,00291,M,-033,M,,*5E
$GPGLL,3917.26383,N,08203.79861,W,025257.00,A,A*74
$GPVTG,000.0,T,007.2,M,000.0,N,000.0,K,A*26
$GPGSA,A,3,09,08,07,23,13,19,16,11,03,06,27,,1.56,0.91,1.27*06
$GPGSV,3,1,11,09,08,305,26,08,14,303,39,07,44,313,33,23,40,194,39*7A
$GPGSV,3,2,11,13,61,240,38,19,61,155,34,16,38,053,40,11,13,166,31*76
$GPGSV,3,3,11,03,72,092,32,06,48,057,35,27,57,068,48,,,,*4E
$GPGST,025257.00,,075.66,075.40,046.3,008.69,008.69,008.76*42
$GPRMC,025257.00,A,3917.26383,N,08203.79861,W,000.0,000.0,070214,07.2,W,A*0F
$PTNLRTF,V,A,442393,11,3,3917.26383,N,08203.79861,W,00291,+000.000,+000.000,+000.000,0,1*5A
$PTNLRBA,1,1*57
$GPZDA,025258.00,07,02,2014,,*6C
$GPGGA,025258.00,3917.26384,N,08203.79861,W,1,11,0.91,00291,M,-033,M,,*56
$GPGLL,3917.26384,N,08203.79861,W,025258.00,A,A*7C
$GPVTG,000.0,T,007.2,M,000.0,N,000.0,K,A*26
$GPGSA,A,3,09,08,07,23,13,19,16,11,03,06,27,,1.56,0.91,1.27*06
$GPGSV,3,1,11,09,08,305,26,08,14,303,40,07,44,313,34,23,40,194,40*7D
$GPGSV,3,2,11,13,61,240,38,19,61,155,34,16,38,053,41,11,13,166,32*74
$GPGSV,3,3,11,03,72,092,33,06,48,057,35,27,57,068,48,,,,*4F
$GPGST,025258.00,,075.75,075.50,046.2,008.70,008.70,008.77*4E
$GPRMC,025258.00,A,3917.26384,N,08203.79861,W,000.0,000.0,070214,07.2,W,A*07
$PTNLRTF,V,A,442394,11,3,3917.26384,N,08203.79861,W,00291,+000.000,+000.000,+000.000,0,1*5A
$PTNLRBA,1,1*57
$GPZDA,025300.00,07,02,2014,,*60
$GPGGA,025300.00,3917.26389,N,08203.79859,W,1,11,0.91,00292,M,-033,M,,*5F
$GPGLL,3917.26389,N,08203.79859,W,025300.00,A,A*76
$GPVTG,000.0,T,007.2,M,000.0,N,000.0,K,A*26
$GPGSA,A,3,09,08,07,23,13,19,16,11,03,06,27,,1.56,0.91,1.27*06
$GPGSV,3,1,11,09,08,305,27,08,14,303,39,07,44,313,34,23,40,194,40*72
$GPGSV,3,2,11,13,61,240,37,19,61,155,34,16,38,053,41,11,13,166,32*7B
$GPGSV,3,3,11,03,72,092,33,06,48,057,35,27,57,068,48,,,,*4F
$GPGST,025300.00,,088.82,088.58,046.2,009.42,009.42,009.48*4F
$GPRMC,025300.00,A,3917.26389,N,08203.79859,W,000.0,000.0,070214,07.2,W,A*0D
$PTNLRTF,V,A,442396,11,3,3917.26389,N,08203.79859,W,00292,+000.000,+000.000,+000.000,0,1*5D
$PTNLRBA,1,1*57
$GPZDA,025301.00,07,02,2014,,*61
$GPGGA,025301.00,3917.26391,N,08203.79859,W,1,11,0.91,00292,M,-033,M,,*57
$GPGLL,3917.26391,N,08203.79859,W,025301.00,A,A*7E
$GPVTG,000.0,T,007.2,M,000.0,N,000.0,K,A*26
$GPGSA,A,3,09,08,07,23,13,19,16,11,03,06,27,,1.56,0.91,1.27*06
$GPGSV,3,1,11,09,08,305,24,08,14,303,39,07,44,313,34,23,40,194,39*7F
$GPGSV,3,2,11,13,61,240,37,19,61,155,35,16,38,053,41,11,13,166,32*7A
$GPGSV,3,3,11,03,72,092,33,06,48,057,35,27,57,068,48,,,,*4F
$GPGST,025301.00,,101.78,101.54,046.1,010.08,010.08,010.14*45
$GPRMC,025301.00,A,3917.26391,N,08203.79859,W,000.0,000.0,070214,07.2,W,A*05
$PTNLRTF,V,A,442397,11,3,3917.26391,N,08203.79859,W,00292,+000.000,+000.000,+000.000,0,1*55
$PTNLRBA,1,1*57
$GPZDA,025303.00,07,02,2014,,*63
$GPGGA,025303.00,3917.26392,N,08203.79860,W,1,11,0.91,00291,M,-033,M,,*5F
$GPGLL,3917.26392,N,08203.79860,W,025303.00,A,A*75
$GPVTG,000.0,T,007.2,M,000.0,N,000.0,K,A*26
$GPGSA,A,3,09,08,07,23,13,19,16,11,03,06,27,,1.56,0.91,1.27*06
$GPGSV,3,1,11,09,08,305,25,08,14,303,39,07,45,313,35,23,39,193,39*77
$GPGSV,3,2,11,13,60,239,37,19,61,155,35,16,38,053,41,11,13,166,32*75
$GPGSV,3,3,11,03,72,091,33,06,47,057,34,27,57,068,48,,,,*42
$GPGST,025303.00,,113.68,113.45,046.1,010.66,010.66,010.71*45
$GPRMC,025303.00,A,3917.26392,N,08203.79860,W,000.0,000.0,070214,07.2,W,A*0E
$PTNLRTF,V,A,442399,11,3,3917.26392,N,08203.79860,W,00291,+000.000,+000.000,+000.000,0,1*51
$PTNLRBA,1,1*57
$GPZDA,025304.00,07,02,2014,,*64
$GPGGA,025304.00,3917.26391,N,08203.79860,W,1,11,0.91,00291,M,-033,M,,*5B
$GPGLL,3917.26391,N,08203.79860,W,025304.00,A,A*71
$GPVTG,000.0,T,007.2,M,000.0,N,000.0,K,A*26
$GPGSA,A,3,09,08,07,23,13,19,16,11,03,06,27,,1.56,0.91,1.27*06
$GPGSV,3,1,11,09,08,305,24,08,14,303,40,07,45,313,34,23,39,193,39*79
$GPGSV,3,2,11,13,60,239,37,19,61,155,35,16,38,053,41,11,13,166,32*75
$GPGSV,3,3,11,03,72,091,33,06,47,057,34,27,57,068,48,,,,*42
$GPGST,025304.00,,119.85,119.63,046.1,010.94,010.94,011.00*42
$GPRMC,025304.00,A,3917.26391,N,08203.79860,W,000.0,000.0,070214,07.2,W,A*0A
$PTNLRTF,V,A,442400,11,3,3917.26391,N,08203.79860,W,00291,+000.000,+000.000,+000.000,0,1*55
$PTNLRBA,1,1*57
$GPZDA,025306.00,07,02,2014,,*66
$GPGGA,025306.00,3917.26387,N,08203.79857,W,1,11,0.91,00291,M,-033,M,,*5A
$GPGLL,3917.26387,N,08203.79857,W,025306.00,A,A*70
$GPVTG,000.0,T,007.2,M,000.0,N,000.0,K,A*26
$GPGSA,A,3,09,08,07,23,13,19,16,11,03,06,27,,1.56,0.91,1.27*06
$GPGSV,3,1,11,09,08,305,25,08,14,303,40,07,45,313,33,23,39,193,39*7F
$GPGSV,3,2,11,13,60,239,37,19,61,155,34,16,38,053,41,11,13,166,32*74
$GPGSV,3,3,11,03,72,091,32,06,47,057,34,27,57,068,48,,,,*43
$GPGST,025306.00,,116.92,116.70,046.0,010.81,010.81,010.86*4A
$GPRMC,025306.00,A,3917.26387,N,08203.79857,W,000.0,000.0,070214,07.2,W,A*0B
$PTNLRTF,V,A,442402,11,3,3917.26387,N,08203.79857,W,00291,+000.000,+000.000,+000.000,0,1*54
$PTNLRBA,1,1*57
$GPZDA,025307.00,07,02,2014,,*67
$GPGGA,025307.00,3917.26385,N,08203.79852,W,1,11,0.91,00291,M,-033,M,,*5C
$GPGLL,3917.26385,N,08203.79852,W,025307.00,A,A*76
$GPVTG,000.0,T,007.2,M,000.0,N,000.0,K,A*26
$GPGSA,A,3,09,08,07,23,13,19,16,11,03,06,27,,1.56,0.91,1.27*06
$GPGSV,3,1,11,09,08,305,25,08,14,303,39,07,45,313,33,23,39,193,38*70
$GPGSV,3,2,11,13,60,239,38,19,61,155,34,16,38,053,40,11,13,166,31*79
$GPGSV,3,3,11,03,72,091,33,06,47,057,35,27,57,068,48,,,,*43
$GPGST,025307.00,,117.86,117.64,045.9,010.85,010.85,010.90*46
$GPRMC,025307.00,A,3917.26385,N,08203.79852,W,000.0,000.0,070214,07.2,W,A*0D
$PTNLRTF,V,A,442403,11,3,3917.26385,N,08203.79852,W,00291,+000.000,+000.000,+000.000,0,1*52
$PTNLRBA,1,1*57
$GPZDA,025309.00,07,02,2014,,*69
$GPGGA,025309.00,3917.26381,N,08203.79846,W,1,11,0.91,00291,M,-033,M,,*53
$GPGLL,3917.26381,N,08203.79846,W,025309.00,A,A*79
$GPVTG,000.0,T,007.2,M,000.0,N,000.0,K,A*26
$GPGSA,A,3,09,08,07,23,13,19,16,11,03,06,27,,1.56,0.91,1.27*06
$GPGSV,3,1,11,09,08,305,25,08,14,303,40,07,45,313,33,23,39,193,39*7F
$GPGSV,3,2,11,13,60,239,39,19,61,155,35,16,38,053,41,11,13,166,31*78
$GPGSV,3,3,11,03,72,091,33,06,47,057,35,27,57,068,48,,,,*43
$GPGST,025309.00,,120.98,120.77,045.9,010.99,010.99,011.05*48
$GPRMC,025309.00,A,3917.26381,N,08203.79846,W,000.0,000.0,070214,07.2,W,A*02
$PTNLRTF,V,A,442405,11,3,3917.26381,N,08203.79846,W,00291,+000.000,+000.000,+000.000,0,1*55
$PTNLRBA,1,1*57
$GPZDA,025310.00,07,02,2014,,*61
$GPGGA,025310.00,3917.26379,N,08203.79841,W,1,11,0.91,00291,M,-033,M,,*5B
$GPGLL,3917.26379,N,08203.79841,W,025310.00,A,A*71
$GPVTG,000.0,T,007.2,M,000.0,N,000.0,K,A*26
$GPGSA,A,3,09,08,07,23,13,19,16,11,03,06,27,,1.56,0.91,1.27*06
$GPGSV,3,1,11,09,08,305,24,08,14,303,40,07,45,313,33,23,39,193,39*7E
$GPGSV,3,2,11,13,60,239,39,19,61,155,34,16,38,053,41,11,13,166,32*7A
$GPGSV,3,3,11,03,72,091,33,06,47,057,36,27,57,068,48,,,,*40
$GPGST,025310.00,,121.07,120.86,045.8,011.00,011.00,011.05*48
$GPRMC,025310.00,A,3917.26379,N,08203.79841,W,000.0,000.0,070214,07.2,W,A*0A
$PTNLRTF,V,A,442406,11,3,3917.26379,N,08203.79841,W,00291,+000.000,+000.000,+000.000,0,1*56
$PTNLRBA,1,1*57
$GPZDA,025312.00,07,02,2014,,*63
$GPGGA,025312.00,3917.26377,N,08203.79838,W,1,11,0.91,00291,M,-033,M,,*59
$GPGLL,3917.26377,N,08203.79838,W,025312.00,A,A*73
$GPVTG,000.0,T,007.2,M,000.0,N,000.0,K,A*26
$GPGSA,A,3,09,08,07,23,13,19,16,11,03,06,27,,1.56,0.91,1.27*06
$GPGSV,3,1,11,09,08,305,24,08,14,303,39,07,45,313,33,23,39,193,39*70
$GPGSV,3,2,11,13,60,239,39,19,61,155,34,16,38,053,40,11,13,166,32*7B
$GPGSV,3,3,11,03,72,091,32,06,47,057,37,27,57,068,48,,,,*40
$GPGST,025312.00,,115.43,115.23,045.8,010.74,010.74,010.79*4E
$GPRMC,025312.00,A,3917.26377,N,08203.79838,W,000.0,000.0,070214,07.2,W,A*08
$PTNLRTF,V,A,442408,11,3,3917.26377,N,08203.79838,W,00291,+000.000,+000.000,+000.000,0,1*58
$PTNLRBA,1,1*57
$GPZDA,025313.00,07,02,2014,,*62
$GPGGA,025313.00,3917.26377,N,08203.79838,W,1,11,0.91,00291,M,-033,M,,*58
$GPGLL,3917.26377,N,08203.79838,W,025313.00,A,A*72
$GPVTG,000.0,T,007.2,M,000.0,N,000.0,K,A*26
$GPGSA,A,3,09,08,07,23,13,19,16,11,03,06,27,,1.56,0.91,1.27*06
$GPGSV,3,1,11,09,08,305,23,08,14,303,40,07,45,313,33,23,39,193,39*79
$GPGSV,3,2,11,13,60,239,39,19,61,155,34,16,38,053,40,11,13,166,32*7B
$GPGSV,3,3,11,03,72,091,33,06,47,057,37,27,57,068,48,,,,*41
$GPGST,025313.00,,109.85,109.65,045.8,010.48,010.48,010.53*4F
$GPRMC,025313.00,A,3917.26377,N,08203.79838,W,000.0,000.0,070214,07.2,W,A*09
$PTNLRTF,V,A,442409,11,3,3917.26377,N,08203.79838,W,00291,+000.000,+000.000,+000.000,0,1*59
$PTNLRBA,1,1*57
$GPZDA,025315.00,07,02,2014,,*64
$GPGGA,025315.00,3917.26379,N,08203.79838,W,1,11,0.90,00291,M,-033,M,,*51
$GPGLL,3917.26379,N,08203.79838,W,025315.00,A,A*7A
$GPVTG,000.0,T,007.2,M,000.0,N,000.0,K,A*26
$GPGSA,A,3,09,08,07,23,13,19,16,11,03,06,27,,1.56,0.90,1.27*07
$GPGSV,3,1,11,09,08,305,24,08,14,303,39,07,45,313,34,23,39,193,39*77
$GPGSV,3,2,11,13,60,239,38,19,61,155,34,16,38,053,40,11,13,166,33*7B
$GPGSV,3,3,11,03,72,091,32,06,47,057,37,27,57,068,48,,,,*40
$GPGST,025315.00,,115.53,115.33,045.7,010.74,010.74,010.79*46
$GPRMC,025315.00,A,3917.26379,N,08203.79838,W,000.0,000.0,070214,07.2,W,A*01
$PTNLRTF,V,A,442411,11,3,3917.26379,N,08203.79838,W,00291,+000.000,+000.000,+000.000,0,1*5E
$PTNLRBA,1,1*57
