$GPZDA,014815.00,24,12,2013,,*6A
$GPGGA,014815.00,4003.48303,N,08254.66575,W,2,08,0.93,00247,M,-033,M,,*5D
$GPGLL,4003.48303,N,08254.66575,W,014815.00,A,D*70
$GPVTG,000.0,T,006.7,M,000.00,N,000.00,K,D*27
$GPGSA,A,3,25,29,31,32,14,20,16,23,,,,,1.74,0.93,1.47*06
$GPGSV,3,1,09,25,21,042,37,29,12,075,34,31,65,029,37,32,60,252,36*70
$GPGSV,3,2,09,14,32,106,22,20,36,298,39,16,25,193,47,46,43,203,45*71
$GPGSV,3,3,09,23,13,302,39,,,,,,,,,,,,*48
$GPGST,014815.00,,256.16,256.15,085.7,016.01,016.00,016.02*4D
$GPRMC,014815.00,A,4003.48303,N,08254.66575,W,000.00,000.0,241213,06.7,W,D*38
$PTNLRTF,V$GPZDA,014818.00,24,12,2013,,*67
$GPGGA,014818.00,4003.48303,N,08254.66565,W,2,07,1.00,00247,M,-033,M,,*55
$GPGLL,4003.48303,N,08254.66565,W,014818.00,A,D*7C
$GPVTG,078.6,T,085.3,M,000.37,N,000.68,K,D*2B
$GPGSA,A,3,25,29,31,32,20,16,23,,,,,,1.78,1.00,1.47*04
$GPGSV,3,1,09,25,21,042,37,29,12,075,33,31,65,029,37,32,60,252,38*79
$GPGSV,3,2,09,14,32,106,25,20,36,298,34,16,25,193,46,46,43,203,45*7A
$GPGSV,3,3,09,23,13,302,38,,,,,,,,,,,,*49
$GPGST,014818.00,,217.68,217.67,040.8,014.75,014.75,014.77*4B
$GPRMC,014818.00,A,4003.48303,N,08254.66565,W,000.37,078.6,241213,06.7,W,D*39
$PTNLRTF,V,A,179314,07,3,4003.48303,N,08254.66565,W,00247,+000.186,+000.037,+000.025,0,1*56
$PTNLRBA,1,1*57
$GPZDA,014820.00,24,12,2013,,*6C
$GPGGA,014820.00,4003.48302,N,08254.66570,W,2,07,0.95,00247,M,-033,M,,*56
$GPGLL,4003.48302,N,08254.66570,W,014820.00,A,D*72
$GPVTG,000.0,T,006.7,M,000.00,N,000.00,K,D*27
$GPGSA,A,3,25,29,31,14,20,16,23,,,,,,1.94,0.95,1.70*0B
$GPGSV,3,1,09,25,21,042,37,29,12,075,34,31,65,029,38,32,60,252,36*7F
$GPGSV,3,2,09,14,32,106,23,20,36,298,41,16,25,193,46,46,43,203,45*7E
$GPGSV,3,3,09,23,13,302,39,,,,,,,,,,,,*48
$GPGST,014820.00,,317.72,317.71,027.6,017.82,017.82,017.84*4C
$GPRMC,014820.00,A,4003.48302,N,08254.66570,W,000.00,000.0,241213,06.7,W,D*3A
$PTNLRTF,V,A,179316,07,3,4003.48302,N,08254.66570,W,00247,+000.000,+000.000,+000.000,0,1*5D
$PTNLRBA,1,1*57
$GPZDA,014821.00,24,12,2013,,*6D
$GPGGA,014821.00,4003.48301,N,08254.66573,W,2,08,0.93,00247,M,-033,M,,*5E
$GPGLL,4003.48301,N,08254.66573,W,014821.00,A,D*73
$GPVTG,000.0,T,006.7,M,000.00,N,000.00,K,D*27
$GPGSA,A,3,25,29,31,32,14,20,16,23,,,,,1.74,0.93,1.47*06
$GPGSV,3,1,09,25,21,042,37,29,12,075,33,31,65,029,38,32,60,252,36*78
$GPGSV,3,2,09,14,32,106,23,20,36,298,39,16,25,193,47,46,43,203,45*70
$GPGSV,3,3,09,23,13,302,38,,,,,,,,,,,,*49
$GPGST,014821.00,,371.90,371.89,029.2,019.28,019.28,019.30*4D
$GPRMC,014821.00,A,4003.48301,N,08254.66573,W,000.00,000.0,241213,06.7,W,D*3B
$PTNLRTF,V,A,179317,08,3,4003.48301,N,08254.66573,W,00247,+000.000,+000.000,+000.000,0,1*53
$PTNLRBA,1,1*57
$GPZDA,014823.00,24,12,2013,,*6F
$GPGGA,014823.00,4003.48301,N,08254.66580,W,2,08,0.93,00247,M,-033,M,,*50
$GPGLL,4003.48301,N,08254.66580,W,014823.00,A,D*7D
$GPVTG,000.0,T,006.7,M,000.00,N,000.00,K,D*27
$GPGSA,A,3,25,29,31,32,14,20,16,23,,,,,1.74,0.93,1.47*06
$GPGSV,3,1,09,25,21,042,37,29,12,075,33,31,65,029,39,32,60,252,36*79
$GPGSV,3,2,09,14,32,106,26,20,36,298,37,16,25,193,46,46,43,203,45*7A
$GPGSV,3,3,09,23,13,302,37,,,,,,,,,,,,*46
$GPGST,014823.00,,395.02,395.01,032.6,019.87,019.87,019.89*48
$GPRMC,014823.00,A,4003.48301,N,08254.66580,W,000.00,000.0,241213,06.7,W,D*35
$PTNLRTF,V,A,179319,08,3,4003.48301,N,08254.66580,W,00247,+000.000,+000.000,+000.000,0,1*51
$PTNLRBA,1,1*57
$GPZDA,014824.00,24,12,2013,,*68
$GPGGA,014824.00,4003.48301,N,08254.66581,W,2,08,0.93,00247,M,-033,M,,*56
$GPGLL,4003.48301,N,08254.66581,W,014824.00,A,D*7B
$GPVTG,000.0,T,006.7,M,000.00,N,000.00,K,D*27
$GPGSA,A,3,25,29,31,32,14,20,16,23,,,,,1.74,0.93,1.47*06
$GPGSV,3,1,09,25,21,042,36,29,12,075,33,31,65,029,39,32,60,252,38*76
$GPGSV,3,2,09,14,32,106,27,20,36,298,37,16,25,193,46,46,43,203,45*7B
$GPGSV,3,3,09,23,13,302,36,,,,,,,,,,,,*47
$GPGST,014824.00,,395.94,395.93,034.6,019.90,019.90,019.91*44
$GPRMC,014824.00,A,4003.48301,N,08254.66581,W,000.00,000.0,241213,06.7,W,D*33
$PTNLRTF,V,A,179320,08,3,4003.48301,N,08254.66581,W,00247,+000.000,+000.000,+000.000,0,1*5A
$PTNLRBA,1,1*57
$GPZDA,014826.00,24,12,2013,,*6A
$GPGGA,014826.00,4003.48298,N,08254.66581,W,2,06,1.31,00247,M,-033,M,,*52
$GPGLL,4003.48298,N,08254.66581,W,014826.00,A,D*78
$GPVTG,133.8,T,140.5,M,000.08,N,000.14,K,D*22
$GPGSA,A,3,25,29,31,32,20,16,,,,,,,2.40,1.31,2.01*0E
$GPGSV,3,1,09,25,21,042,36,29,12,075,35,31,65,029,38,32,60,252,37*7E
$GPGSV,3,2,09,14,32,106,15,20,36,298,37,16,25,193,46,46,43,203,45*7A
$GPGSV,3,3,09,23,13,302,36,,,,,,,,,,,,*47
$GPGST,014826.00,,334.86,334.83,028.0,018.30,018.30,018.31*44
$GPRMC,014826.00,A,4003.48298,N,08254.66581,W,000.08,133.8,241213,06.7,W,D*31
$PTNLRTF,V,A,179322,06,3,4003.48298,N,08254.66581,W,00247,+000.029,-000.028,+000.004,0,1*54
$PTNLRBA,1,1*57
$GPZDA,014827.00,24,12,2013,,*6B
$GPGGA,014827.00,4003.48299,N,08254.66588,W,2,08,0.93,00248,M,-033,M,,*53
$GPGLL,4003.48299,N,08254.66588,W,014827.00,A,D*71
$GPVTG,276.8,T,283.5,M,000.12,N,000.22,K,D*22
$GPGSA,A,3,25,29,31,32,14,20,16,23,,,,,1.74,0.93,1.47*06
$GPGSV,3,1,09,25,21,042,36,29,12,075,35,31,65,029,39,32,60,252,37*7F
$GPGSV,3,2,09,14,32,106,14,20,36,298,37,16,25,193,46,46,43,203,45*7B
$GPGSV,3,3,09,23,13,302,36,,,,,,,,,,,,*47
$GPGST,014827.00,,416.55,416.51,025.2,020.41,020.41,020.42*44
$GPRMC,014827.00,A,4003.48299,N,08254.66588,W,000.12,276.8,241213,06.7,W,D*31
$PTNLRTF,V,A,179323,08,3,4003.48299,N,08254.66588,W,00248,-000.059,+000.007,+000.053,0,1*54
$PTNLRBA,1,1*57
$GPZDA,014829.00,24,12,2013,,*65
$GPGGA,014829.00,4003.48300,N,08254.66586,W,2,07,1.00,00247,M,-033,M,,*59
$GPGLL,4003.48300,N,08254.66586,W,014829.00,A,D*70
$GPVTG,000.0,T,006.7,M,000.00,N,000.00,K,D*27
$GPGSA,A,3,25,29,31,32,20,16,23,,,,,,1.79,1.00,1.48*0A
$GPGSV,3,1,09,25,21,042,36,29,12,075,35,31,65,029,39,32,60,252,36*7E
$GPGSV,3,2,09,14,32,106,20,20,36,298,37,16,25,193,46,46,43,203,45*7C
$GPGSV,3,3,09,23,13,302,36,,,,,,,,,,,,*47
$GPGST,014829.00,,347.23,347.19,028.2,018.63,018.63,018.65*44
$GPRMC,014829.00,A,4003.48300,N,08254.66586,W,000.00,000.0,241213,06.7,W,D*38
$PTNLRTF,V,A,179325,07,3,4003.48300,N,08254.66586,W,00247,+000.000,+000.000,+000.000,0,1*56
$PTNLRBA,1,1*57
$GPZDA,014830.00,24,12,2013,,*6D
$GPGGA,014830.00,4003.48297,N,08254.66581,W,2,06,1.31,00247,M,-033,M,,*5A
$GPGLL,4003.48297,N,08254.66581,W,014830.00,A,D*70
$GPVTG,136.5,T,143.2,M,000.14,N,000.26,K,D*22
$GPGSA,A,3,25,29,31,32,20,16,,,,,,,2.40,1.31,2.01*0E
$GPGSV,3,1,09,25,21,042,36,29,12,075,34,31,65,029,38,32,60,252,36*7E
$GPGSV,3,2,09,14,32,106,24,20,36,298,35,16,25,193,46,46,43,203,45*7A
$GPGSV,3,3,09,23,13,302,37,,,,,,,,,,,,*46
$GPGST,014830.00,,320.58,320.53,026.6,017.90,017.90,017.92*43
$GPRMC,014830.00,A,4003.48297,N,08254.66581,W,000.14,136.5,241213,06.7,W,D*3C
$PTNLRTF,V,A,179326,06,3,4003.48297,N,08254.66581,W,00247,+000.050,-000.053,-000.010,0,1*5E
$PTNLRBA,1,1*57
$GPZDA,014831.00,24,12,2013,,*6C
$GPGGA,014831.00,4003.48301,N,08254.66580,W,2,07,1.00,00247,M,-033,M,,*57
$GPGLL,4003.48301,N,08254.66580,W,014831.00,A,D*7E
$GPVTG,022.6,T,029.3,M,000.15,N,000.27,K,D*29
$GPGSA,A,3,25,29,31,32,20,16,23,,,,,,1.79,1.00,1.48*0A
$GPGSV,3,1,09,25,21,042,35,29,12,075,35,31,65,029,37,32,60,252,37*72
$GPGSV,3,2,09,14,32,106,21,20,36,298,36,16,25,193,46,46,43,203,44*7D
$GPGSV,3,3,09,23,13,302,37,,,,,,,,,,,,*46
$GPGST,014831.00,,298.97,298.91,026.0,017.29,017.29,017.30*41
$GPRMC,014831.00,A,4003.48301,N,08254.66580,W,000.15,022.6,241213,06.7,W,D*34
$PTNLRTF,V,A,179327,07,3,4003.48301,N,08254.66580,W,00247,+000.029,+000.069,+000.007,0,1*50
$PTNLRBA,1,1*57
$GPZDA,014833.00,24,12,2013,,*6E
$GPGGA,014833.00,4003.48293,N,08254.66577,W,2,06,1.02,00247,M,-033,M,,*54
$GPGLL,4003.48293,N,08254.66577,W,014833.00,A,D*7E
$GPVTG,143.7,T,150.3,M,000.22,N,000.40,K,D*24
$GPGSA,A,3,25,29,31,14,16,23,,,,,,,2.03,1.02,1.76*0D
$GPGSV,3,1,09,25,21,042,36,29,12,075,36,31,65,029,38,32,60,252,37*7D
$GPGSV,3,2,09,14,32,106,16,20,36,298,37,16,25,193,46,46,43,203,45*79
$GPGSV,3,3,09,23,13,302,37,,,,,,,,,,,,*46
$GPGST,014833.00,,233.97,233.90,026.7,035.13,035.13,035.13*44
$GPRMC,014833.00,A,4003.48293,N,08254.66577,W,000.22,143.7,241213,06.7,W,D*37
$PTNLRTF,V,A,179329,06,3,4003.48293,N,08254.66577,W,00247,+000.066,-000.089,+000.015,0,1*5D
$PTNLRBA,1,1*57
$GPZDA,014834.00,24,12,2013,,*69
$GPGGA,014834.00,4003.48292,N,08254.66583,W,2,08,0.93,00247,M,-033,M,,*5E
$GPGLL,4003.48292,N,08254.66583,W,014834.00,A,D*73
$GPVTG,258.4,T,265.1,M,000.26,N,000.47,K,D*2A
$GPGSA,A,3,25,29,31,32,14,20,16,23,,,,,1.74,0.93,1.47*06
$GPGSV,3,1,09,25,21,042,36,29,12,075,34,31,65,029,38,32,60,252,37*7F
$GPGSV,3,2,09,14,32,106,17,20,36,298,36,16,25,193,46,46,43,203,44*78
$GPGSV,3,3,09,23,13,302,36,,,,,,,,,,,,*47
$GPGST,014834.00,,033.89,033.81,025.6,045.10,045.10,045.10*4A
$GPRMC,014834.00,A,4003.48292,N,08254.66583,W,000.26,258.4,241213,06.7,W,D*34
$PTNLRTF,V,A,179330,08,3,4003.48292,N,08254.66583,W,00247,-000.128,-000.026,+000.029,0,1*56
$PTNLRBA,1,1*57
$GPZDA,014836.00,24,12,2013,,*6B
$GPGGA,014836.00,4003.48293,N,08254.66569,W,2,08,0.93,00247,M,-033,M,,*59
$GPGLL,4003.48293,N,08254.66569,W,014836.00,A,D*74
$GPVTG,000.0,T,006.7,M,000.00,N,000.00,K,D*27
$GPGSA,A,3,25,29,31,32,14,20,16,23,,,,,1.74,0.93,1.47*06
$GPGSV,3,1,09,25,21,042,34,29,12,075,34,31,65,029,37,32,60,252,37*72
$GPGSV,3,2,09,14,32,106,16,20,36,298,37,16,25,193,45,46,43,203,44*7B
$GPGSV,3,3,09,23,13,302,37,,,,,,,,,,,,*46
$GPGST,014836.00,,732.32,732.25,023.8,061.09,061.09,061.10*48
$GPRMC,014836.00,A,4003.48293,N,08254.66569,W,000.00,000.0,241213,06.7,W,D*3C
$PTNLRTF,V,A,179332,08,3,4003.48293,N,08254.66569,W,00247,+000.000,+000.000,+000.000,0,1*55
$PTNLRBA,1,1*57
$GPZDA,014837.00,24,12,2013,,*6A
$GPGGA,014837.00,4003.48294,N,08254.66570,W,2,08,0.93,00247,M,-033,M,,*57
$GPGLL,4003.48294,N,08254.66570,W,014837.00,A,D*7A
$GPVTG,000.0,T,006.7,M,000.00,N,000.00,K,D*27
$GPGSA,A,3,25,29,31,32,14,20,16,23,,,,,1.74,0.93,1.47*06
$GPGSV,3,1,09,25,21,042,34,29,12,075,35,31,65,029,37,32,60,252,38*7C
$GPGSV,3,2,09,14,32,106,10,20,36,298,35,16,25,193,45,46,43,203,44*7F
$GPGSV,3,3,09,23,13,302,36,,,,,,,,,,,,*47
$GPGST,014837.00,,545.34,545.26,024.0,067.42,067.42,067.42*42
$GPRMC,014837.00,A,4003.48294,N,08254.66570,W,000.00,000.0,241213,06.7,W,D*32
$PTNLRTF,V,A,179333,08,3,4003.48294,N,08254.66570,W,00247,+000.000,+000.000,+000.000,0,1*5B
$PTNLRBA,1,1*57
$GPZDA,014839.00,24,12,2013,,*64
$GPGGA,014839.00,4003.48295,N,08254.66573,W,2,07,1.00,00247,M,-033,M,,*5F
$GPGLL,4003.48295,N,08254.66573,W,014839.00,A,D*76
$GPVTG,000.0,T,006.7,M,000.00,N,000.00,K,D*27
$GPGSA,A,3,25,29,31,32,20,16,23,,,,,,1.79,1.00,1.48*0A
$GPGSV,3,1,09,25,21,042,34,29,12,075,35,31,65,029,37,32,60,251,38*7F
$GPGSV,3,2,09,14,32,106,00,20,36,298,35,16,25,193,46,46,43,203,45*7C
$GPGSV,3,3,09,23,13,302,35,,,,,,,,,,,,*44
$GPGST,014839.00,,699.78,699.71,024.4,060.83,060.83,060.83*48
$GPRMC,014839.00,A,4003.48295,N,08254.66573,W,000.00,000.0,241213,06.7,W,D*3E
$PTNLRTF,V,A,179335,07,3,4003.48295,N,08254.66573,W,00247,+000.000,+000.000,+000.000,0,1*50
$PTNLRBA,1,1*57
