$GPZDA,015003.00,24,12,2013,,*64
$GPGGA,015003.00,4003.48212,N,08254.66378,W,2,07,1.02,00248,M,-033,M,,*50
$GPGLL,4003.48212,N,08254.66378,W,015003.00,A,D*74
$GPVTG,000.0,T,006.7,M,000.00,N,000.00,K,D*27
$GPGSA,A,3,29,31,32,14,20,16,23,,,,,,1.83,1.02,1.51*07
$GPGSV,3,1,09,25,20,042,26,29,13,074,32,31,65,030,37,32,60,250,38*73
$GPGSV,3,2,09,14,32,107,37,20,37,297,39,16,26,193,43,46,43,203,45*7D
$GPGSV,3,3,09,23,14,303,40,,,,,,,,,,,,*40
$GPGST,015003.00,,115.94,115.87,018.4,010.76,010.77,010.78*4E
$GPRMC,015003.00,A,4003.48212,N,08254.66378,W,000.00,000.0,241213,06.7,W,D*3C
$PTNLRTF,V,A$GPZDA,015006.00,24,12,2013,,*61
$GPGGA,015006.00,4003.48214,N,08254.66364,W,2,08,0.93,00248,M,-033,M,,*58
$GPGLL,4003.48214,N,08254.66364,W,015006.00,A,D*7A
$GPVTG,036.8,T,043.5,M,000.28,N,000.52,K,D*24
$GPGSA,A,3,25,29,31,32,14,20,16,23,,,,,1.76,0.93,1.50*02
$GPGSV,3,1,09,25,20,042,25,29,13,074,34,31,65,030,37,32,60,250,37*79
$GPGSV,3,2,09,14,32,107,38,20,37,297,40,16,26,193,41,46,43,203,44*7F
$GPGSV,3,3,09,23,14,303,40,,,,,,,,,,,,*40
$GPGST,015006.00,,108.63,108.57,015.5,010.42,010.42,010.44*4C
$GPRMC,015006.00,A,4003.48214,N,08254.66364,W,000.28,036.8,241213,06.7,W,D*35
$PTNLRTF,V,A,179422,08,3,4003.48214,N,08254.66364,W,00248,+000.086,+000.115,+000.086,0,1*5D
$PTNLRBA,1,1*57
$GPZDA,015008.00,24,12,2013,,*6F
$GPGGA,015008.00,4003.48211,N,08254.66353,W,2,08,0.93,00248,M,-033,M,,*57
$GPGLL,4003.48211,N,08254.66353,W,015008.00,A,D*75
$GPVTG,000.0,T,006.7,M,000.00,N,000.00,K,D*27
$GPGSA,A,3,25,29,31,32,14,20,16,23,,,,,1.76,0.93,1.50*02
$GPGSV,3,1,09,25,20,042,25,29,13,074,30,31,65,030,37,32,60,250,39*73
$GPGSV,3,2,09,14,32,107,36,20,37,297,40,16,26,193,42,46,43,203,44*72
$GPGSV,3,3,09,23,14,303,40,,,,,,,,,,,,*40
$GPGST,015008.00,,118.76,118.70,015.8,010.90,010.90,010.91*46
$GPRMC,015008.00,A,4003.48211,N,08254.66353,W,000.00,000.0,241213,06.7,W,D*3D
$PTNLRTF,V,A,179424,08,3,4003.48211,N,08254.66353,W,00248,+000.000,+000.000,+000.000,0,1*5F
$PTNLRBA,1,1*57
$GPZDA,015009.00,24,12,2013,,*6E
$GPGGA,015009.00,4003.48210,N,08254.66349,W,2,08,0.93,00248,M,-033,M,,*5C
$GPGLL,4003.48210,N,08254.66349,W,015009.00,A,D*7E
$GPVTG,000.0,T,006.7,M,000.00,N,000.00,K,D*27
$GPGSA,A,3,25,29,31,32,14,20,16,23,,,,,1.76,0.93,1.50*02
$GPGSV,3,1,09,25,20,042,28,29,13,074,30,31,65,030,37,32,60,250,39*7E
$GPGSV,3,2,09,14,32,107,36,20,37,297,40,16,26,193,42,46,43,203,44*72
$GPGSV,3,3,09,23,14,303,40,,,,,,,,,,,,*40
$GPGST,015009.00,,117.74,117.69,015.7,010.85,010.85,010.87*45
$GPRMC,015009.00,A,4003.48210,N,08254.66349,W,000.00,000.0,241213,06.7,W,D*36
$PTNLRTF,V,A,179425,08,3,4003.48210,N,08254.66349,W,00248,+000.000,+000.000,+000.000,0,1*54
$PTNLRBA,1,1*57
$GPZDA,015011.00,24,12,2013,,*67
$GPGGA,015011.00,4003.48209,N,08254.66348,W,2,08,0.93,00248,M,-033,M,,*5C
$GPGLL,4003.48209,N,08254.66348,W,015011.00,A,D*7E
$GPVTG,000.0,T,006.7,M,000.00,N,000.00,K,D*27
$GPGSA,A,3,25,29,31,32,14,20,16,23,,,,,1.76,0.93,1.50*02
$GPGSV,3,1,09,25,20,042,29,29,13,074,28,31,65,030,39,32,60,250,37*76
$GPGSV,3,2,09,14,32,107,36,20,37,297,37,16,26,193,42,46,43,203,44*72
$GPGSV,3,3,09,23,14,303,40,,,,,,,,,,,,*40
$GPGST,015011.00,,109.46,109.40,015.6,010.46,010.46,010.48*44
$GPRMC,015011.00,A,4003.48209,N,08254.66348,W,000.00,000.0,241213,06.7,W,D*36
$PTNLRTF,V,A,179427,08,3,4003.48209,N,08254.66348,W,00248,+000.000,+000.000,+000.000,0,1*5F
$PTNLRBA,1,1*57
$GPZDA,015012.00,24,12,2013,,*64
$GPGGA,015012.00,4003.48209,N,08254.66346,W,2,08,0.93,00248,M,-033,M,,*51
$GPGLL,4003.48209,N,08254.66346,W,015012.00,A,D*73
$GPVTG,000.0,T,006.7,M,000.00,N,000.00,K,D*27
$GPGSA,A,3,25,29,31,32,14,20,16,23,,,,,1.76,0.93,1.50*02
$GPGSV,3,1,09,25,20,042,27,29,13,074,20,31,65,030,39,32,60,250,38*7F
$GPGSV,3,2,09,14,32,107,37,20,37,297,37,16,26,193,43,46,43,203,44*72
$GPGSV,3,3,09,23,14,303,36,,,,,,,,,,,,*41
$GPGST,015012.00,,122.46,122.41,015.4,011.06,011.07,011.08*40
$GPRMC,015012.00,A,4003.48209,N,08254.66346,W,000.00,000.0,241213,06.7,W,D*3B
$PTNLRTF,V,A,179428,08,3,4003.48209,N,08254.66346,W,00248,+000.000,+000.000,+000.000,0,1*5E
$PTNLRBA,1,1*57
$GPZDA,015014.00,24,12,2013,,*62
$GPGGA,015014.00,4003.48208,N,08254.66339,W,2,08,0.93,00248,M,-033,M,,*5E
$GPGLL,4003.48208,N,08254.66339,W,015014.00,A,D*7C
$GPVTG,000.0,T,006.7,M,000.00,N,000.00,K,D*27
$GPGSA,A,3,25,29,31,32,14,20,16,23,,,,,1.76,0.93,1.50*02
$GPGSV,3,1,09,25,20,042,31,29,13,074,25,31,65,030,39,32,60,250,38*7D
$GPGSV,3,2,09,14,32,107,38,20,37,297,34,16,26,193,43,46,43,203,44*7E
$GPGSV,3,3,09,23,14,303,39,,,,,,,,,,,,*4E
$GPGST,015014.00,,119.83,119.77,015.2,010.94,010.95,010.96*4A
$GPRMC,015014.00,A,4003.48208,N,08254.66339,W,000.00,000.0,241213,06.7,W,D*34
$PTNLRTF,V,A,179430,08,3,4003.48208,N,08254.66339,W,00248,+000.000,+000.000,+000.000,0,1*5E
$PTNLRBA,1,1*57
$GPZDA,015015.00,24,12,2013,,*63
$GPGGA,015015.00,4003.48206,N,08254.66336,W,2,07,0.98,00248,M,-033,M,,*5A
$GPGLL,4003.48206,N,08254.66336,W,015015.00,A,D*7C
$GPVTG,000.0,T,006.7,M,000.00,N,000.00,K,D*27
$GPGSA,A,3,25,31,32,14,20,16,23,,,,,,1.91,0.98,1.64*0C
$GPGSV,3,1,09,25,20,042,31,29,13,074,24,31,65,030,39,32,60,250,38*7C
$GPGSV,3,2,09,14,32,107,37,20,37,297,34,16,26,193,44,46,43,203,45*77
$GPGSV,3,3,09,23,14,303,38,,,,,,,,,,,,*4F
$GPGST,015015.00,,112.60,112.55,015.2,010.61,010.61,010.63*4D
$GPRMC,015015.00,A,4003.48206,N,08254.66336,W,000.00,000.0,241213,06.7,W,D*34
$PTNLRTF,V,A,179431,07,3,4003.48206,N,08254.66336,W,00248,+000.000,+000.000,+000.000,0,1*51
$PTNLRBA,1,1*57
$GPZDA,015017.00,24,12,2013,,*61
$GPGGA,015017.00,4003.48206,N,08254.66330,W,2,08,0.93,00248,M,-033,M,,*5A
$GPGLL,4003.48206,N,08254.66330,W,015017.00,A,D*78
$GPVTG,000.0,T,006.7,M,000.00,N,000.00,K,D*27
$GPGSA,A,3,25,29,31,32,14,20,16,23,,,,,1.77,0.93,1.50*03
$GPGSV,3,1,09,25,20,042,28,29,13,074,27,31,65,030,39,32,60,250,37*78
$GPGSV,3,2,09,14,32,107,36,20,37,297,35,16,26,193,43,46,43,203,45*70
$GPGSV,3,3,09,23,14,303,36,,,,,,,,,,,,*41
$GPGST,015017.00,,155.47,155.41,014.9,012.47,012.47,012.48*4E
$GPRMC,015017.00,A,4003.48206,N,08254.66330,W,000.00,000.0,241213,06.7,W,D*30
$PTNLRTF,V,A,179433,08,3,4003.48206,N,08254.66330,W,00248,+000.000,+000.000,+000.000,0,1*5A
$PTNLRBA,1,1*57
$GPZDA,015018.00,24,12,2013,,*6E
$GPGGA,015018.00,4003.48205,N,08254.66327,W,2,08,0.93,00248,M,-033,M,,*50
$GPGLL,4003.48205,N,08254.66327,W,015018.00,A,D*72
$GPVTG,000.0,T,006.7,M,000.00,N,000.00,K,D*27
$GPGSA,A,3,25,29,31,32,14,20,16,23,,,,,1.77,0.93,1.50*03
$GPGSV,3,1,09,25,20,042,29,29,13,074,25,31,65,030,38,32,60,250,36*7B
$GPGSV,3,2,09,14,32,107,34,20,37,297,34,16,26,193,42,46,43,203,43*74
$GPGSV,3,3,09,23,14,303,35,,,,,,,,,,,,*42
$GPGST,015018.00,,169.20,169.15,014.8,013.01,013.01,013.02*4F
$GPRMC,015018.00,A,4003.48205,N,08254.66327,W,000.00,000.0,241213,06.7,W,D*3A
$PTNLRTF,V,A,179434,08,3,4003.48205,N,08254.66327,W,00248,+000.000,+000.000,+000.000,0,1*58
$PTNLRBA,1,1*57
$GPZDA,015020.00,24,12,2013,,*65
$GPGGA,015020.00,4003.48204,N,08254.66317,W,2,08,0.93,00248,M,-033,M,,*59
$GPGLL,4003.48204,N,08254.66317,W,015020.00,A,D*7B
$GPVTG,000.0,T,006.7,M,000.00,N,000.00,K,D*27
$GPGSA,A,3,25,29,31,32,14,20,16,23,,,,,1.77,0.93,1.50*03
$GPGSV,3,1,09,25,20,042,29,29,13,074,27,31,65,030,39,32,60,250,37*79
$GPGSV,3,2,09,14,32,107,34,20,37,297,37,16,26,193,44,46,43,203,44*76
$GPGSV,3,3,09,23,14,303,34,,,,,,,,,,,,*43
$GPGST,015020.00,,189.46,189.41,014.6,013.76,013.76,013.78*46
$GPRMC,015020.00,A,4003.48204,N,08254.66317,W,000.00,000.0,241213,06.7,W,D*33
$PTNLRTF,V,A,179436,08,3,4003.48204,N,08254.66317,W,00248,+000.000,+000.000,+000.000,0,1*58
$PTNLRBA,1,1*57
$GPZDA,015021.00,24,12,2013,,*64
$GPGGA,015021.00,4003.48203,N,08254.66313,W,2,08,0.93,00248,M,-033,M,,*5B
$GPGLL,4003.48203,N,08254.66313,W,015021.00,A,D*79
$GPVTG,000.0,T,006.7,M,000.00,N,000.00,K,D*27
$GPGSA,A,3,25,29,31,32,14,20,16,23,,,,,1.77,0.93,1.50*03
$GPGSV,3,1,09,25,20,042,28,29,13,074,27,31,65,030,40,32,60,250,38*79
$GPGSV,3,2,09,14,32,107,36,20,37,297,37,16,26,193,44,46,43,203,45*75
$GPGSV,3,3,09,23,14,303,34,,,,,,,,,,,,*43
$GPGST,015021.00,,182.16,182.11,014.6,013.49,013.50,013.51*44
$GPRMC,015021.00,A,4003.48203,N,08254.66313,W,000.00,000.0,241213,06.7,W,D*31
$PTNLRTF,V,A,179437,08,3,4003.48203,N,08254.66313,W,00248,+000.000,+000.000,+000.000,0,1*5A
$PTNLRBA,1,1*57
$GPZDA,015023.00,24,12,2013,,*66
$GPGGA,015023.00,4003.48204,N,08254.66306,W,2,08,0.93,00248,M,-033,M,,*5A
$GPGLL,4003.48204,N,08254.66306,W,015023.00,A,D*78
$GPVTG,000.0,T,006.7,M,000.00,N,000.00,K,D*27
$GPGSA,A,3,25,29,31,32,14,20,16,23,,,,,1.77,0.93,1.50*03
$GPGSV,3,1,09,25,20,042,27,29,13,074,29,31,65,030,40,32,60,250,39*79
$GPGSV,3,2,09,14,32,107,37,20,37,297,36,16,26,193,44,46,43,203,44*74
$GPGSV,3,3,09,23,14,303,36,,,,,,,,,,,,*41
$GPGST,015023.00,,167.63,167.58,014.3,012.95,012.95,012.96*4E
$GPRMC,015023.00,A,4003.48204,N,08254.66306,W,000.00,000.0,241213,06.7,W,D*30
$PTNLRTF,V,A,179439,08,3,4003.48204,N,08254.66306,W,00248,+000.000,+000.000,+000.000,0,1*57
$PTNLRBA,1,1*57
$GPZDA,015024.00,24,12,2013,,*61
$GPGGA,015024.00,4003.48204,N,08254.66305,W,2,08,0.93,00248,M,-033,M,,*5E
$GPGLL,4003.48204,N,08254.66305,W,015024.00,A,D*7C
$GPVTG,000.0,T,006.7,M,000.00,N,000.00,K,D*27
$GPGSA,A,3,25,29,31,32,14,20,16,23,,,,,1.77,0.93,1.50*03
$GPGSV,3,1,09,25,20,042,31,29,13,074,30,31,65,030,40,32,60,250,39*76
$GPGSV,3,2,09,14,32,107,37,20,37,297,35,16,26,193,43,46,43,203,44*70
$GPGSV,3,3,09,23,14,303,35,,,,,,,,,,,,*42
$GPGST,015024.00,,154.05,154.00,014.3,012.41,012.41,012.42*4D
$GPRMC,015024.00,A,4003.48204,N,08254.66305,W,000.00,000.0,241213,06.7,W,D*34
$PTNLRTF,V,A,179441,08,3,4003.48204,N,08254.66305,W,00248,+000.000,+000.000,+000.000,0,1*5B
$PTNLRBA,1,1*57
$GPZDA,015026.00,24,12,2013,,*63
$GPGGA,015026.00,4003.48203,N,08254.66304,W,2,08,0.93,00248,M,-033,M,,*5A
$GPGLL,4003.48203,N,08254.66304,W,015026.00,A,D*78
$GPVTG,000.0,T,006.7,M,000.00,N,000.00,K,D*27
$GPGSA,A,3,25,29,31,32,14,20,16,23,,,,,1.77,0.93,1.50*03
$GPGSV,3,1,09,25,20,042,29,29,13,074,32,31,65,030,39,32,60,250,39*73
$GPGSV,3,2,09,14,32,107,37,20,37,297,35,16,26,193,43,46,43,203,44*70
$GPGSV,3,3,09,23,14,303,35,,,,,,,,,,,,*42
$GPGST,015026.00,,135.00,134.96,014.2,011.62,011.62,011.63*45
$GPRMC,015026.00,A,4003.48203,N,08254.66304,W,000.00,000.0,241213,06.7,W,D*30
$PTNLRTF,V,A,179442,08,3,4003.48203,N,08254.66304,W,00248,+000.000,+000.000,+000.000,0,1*5E
$PTNLRBA,1,1*57
$GPZDA,015028.00,24,12,2013,,*6D
$GPGGA,015028.00,4003.48203,N,08254.66304,W,2,08,0.93,00248,M,-033,M,,*54
$GPGLL,4003.48203,N,08254.66304,W,015028.00,A,D*76
$GPVTG,000.0,T,006.7,M,000.00,N,000.00,K,D*27
$GPGSA,A,3,25,29,31,32,14,20,16,23,,,,,1.77,0.93,1.50*03
$GPGSV,3,1,09,25,20,042,29,29,13,074,32,31,65,030,39,32,60,250,40*7D
$GPGSV,3,2,09,14,32,107,38,20,37,297,35,16,26,193,43,46,43,203,44*7F
$GPGSV,3,3,09,23,14,303,34,,,,,,,,,,,,*43
$GPGST,015028.00,,129.36,129.32,014.3,011.37,011.37,011.39*4F
$GPRMC,015028.00,A,4003.48203,N,08254.66304,W,000.00,000.0,241213,06.7,W,D*3E
$PTNLRTF,V,A,179444,08,3,4003.48203,N,08254.66304,W,00248,+000.000,+000.000,+000.000,0,1*58
$PTNLRBA,1,1*57
