$GPZDA,014340.00,24,12,2013,,*61
$GPGGA,014340.00,4003.48393,N,08254.66579,W,2,08,0.93,00256,M,-033,M,,*53
$GPGLL,4003.48393,N,08254.66579,W,014340.00,A,D*7E
$GPVTG,000.0,T,006.7,M,000.00,N,000.00,K,D*27
$GPGSA,A,3,25,01,29,31,32,14,16,23,,,,,1.55,0.93,1.24*03
$GPGSV,3,1,10,25,23,043,32,01,06,257,44,29,12,077,29,31,67,025,30*79
$GPGSV,3,2,10,32,61,256,36,14,34,104,34,20,35,300,18,16,23,193,40*7C
$GPGSV,3,3,10,46,43,203,45,23,12,301,44,,,,,,,,*7D
$GPGST,014340.00,,129.27,129.09,083.1,011.37,011.36,011.39*46
$GPRMC,014340.00,A,4003.48393,N,08254.66579,W,000.00,000.0,241213,06.7,W,D*36
$$GPZDA,014343.00,24,12,2013,,*62
$GPGGA,014343.00,4003.48392,N,08254.66585,W,2,08,0.93,00255,M,-033,M,,*51
$GPGLL,4003.48392,N,08254.66585,W,014343.00,A,D*7F
$GPVTG,000.0,T,006.7,M,000.00,N,000.00,K,D*27
$GPGSA,A,3,25,01,29,31,32,14,16,23,,,,,1.55,0.93,1.24*03
$GPGSV,3,1,10,25,23,043,31,01,06,257,44,29,12,077,30,31,67,025,30*72
$GPGSV,3,2,10,32,61,256,34,14,34,104,31,20,35,300,16,16,23,193,40*75
$GPGSV,3,3,10,46,43,203,44,23,12,301,43,,,,,,,,*7B
$GPGST,014343.00,,126.88,126.71,083.2,011.26,011.26,011.29*4C
$GPRMC,014343.00,A,4003.48392,N,08254.66585,W,000.00,000.0,241213,06.7,W,D*37
$PTNLRTF,V,A,179039,08,3,4003.48392,N,08254.66585,W,00255,+000.000,+000.000,+000.000,0,1*5C
$PTNLRBA,1,1*57
$GPZDA,014344.00,24,12,2013,,*65
$GPGGA,014344.00,4003.48392,N,08254.66586,W,2,09,0.87,00255,M,-033,M,,*51
$GPGLL,4003.48392,N,08254.66586,W,014344.00,A,D*7B
$GPVTG,000.0,T,006.7,M,000.00,N,000.00,K,D*27
$GPGSA,A,3,25,01,29,31,32,14,20,16,23,,,,1.50,0.87,1.22*07
$GPGSV,3,1,10,25,23,043,31,01,06,257,45,29,12,077,30,31,67,025,29*7B
$GPGSV,3,2,10,32,61,256,35,14,34,104,31,20,35,300,22,16,23,193,40*73
$GPGSV,3,3,10,46,43,203,44,23,12,301,43,,,,,,,,*7B
$GPGST,014344.00,,138.66,138.49,083.2,011.78,011.77,011.80*4C
$GPRMC,014344.00,A,4003.48392,N,08254.66586,W,000.00,000.0,241213,06.7,W,D*33
$PTNLRTF,V,A,179040,09,3,4003.48392,N,08254.66586,W,00255,+000.000,+000.000,+000.000,0,1*50
$PTNLRBA,1,1*57
$GPZDA,014345.00,24,12,2013,,*64
$GPGGA,014345.00,4003.48391,N,08254.66586,W,2,08,0.93,00255,M,-033,M,,*57
$GPGLL,4003.48391,N,08254.66586,W,014345.00,A,D*79
$GPVTG,000.0,T,006.7,M,000.00,N,000.00,K,D*27
$GPGSA,A,3,25,01,29,31,32,14,16,23,,,,,1.55,0.93,1.24*03
$GPGSV,3,1,10,25,23,043,31,01,06,257,45,29,12,077,30,31,67,025,30*73
$GPGSV,3,2,10,32,61,256,35,14,34,104,31,20,35,300,21,16,23,193,40*70
$GPGSV,3,3,10,46,43,203,44,23,12,301,43,,,,,,,,*7B
$GPGST,014345.00,,152.14,151.98,083.2,012.33,012.33,012.35*45
$GPRMC,014345.00,A,4003.48391,N,08254.66586,W,000.00,000.0,241213,06.7,W,D*31
$PTNLRTF,V,A,179042,08,3,4003.48391,N,08254.66586,W,00255,+000.000,+000.000,+000.000,0,1*50
$PTNLRBA,1,1*57
$GPZDA,014347.00,24,12,2013,,*66
$GPGGA,014347.00,4003.48391,N,08254.66585,W,2,09,0.87,00255,M,-033,M,,*52
$GPGLL,4003.48391,N,08254.66585,W,014347.00,A,D*78
$GPVTG,000.0,T,006.7,M,000.00,N,000.00,K,D*27
$GPGSA,A,3,25,01,29,31,32,14,20,16,23,,,,1.50,0.87,1.22*07
$GPGSV,3,1,10,25,23,043,31,01,06,257,45,29,12,077,29,31,67,025,31*7A
$GPGSV,3,2,10,32,61,256,35,14,34,104,31,20,35,300,22,16,23,193,40*73
$GPGSV,3,3,10,46,43,203,45,23,12,301,44,,,,,,,,*7D
$GPGST,014347.00,,179.88,179.72,083.3,013.41,013.41,013.43*44
$GPRMC,014347.00,A,4003.48391,N,08254.66585,W,000.00,000.0,241213,06.7,W,D*30
$PTNLRTF,V,A,179043,09,3,4003.48391,N,08254.66585,W,00255,+000.000,+000.000,+000.000,0,1*53
$PTNLRBA,1,1*57
$GPZDA,014349.00,24,12,2013,,*68
$GPGGA,014349.00,4003.48391,N,08254.66586,W,2,09,0.87,00255,M,-033,M,,*5F
$GPGLL,4003.48391,N,08254.66586,W,014349.00,A,D*75
$GPVTG,000.0,T,006.7,M,000.00,N,000.00,K,D*27
$GPGSA,A,3,25,01,29,31,32,14,20,16,23,,,,1.50,0.87,1.22*07
$GPGSV,3,1,10,25,23,043,30,01,06,257,45,29,12,077,31,31,67,025,31*72
$GPGSV,3,2,10,32,61,256,34,14,34,104,31,20,35,300,21,16,23,193,40*71
$GPGSV,3,3,10,46,43,203,44,23,12,301,43,,,,,,,,*7B
$GPGST,014349.00,,184.56,184.41,083.4,013.59,013.58,013.60*4E
$GPRMC,014349.00,A,4003.48391,N,08254.66586,W,000.00,000.0,241213,06.7,W,D*3D
$PTNLRTF,V,A,179045,09,3,4003.48391,N,08254.66586,W,00255,+000.000,+000.000,+000.000,0,1*56
$PTNLRBA,1,1*57
$GPZDA,014350.00,24,12,2013,,*60
$GPGGA,014350.00,4003.48389,N,08254.66585,W,2,09,0.87,00255,M,-033,M,,*5D
$GPGLL,4003.48389,N,08254.66585,W,014350.00,A,D*77
$GPVTG,000.0,T,006.7,M,000.00,N,000.00,K,D*27
$GPGSA,A,3,25,01,29,31,32,14,20,16,23,,,,1.50,0.87,1.22*07
$GPGSV,3,1,10,25,23,043,31,01,06,257,45,29,12,077,30,31,67,025,32*71
$GPGSV,3,2,10,32,61,256,32,14,34,104,31,20,35,300,22,16,23,193,40*74
$GPGSV,3,3,10,46,43,203,44,23,12,301,44,,,,,,,,*7C
$GPGST,014350.00,,191.59,191.44,083.4,013.84,013.84,013.86*45
$GPRMC,014350.00,A,4003.48389,N,08254.66585,W,000.00,000.0,241213,06.7,W,D*3F
$PTNLRTF,V,A,179046,09,3,4003.48389,N,08254.66585,W,00255,+000.000,+000.000,+000.000,0,1*5F
$PTNLRBA,1,1*57
$GPZDA,014352.00,24,12,2013,,*62
$GPGGA,014352.00,4003.48383,N,08254.66586,W,2,09,0.87,00255,M,-033,M,,*56
$GPGLL,4003.48383,N,08254.66586,W,014352.00,A,D*7C
$GPVTG,000.0,T,006.7,M,000.00,N,000.00,K,D*27
$GPGSA,A,3,25,01,29,31,32,14,20,16,23,,,,1.50,0.87,1.22*07
$GPGSV,3,1,10,25,23,043,32,01,06,257,46,29,12,077,29,31,67,025,32*79
$GPGSV,3,2,10,32,61,256,32,14,34,104,30,20,35,300,20,16,23,193,40*77
$GPGSV,3,3,10,46,43,203,44,23,12,301,44,,,,,,,,*7C
$GPGST,014352.00,,203.50,203.35,083.5,014.27,014.26,014.28*4B
$GPRMC,014352.00,A,4003.48383,N,08254.66586,W,000.00,000.0,241213,06.7,W,D*34
$PTNLRTF,V,A,179048,09,3,4003.48383,N,08254.66586,W,00255,+000.000,+000.000,+000.000,0,1*58
$PTNLRBA,1,1*57
$GPZDA,014353.00,24,12,2013,,*63
$GPGGA,014353.00,4003.48381,N,08254.66586,W,2,09,0.87,00255,M,-033,M,,*55
$GPGLL,4003.48381,N,08254.66586,W,014353.00,A,D*7F
$GPVTG,000.0,T,006.7,M,000.00,N,000.00,K,D*27
$GPGSA,A,3,25,01,29,31,32,14,20,16,23,,,,1.50,0.87,1.22*07
$GPGSV,3,1,10,25,22,043,33,01,06,257,46,29,12,077,30,31,67,026,32*72
$GPGSV,3,2,10,32,61,256,32,14,34,104,31,20,35,300,18,16,23,193,41*7C
$GPGSV,3,3,10,46,43,203,44,23,12,301,44,,,,,,,,*7C
$GPGST,014353.00,,219.18,219.03,083.6,014.80,014.80,014.82*41
$GPRMC,014353.00,A,4003.48381,N,08254.66586,W,000.00,000.0,241213,06.7,W,D*37
$PTNLRTF,V,A,179049,09,3,4003.48381,N,08254.66586,W,00255,+000.000,+000.000,+000.000,0,1*5B
$PTNLRBA,1,1*57
$GPZDA,014354.00,24,12,2013,,*64
$GPGGA,014354.00,4003.48381,N,08254.66588,W,2,09,0.87,00255,M,-033,M,,*5C
$GPGLL,4003.48381,N,08254.66588,W,014354.00,A,D*76
$GPVTG,000.0,T,006.7,M,000.00,N,000.00,K,D*27
$GPGSA,A,3,25,01,29,31,32,14,20,16,23,,,,1.50,0.87,1.22*07
$GPGSV,3,1,10,25,22,043,33,01,06,257,46,29,12,077,29,31,67,026,33*7B
$GPGSV,3,2,10,32,61,256,33,14,34,104,33,20,35,300,19,16,23,193,41*7E
$GPGSV,3,3,10,46,43,203,44,23,12,301,44,,,,,,,,*7C
$GPGST,014354.00,,237.91,237.76,083.6,015.42,015.42,015.44*4E
$GPRMC,014354.00,A,4003.48381,N,08254.66588,W,000.00,000.0,241213,06.7,W,D*3E
$PTNLRTF,V,A,179051,09,3,4003.48381,N,08254.66588,W,00255,+000.000,+000.000,+000.000,0,1*5C
$PTNLRBA,1,1*57
$GPZDA,014356.00,24,12,2013,,*66
$GPGGA,014356.00,4003.48380,N,08254.66589,W,2,08,0.93,00254,M,-033,M,,*5B
$GPGLL,4003.48380,N,08254.66589,W,014356.00,A,D*74
$GPVTG,000.0,T,006.7,M,000.00,N,000.00,K,D*27
$GPGSA,A,3,25,01,29,31,32,14,16,23,,,,,1.55,0.93,1.25*02
$GPGSV,3,1,10,25,22,043,33,01,06,257,46,29,12,077,29,31,67,026,33*7B
$GPGSV,3,2,10,32,61,256,33,14,34,104,34,20,35,300,22,16,23,193,41*71
$GPGSV,3,3,10,46,43,203,44,23,12,301,44,,,,,,,,*7C
$GPGST,014356.00,,219.14,219.00,083.7,014.80,014.80,014.82*4A
$GPRMC,014356.00,A,4003.48380,N,08254.66589,W,000.00,000.0,241213,06.7,W,D*3C
$PTNLRTF,V,A,179052,08,3,4003.48380,N,08254.66589,W,00254,+000.000,+000.000,+000.000,0,1*5F
$PTNLRBA,1,1*57
$GPZDA,014358.00,24,12,2013,,*68
$GPGGA,014358.00,4003.48377,N,08254.66593,W,2,08,0.93,00254,M,-033,M,,*56
$GPGLL,4003.48377,N,08254.66593,W,014358.00,A,D*79
$GPVTG,000.0,T,006.7,M,000.00,N,000.00,K,D*27
$GPGSA,A,3,25,01,29,31,32,14,16,23,,,,,1.55,0.93,1.25*02
$GPGSV,3,1,10,25,22,043,32,01,06,257,46,29,12,077,30,31,67,026,34*75
$GPGSV,3,2,10,32,61,256,34,14,34,104,36,20,35,300,22,16,23,193,41*74
$GPGSV,3,3,10,46,43,203,43,23,12,301,44,,,,,,,,*7B
$GPGST,014358.00,,197.64,197.50,083.9,014.06,014.05,014.08*49
$GPRMC,014358.00,A,4003.48377,N,08254.66593,W,000.00,000.0,241213,06.7,W,D*31
$PTNLRTF,V,A,179054,08,3,4003.48377,N,08254.66593,W,00254,+000.000,+000.000,+000.000,0,1*5A
$PTNLRBA,1,1*57
$GPZDA,014359.00,24,12,2013,,*69
$GPGGA,014359.00,4003.48375,N,08254.66594,W,2,09,0.87,00254,M,-033,M,,*56
$GPGLL,4003.48375,N,08254.66594,W,014359.00,A,D*7D
$GPVTG,000.0,T,006.7,M,000.00,N,000.00,K,D*27
$GPGSA,A,3,25,01,29,31,32,14,20,16,23,,,,1.50,0.87,1.22*07
$GPGSV,3,1,10,25,22,043,31,01,06,257,45,29,12,077,31,31,67,026,34*74
$GPGSV,3,2,10,32,61,256,34,14,34,104,35,20,35,300,22,16,23,193,41*77
$GPGSV,3,3,10,46,43,203,44,23,12,301,44,,,,,,,,*7C
$GPGST,014359.00,,196.93,196.80,084.0,014.03,014.03,014.05*4D
$GPRMC,014359.00,A,4003.48375,N,08254.66594,W,000.00,000.0,241213,06.7,W,D*35
$PTNLRTF,V,A,179055,09,3,4003.48375,N,08254.66594,W,00254,+000.000,+000.000,+000.000,0,1*5F
$PTNLRBA,1,1*57
$GPZDA,014401.00,24,12,2013,,*63
$GPGGA,014401.00,4003.48371,N,08254.66598,W,2,09,0.87,00254,M,-033,M,,*54
$GPGLL,4003.48371,N,08254.66598,W,014401.00,A,D*7F
$GPVTG,000.0,T,006.7,M,000.00,N,000.00,K,D*27
$GPGSA,A,3,25,01,29,31,32,14,20,16,23,,,,1.50,0.87,1.22*07
$GPGSV,3,1,10,25,22,043,31,01,06,257,45,29,12,077,33,31,67,026,35*77
$GPGSV,3,2,10,32,61,256,35,14,34,104,35,20,35,300,19,16,23,193,41*7E
$GPGSV,3,3,10,46,43,203,44,23,12,301,43,,,,,,,,*7B
$GPGST,014401.00,,172.39,172.26,084.2,013.13,013.12,013.15*4E
$GPRMC,014401.00,A,4003.48371,N,08254.66598,W,000.00,000.0,241213,06.7,W,D*37
$PTNLRTF,V,A,179057,09,3,4003.48371,N,08254.66598,W,00254,+000.000,+000.000,+000.000,0,1*55
$PTNLRBA,1,1*57
$GPZDA,014402.00,24,12,2013,,*60
$GPGGA,014402.00,4003.48368,N,08254.66599,W,2,08,0.93,00254,M,-033,M,,*5A
$GPGLL,4003.48368,N,08254.66599,W,014402.00,A,D*75
$GPVTG,000.0,T,006.7,M,000.00,N,000.00,K,D*27
$GPGSA,A,3,25,01,29,31,32,14,16,23,,,,,1.55,0.93,1.25*02
$GPGSV,3,1,10,25,22,043,33,01,06,257,45,29,12,077,33,31,67,026,34*74
$GPGSV,3,2,10,32,61,256,34,14,34,104,36,20,35,300,25,16,23,193,41*73
$GPGSV,3,3,10,46,43,203,43,23,12,301,43,,,,,,,,*7C
$GPGST,014402.00,,161.35,161.22,084.2,012.70,012.70,012.72*44
$GPRMC,014402.00,A,4003.48368,N,08254.66599,W,000.00,000.0,241213,06.7,W,D*3D
$PTNLRTF,V,A,179058,08,3,4003.48368,N,08254.66599,W,00254,+000.000,+000.000,+000.000,0,1*52
$PTNLRBA,1,1*57
$GPZDA,014404.00,24,12,2013,,*66
$GPGGA,014404.00,4003.48361,N,08254.66601,W,2,09,0.87,00253,M,-033,M,,*54
$GPGLL,4003.48361,N,08254.66601,W,014404.00,A,D*78
$GPVTG,000.0,T,006.7,M,000.00,N,000.00,K,D*27
$GPGSA,A,3,25,01,29,31,32,14,20,16,23,,,,1.50,0.87,1.22*07
$GPGSV,3,1,10,25,22,043,33,01,06,257,45,29,12,077,31,31,67,026,35*77
$GPGSV,3,2,10,32,61,256,34,14,34,104,36,20,35,300,26,16,23,193,41*70
$GPGSV,3,3,10,46,43,203,44,23,12,301,43,,,,,,,,*7B
$GPGST,014404.00,,152.10,151.97,084.5,012.33,012.33,012.35*4C
$GPRMC,014404.00,A,4003.48361,N,08254.66601,W,000.00,000.0,241213,06.7,W,D*30
$PTNLRTF,V,A,179060,09,3,4003.48361,N,08254.66601,W,00253,+000.000,+000.000,+000.000,0,1*54
$PTNLRBA,1,1*57
$GPZDA,014405.00,24,12,2013,,*67
$GPGGA,014405.00,4003.48360,N,08254.66602,W,2,09,0.87,00253,M,-033,M,,*57
$GPGLL,4003.48360,N,08254.66602,W,014405.00,A,D*7B
$GPVTG,000.0,T,006.7,M,000.00,N,000.00,K,D*27
$GPGSA,A,3,25,01,29,31,32,14,20,16,23,,,,1.50,0.87,1.23*06
$GPGSV,3,1,10,25,22,043,34,01,06,257,45,29,12,077,31,31,67,026,34*71
$GPGSV,3,2,10,32,61,256,34,14,34,104,37,20,35,300,27,16,23,193,40*71
$GPGSV,3,3,10,46,43,203,43,23,12,301,43,,,,,,,,*7C
$GPGST,014405.00,,150.32,150.19,084.6,012.26,012.26,012.28*47
$GPRMC,014405.00,A,4003.48360,N,08254.66602,W,000.00,000.0,241213,06.7,W,D*33
$PTNLRTF,V,A,179061,09,3,4003.48360,N,08254.66602,W,00253,+000.000,+000.000,+000.000,0,1*57
$PTNLRBA,1,1*57
$GPZDA,014407.00,24,12,2013,,*65
$GPGGA,014407.00,4003.48355,N,08254.66603,W,2,09,0.87,00253,M,-033,M,,*52
$GPGLL,4003.48355,N,08254.66603,W,014407.00,A,D*7E
$GPVTG,000.0,T,006.7,M,000.00,N,000.00,K,D*27
$GPGSA,A,3,25,01,29,31,32,14,20,16,23,,,,1.50,0.87,1.23*06
$GPGSV,3,1,10,25,22,043,33,01,06,257,45,29,12,077,32,31,67,026,34*75
$GPGSV,3,2,10,32,61,256,36,14,34,104,37,20,35,300,26,16,23,193,41*73
$GPGSV,3,3,10,46,43,203,44,23,12,301,43,,,,,,,,*7B
$GPGST,014407.00,,142.61,142.49,084.7,011.94,011.94,011.96*41
$GPRMC,014407.00,A,4003.48355,N,08254.66603,W,000.00,000.0,241213,06.7,W,D*36
$PTNLRTF,V,A,179063,09,3,4003.48355,N,08254.66603,W,00253,+000.000,+000.000,+000.000,0,1*52
$PTNLRBA,1,1*57
$GPZDA,014409.00,24,12,2013,,*6B
$GPGGA,014409.00,4003.48351,N,08254.66604,W,2,09,0.87,00253,M,-033,M,,*5F
$GPGLL,4003.48351,N,08254.66604,W,014409.00,A,D*73
$GPVTG,000.0,T,006.7,M,000.00,N,000.00,K,D*27
$GPGSA,A,3,25,01,29,31,32,14,20,16,23,,,,1.51,0.87,1.23*07
$GPGSV,3,1,10,25,22,043,33,01,06,257,43,29,12,077,33,31,67,026,32*74
$GPGSV,3,2,10,32,61,256,36,14,34,104,36,20,35,300,25,16,23,193,41*71
$GPGSV,3,3,10,46,43,203,44,23,12,301,43,,,,,,,,*7B
$GPGST,014409.00,,148.97,148.84,084.8,012.21,012.20,012.23*44
$GPRMC,014409.00,A,4003.48351,N,08254.66604,W,000.00,000.0,241213,06.7,W,D*3B
$PTNLRTF,V,A,179065,09,3,4003.48351,N,08254.66604,W,00253,+000.000,+000.000,+000.000,0,1*57
$PTNLRBA,1,1*57
$GPZDA,014410.00,24,12,2013,,*63
$GPGGA,014410.00,4003.48348,N,08254.66605,W,2,08,0.90,00253,M,-033,M,,*59
$GPGLL,4003.48348,N,08254.66605,W,014410.00,A,D*72
$GPVTG,000.0,T,006.7,M,000.00,N,000.00,K,D*27
$GPGSA,A,3,25,01,29,31,14,20,16,23,,,,,1.74,0.90,1.49*0B
$GPGSV,3,1,10,25,22,043,34,01,06,257,43,29,12,077,33,31,67,026,32*73
$GPGSV,3,2,10,32,61,256,36,14,34,104,36,20,35,300,25,16,23,193,41*71
$GPGSV,3,3,10,46,43,203,45,23,12,301,42,,,,,,,,*7B
$GPGST,014410.00,,163.67,163.55,084.9,012.79,012.79,012.81*47
$GPRMC,014410.00,A,4003.48348,N,08254.66605,W,000.00,000.0,241213,06.7,W,D*3A
$PTNLRTF,V,A,179066,08,3,4003.48348,N,08254.66605,W,00253,+000.000,+000.000,+000.000,0,1*5C
$PTNLRBA,1,1*57
$GPZDA,014411.00,24,12,2013,,*62
$GPGGA,014411.00,4003.48346,N,08254.66608,W,2,09,0.87,00253,M,-033,M,,*5C
$GPGLL,4003.48346,N,08254.66608,W,014411.00,A,D*70
$GPVTG,000.0,T,006.7,M,000.00,N,000.00,K,D*27
$GPGSA,A,3,25,01,29,31,32,14,20,16,23,,,,1.51,0.87,1.23*07
$GPGSV,3,1,10,25,22,043,33,01,06,257,43,29,12,077,32,31,67,026,31*76
$GPGSV,3,2,10,32,61,256,37,14,34,104,38,20,35,300,25,16,23,193,42*7D
$GPGSV,3,3,10,46,43,203,44,23,12,301,43,,,,,,,,*7B
$GPGST,014411.00,,180.38,180.26,085.1,013.43,013.43,013.45*48
$GPRMC,014411.00,A,4003.48346,N,08254.66608,W,000.00,000.0,241213,06.7,W,D*38
$PTNLRTF,V,A,179067,09,3,4003.48346,N,08254.66608,W,00253,+000.000,+000.000,+000.000,0,1*5F
$PTNLRBA,1,1*57
$GPZDA,014413.00,24,12,2013,,*60
$GPGGA,014413.00,4003.48345,N,08254.66612,W,2,09,0.87,00252,M,-033,M,,*57
$GPGLL,4003.48345,N,08254.66612,W,014413.00,A,D*7A
$GPVTG,000.0,T,006.7,M,000.00,N,000.00,K,D*27
$GPGSA,A,3,25,01,29,31,32,14,20,16,23,,,,1.51,0.87,1.23*07
$GPGSV,3,1,10,25,22,043,34,01,06,257,42,29,12,077,32,31,67,026,31*70
$GPGSV,3,2,10,32,61,256,36,14,34,104,39,20,35,300,24,16,23,193,42*7C
$GPGSV,3,3,10,46,43,203,44,23,12,301,43,,,,,,,,*7B
$GPGST,014413.00,,183.14,183.02,085.2,013.53,013.53,013.55*40
$GPRMC,014413.00,A,4003.48345,N,08254.66612,W,000.00,000.0,241213,06.7,W,D*32
$PTNLRTF,V,A,179069,09,3,4003.48345,N,08254.66612,W,00252,+000.000,+000.000,+000.000,0,1*58
$PTNLRBA,1,1*57
$GPZDA,014414.00,24,12,2013,,*67
$GPGGA,014414.00,4003.48345,N,08254.66616,W,2,09,0.87,00252,M,-033,M,,*54
$GPGLL,4003.48345,N,08254.66616,W,014414.00,A,D*79
$GPVTG,000.0,T,006.7,M,000.00,N,000.00,K,D*27
$GPGSA,A,3,25,01,29,31,32,14,20,16,23,,,,1.51,0.87,1.23*07
$GPGSV,3,1,10,25,22,043,34,01,06,257,42,29,12,077,33,31,67,026,31*71
$GPGSV,3,2,10,32,61,256,36,14,34,104,39,20,35,300,27,16,23,193,43*7E
$GPGSV,3,3,10,46,43,203,44,23,12,301,43,,,,,,,,*7B
$GPGST,014414.00,,174.35,174.23,085.2,013.20,013.20,013.22*47
$GPRMC,014414.00,A,4003.48345,N,08254.66616,W,000.00,000.0,241213,06.7,W,D*31
$PTNLRTF,V,A,179070,09,3,4003.48345,N,08254.66616,W,00252,+000.000,+000.000,+000.000,0,1*54
$PTNLRBA,1,1*57
$GPZDA,014416.00,24,12,2013,,*65
$GPGGA,014416.00,4003.48342,N,08254.66623,W,2,09,0.87,00252,M,-033,M,,*57
$GPGLL,4003.48342,N,08254.66623,W,014416.00,A,D*7A
$GPVTG,000.0,T,006.7,M,000.00,N,000.00,K,D*27
$GPGSA,A,3,25,01,29,31,32,14,20,16,23,,,,1.51,0.87,1.23*07
$GPGSV,3,1,10,25,22,043,36,01,06,257,43,29,12,077,35,31,67,026,32*77
$GPGSV,3,2,10,32,61,256,36,14,34,104,39,20,35,300,25,16,23,193,43*7C
$GPGSV,3,3,10,46,43,203,44,23,12,301,42,,,,,,,,*7A
$GPGST,014416.00,,164.48,164.36,085.3,012.82,012.82,012.84*47
$GPRMC,014416.00,A,4003.48342,N,08254.66623,W,000.00,000.0,241213,06.7,W,D*32
$PTNLRTF,V,A,179072,09,3,4003.48342,N,08254.66623,W,00252,+000.000,+000.000,+000.000,0,1*57
$PTNLRBA,1,1*57
$GPZDA,014418.00,24,12,2013,,*6B
$GPGGA,014418.00,4003.48339,N,08254.66627,W,2,09,0.87,00252,M,-033,M,,*51
$GPGLL,4003.48339,N,08254.66627,W,014418.00,A,D*7C
$GPVTG,000.0,T,006.7,M,000.00,N,000.00,K,D*27
$GPGSA,A,3,25,01,29,31,32,14,20,16,23,,,,1.51,0.87,1.23*07
$GPGSV,3,1,10,25,22,043,34,01,06,257,42,29,12,077,31,31,67,026,32*70
$GPGSV,3,2,10,32,61,256,36,14,34,104,40,20,35,300,27,16,23,193,46*75
$GPGSV,3,3,10,46,43,203,43,23,12,301,44,,,,,,,,*7B
$GPGST,014418.00,,167.10,166.99,085.4,012.93,012.92,012.94*47
$GPRMC,014418.00,A,4003.48339,N,08254.66627,W,000.00,000.0,241213,06.7,W,D*34
$PTNLRTF,V,A,179074,09,3,4003.48339,N,08254.66627,W,00252,+000.000,+000.000,+000.000,0,1*59
$PTNLRBA,1,1*57
$GPZDA,014419.00,24,12,2013,,*6A
$GPGGA,014419.00,4003.48338,N,08254.66629,W,2,09,0.87,00252,M,-033,M,,*5F
$GPGLL,4003.48338,N,08254.66629,W,014419.00,A,D*72
$GPVTG,000.0,T,006.7,M,000.00,N,000.00,K,D*27
$GPGSA,A,3,25,01,29,31,32,14,20,16,23,,,,1.51,0.87,1.23*07
$GPGSV,3,1,10,25,22,043,35,01,06,257,41,29,12,077,32,31,67,026,30*73
$GPGSV,3,2,10,32,61,256,38,14,34,104,40,20,35,300,26,16,23,193,46*7A
$GPGSV,3,3,10,46,43,203,43,23,12,301,46,,,,,,,,*79
$GPGST,014419.00,,169.55,169.44,085.4,013.02,013.02,013.04*4F
$GPRMC,014419.00,A,4003.48338,N,08254.66629,W,000.00,000.0,241213,06.7,W,D*3A
$PTNLRTF,V,A,179075,09,3,4003.48338,N,08254.66629,W,00252,+000.000,+000.000,+000.000,0,1*57
$PTNLRBA,1,1*57
$GPZDA,014421.00,24,12,2013,,*61
$GPGGA,014421.00,4003.48338,N,08254.66630,W,2,08,0.93,00252,M,-033,M,,*58
$GPGLL,4003.48338,N,08254.66630,W,014421.00,A,D*71
$GPVTG,000.0,T,006.7,M,000.00,N,000.00,K,D*27
$GPGSA,A,3,25,01,29,31,32,14,16,23,,,,,1.55,0.93,1.25*02
$GPGSV,3,1,10,25,22,043,36,01,06,257,44,29,12,077,32,31,67,026,31*74
$GPGSV,3,2,10,32,61,256,38,14,34,104,40,20,35,300,26,16,23,193,46*7A
$GPGSV,3,3,10,46,43,203,43,23,12,301,44,,,,,,,,*7B
$GPGST,014421.00,,173.25,173.14,085.5,013.16,013.16,013.18*4A
$GPRMC,014421.00,A,4003.48338,N,08254.66630,W,000.00,000.0,241213,06.7,W,D*39
$PTNLRTF,V,A,179077,08,3,4003.48338,N,08254.66630,W,00252,+000.000,+000.000,+000.000,0,1*5C
$PTNLRBA,1,1*57
$GPZDA,014422.00,24,12,2013,,*62
$GPGGA,014422.00,4003.48340,N,08254.66630,W,2,08,0.93,00251,M,-033,M,,*57
$GPGLL,4003.48340,N,08254.66630,W,014422.00,A,D*7D
$GPVTG,000.0,T,006.7,M,000.00,N,000.00,K,D*27
$GPGSA,A,3,25,01,29,31,32,14,16,23,,,,,1.55,0.93,1.25*02
$GPGSV,3,1,10,25,22,043,37,01,06,257,44,29,12,077,32,31,67,026,30*74
$GPGSV,3,2,10,32,61,256,38,14,34,104,41,20,35,300,22,16,23,193,47*7E
$GPGSV,3,3,10,46,43,203,43,23,12,301,45,,,,,,,,*7A
$GPGST,014422.00,,182.88,182.78,085.4,013.52,013.52,013.54*4D
$GPRMC,014422.00,A,4003.48340,N,08254.66630,W,000.00,000.0,241213,06.7,W,D*35
$PTNLRTF,V,A,179078,08,3,4003.48340,N,08254.66630,W,00251,+000.000,+000.000,+000.000,0,1*5F
$PTNLRBA,1,1*57
$GPZDA,014424.00,24,12,2013,,*64
$GPGGA,014424.00,4003.48345,N,08254.66628,W,2,09,0.87,00251,M,-033,M,,*59
$GPGLL,4003.48345,N,08254.66628,W,014424.00,A,D*77
$GPVTG,000.0,T,006.7,M,000.00,N,000.00,K,D*27
$GPGSA,A,3,25,01,29,31,32,14,20,16,23,,,,1.51,0.87,1.23*07
$GPGSV,3,1,10,25,22,043,35,01,06,257,42,29,12,077,31,31,67,026,29*7B
$GPGSV,3,2,10,32,61,256,37,14,34,104,39,20,35,300,22,16,23,193,46*7F
$GPGSV,3,3,10,46,43,203,43,23,12,301,43,,,,,,,,*7C
$GPGST,014424.00,,202.90,202.79,085.4,014.24,014.24,014.26*41
$GPRMC,014424.00,A,4003.48345,N,08254.66628,W,000.00,000.0,241213,06.7,W,D*3F
$PTNLRTF,V,A,179080,09,3,4003.48345,N,08254.66628,W,00251,+000.000,+000.000,+000.000,0,1*55
$PTNLRBA,1,1*57
$GPZDA,014425.00,24,12,2013,,*65
$GPGGA,014425.00,4003.48349,N,08254.66627,W,2,09,0.87,00251,M,-033,M,,*5B
$GPGLL,4003.48349,N,08254.66627,W,014425.00,A,D*75
$GPVTG,000.0,T,006.7,M,000.00,N,000.00,K,D*27
$GPGSA,A,3,25,01,29,31,32,14,20,16,23,,,,1.51,0.87,1.23*07
$GPGSV,3,1,10,25,22,043,36,01,06,257,44,29,12,077,31,31,67,026,29*7E
$GPGSV,3,2,10,32,61,256,37,14,34,104,40,20,35,300,20,16,23,193,46*73
$GPGSV,3,3,10,46,43,203,43,23,12,301,45,,,,,,,,*7A
$GPGST,014425.00,,205.06,204.95,085.4,014.32,014.32,014.34*4F
$GPRMC,014425.00,A,4003.48349,N,08254.66627,W,000.00,000.0,241213,06.7,W,D*3D
$PTNLRTF,V,A,179081,09,3,4003.48349,N,08254.66627,W,00251,+000.000,+000.000,+000.000,0,1*57
$PTNLRBA,1,1*57
$GPZDA,014427.00,24,12,2013,,*67
$GPGGA,014427.00,4003.48352,N,08254.66626,W,2,07,1.03,00251,M,-033,M,,*51
$GPGLL,4003.48352,N,08254.66626,W,014427.00,A,D*7C
$GPVTG,000.0,T,006.7,M,000.00,N,000.00,K,D*27
$GPGSA,A,3,01,29,31,32,14,16,23,,,,,,1.63,1.03,1.26*0B
$GPGSV,3,1,10,25,22,043,37,01,06,257,45,29,12,077,34,31,67,026,32*71
$GPGSV,3,2,10,32,61,256,36,14,34,104,40,20,35,300,19,16,23,193,43*7D
$GPGSV,3,3,10,46,43,203,45,23,12,301,44,,,,,,,,*7D
$GPGST,014427.00,,207.32,207.22,085.6,014.40,014.40,014.41*47
$GPRMC,014427.00,A,4003.48352,N,08254.66626,W,000.00,000.0,241213,06.7,W,D*34
$PTNLRTF,V,A,179083,07,3,4003.48352,N,08254.66626,W,00251,+000.000,+000.000,+000.000,0,1*50
$PTNLRBA,1,1*57
$GPZDA,014428.00,24,12,2013,,*68
$GPGGA,014428.00,4003.48355,N,08254.66626,W,2,09,0.87,00251,M,-033,M,,*5A
$GPGLL,4003.48355,N,08254.66626,W,014428.00,A,D*74
$GPVTG,000.0,T,006.7,M,000.00,N,000.00,K,D*27
$GPGSA,A,3,25,01,29,31,32,14,20,16,23,,,,1.51,0.87,1.23*07
$GPGSV,3,1,10,25,22,043,36,01,06,257,45,29,12,077,35,31,67,026,32*71
$GPGSV,3,2,10,32,61,256,37,14,34,104,41,20,35,300,20,16,23,193,44*70
$GPGSV,3,3,10,46,43,203,44,23,12,301,43,,,,,,,,*7B
$GPGST,014428.00,,262.61,262.50,085.5,016.21,016.20,016.22*4E
$GPRMC,014428.00,A,4003.48355,N,08254.66626,W,000.00,000.0,241213,06.7,W,D*3C
$PTNLRTF,V,A,179085,08,3,4003.48355,N,08254.66626,W,00251,+000.000,+000.000,+000.000,0,1*5E
$PTNLRBA,1,1*57
$GPZDA,014430.00,24,12,2013,,*61
$GPGGA,014430.00,4003.48357,N,08254.66623,W,2,09,0.87,00251,M,-033,M,,*54
$GPGLL,4003.48357,N,08254.66623,W,014430.00,A,D*7A
$GPVTG,000.0,T,006.7,M,000.00,N,000.00,K,D*27
$GPGSA,A,3,25,01,29,31,32,14,20,16,23,,,,1.51,0.87,1.23*07
$GPGSV,3,1,10,25,22,043,35,01,06,257,43,29,12,077,34,31,67,026,33*74
$GPGSV,3,2,10,32,61,256,36,14,34,104,40,20,35,300,24,16,23,193,43*73
$GPGSV,3,3,10,46,43,203,43,23,12,301,43,,,,,,,,*7C
$GPGST,014430.00,,662.89,662.78,085.5,025.75,025.74,025.76*4A
$GPRMC,014430.00,A,4003.48357,N,08254.66623,W,000.00,000.0,241213,06.7,W,D*32
$PTNLRTF,V,A,179086,09,3,4003.48357,N,08254.66623,W,00251,+000.000,+000.000,+000.000,0,1*5B
$PTNLRBA,1,1*57
$GPZDA,014432.00,24,12,2013,,*63
$GPGGA,014432.00,4003.48358,N,08254.66620,W,2,09,0.87,00251,M,-033,M,,*5A
$GPGLL,4003.48358,N,08254.66620,W,014432.00,A,D*74
$GPVTG,000.0,T,006.7,M,000.00,N,000.00,K,D*27
$GPGSA,A,3,25,01,29,31,32,14,20,16,23,,,,1.51,0.87,1.23*07
$GPGSV,3,1,10,25,22,043,35,01,06,257,41,29,12,076,30,31,67,026,33*73
$GPGSV,3,2,10,32,61,255,36,14,33,105,39,20,35,299,18,16,23,193,43*76
$GPGSV,3,3,10,46,43,203,43,23,12,302,43,,,,,,,,*7F
$GPGST,014432.00,,798.27,798.17,085.4,028.25,028.25,028.26*4D
$GPRMC,014432.00,A,4003.48358,N,08254.66620,W,000.00,000.0,241213,06.7,W,D*3C
$PTNLRTF,V,A,179088,09,3,4003.48358,N,08254.66620,W,00251,+000.000,+000.000,+000.000,0,1*59
$PTNLRBA,1,1*57
$GPZDA,014433.00,24,12,2013,,*62
$GPGGA,014433.00,4003.48358,N,08254.66617,W,2,08,0.93,00251,M,-033,M,,*5B
$GPGLL,4003.48358,N,08254.66617,W,014433.00,A,D*71
$GPVTG,000.0,T,006.7,M,000.00,N,000.00,K,D*27
$GPGSA,A,3,25,01,29,31,32,14,16,23,,,,,1.55,0.93,1.25*02
$GPGSV,3,1,10,25,22,043,35,01,06,257,43,29,12,076,32,31,67,026,34*74
$GPGSV,3,2,10,32,61,255,37,14,33,105,39,20,35,299,22,16,23,193,44*79
$GPGSV,3,3,10,46,43,203,44,23,12,302,44,,,,,,,,*7F
$GPGST,014433.00,,728.82,728.72,085.3,027.00,026.99,027.00*4D
$GPRMC,014433.00,A,4003.48358,N,08254.66617,W,000.00,000.0,241213,06.7,W,D*39
$PTNLRTF,V,A,179089,08,3,4003.48358,N,08254.66617,W,00251,+000.000,+000.000,+000.000,0,1*5D
$PTNLRBA,1,1*57
$GPZDA,014435.00,24,12,2013,,*64
$GPGGA,014435.00,4003.48358,N,08254.66615,W,2,09,0.87,00250,M,-033,M,,*5A
$GPGLL,4003.48358,N,08254.66615,W,014435.00,A,D*75
$GPVTG,000.0,T,006.7,M,000.00,N,000.00,K,D*27
$GPGSA,A,3,25,01,29,31,32,14,20,16,23,,,,1.51,0.87,1.23*07
$GPGSV,3,1,10,25,22,043,35,01,06,257,44,29,12,076,31,31,67,026,34*70
$GPGSV,3,2,10,32,61,255,36,14,33,105,39,20,35,299,18,16,23,193,43*76
$GPGSV,3,3,10,46,43,203,43,23,12,302,43,,,,,,,,*7F
$GPGST,014435.00,,940.93,940.83,085.3,030.67,030.67,030.68*4C
$GPRMC,014435.00,A,4003.48358,N,08254.66615,W,000.00,000.0,241213,06.7,W,D*3D
$PTNLRTF,V,A,179091,09,3,4003.48358,N,08254.66615,W,00250,+000.000,+000.000,+000.000,0,1*56
$PTNLRBA,1,1*57
$GPZDA,014436.00,24,12,2013,,*67
$GPGGA,014436.00,4003.48357,N,08254.66615,W,2,08,0.93,00250,M,-033,M,,*52
$GPGLL,4003.48357,N,08254.66615,W,014436.00,A,D*79
$GPVTG,000.0,T,006.7,M,000.00,N,000.00,K,D*27
$GPGSA,A,3,25,01,29,31,32,14,16,23,,,,,1.55,0.93,1.25*02
$GPGSV,3,1,10,25,22,043,35,01,06,257,44,29,12,076,31,31,67,026,35*71
$GPGSV,3,2,10,32,61,255,36,14,33,105,39,20,35,299,11,16,23,193,44*78
$GPGSV,3,3,10,46,43,203,44,23,12,302,43,,,,,,,,*78
$GPGST,014436.00,,859.92,859.82,085.3,029.32,029.32,029.33*49
$GPRMC,014436.00,A,4003.48357,N,08254.66615,W,000.00,000.0,241213,06.7,W,D*31
$PTNLRTF,V,A,179092,08,3,4003.48357,N,08254.66615,W,00250,+000.000,+000.000,+000.000,0,1*5B
$PTNLRBA,1,1*57
$GPZDA,014437.00,24,12,2013,,*66
$GPGGA,014437.00,4003.48358,N,08254.66613,W,2,08,0.93,00250,M,-033,M,,*5A
$GPGLL,4003.48358,N,08254.66613,W,014437.00,A,D*71
$GPVTG,000.0,T,006.7,M,000.00,N,000.00,K,D*27
$GPGSA,A,3,25,01,29,31,32,14,16,23,,,,,1.55,0.93,1.25*02
$GPGSV,3,1,10,25,22,043,36,01,06,257,44,29,12,076,33,31,67,026,36*73
$GPGSV,3,2,10,32,61,255,37,14,33,105,40,20,35,299,23,16,23,193,44*76
$GPGSV,3,3,10,46,43,203,44,23,12,302,45,,,,,,,,*7E
$GPGST,014437.00,,786.47,786.38,085.3,028.04,028.04,028.05*45
$GPRMC,014437.00,A,4003.48358,N,08254.66613,W,000.00,000.0,241213,06.7,W,D*39
$PTNLRTF,V,A,179094,09,3,4003.48358,N,08254.66613,W,00250,+000.000,+000.000,+000.000,0,1*55
$PTNLRBA,1,1*57
