$GPZDA,014601.00,24,12,2013,,*61
$GPGGA,014601.00,4003.48348,N,08254.66605,W,2,09,0.87,00247,M,-033,M,,*59
$GPGLL,4003.48348,N,08254.66605,W,014601.00,A,D*70
$GPVTG,000.0,T,006.7,M,000.00,N,000.00,K,D*27
$GPGSA,A,3,25,01,29,31,32,14,20,16,23,,,,1.51,0.87,1.23*07
$GPGSV,3,1,10,25,22,043,36,01,06,256,44,29,12,076,33,31,66,027,37*73
$GPGSV,3,2,10,32,61,254,32,14,33,105,41,20,36,299,34,16,24,193,46*73
$GPGSV,3,3,10,46,43,203,45,23,12,302,47,,,,,,,,*7D
$GPGST,014601.00,,177.02,176.95,088.7,013.30,013.30,013.32*40
$GPRMC,014601.00,A,4003.48348,N,08254.66605,W,000.00,000.0,241213,06.7,W,D*38$GPZDA,014604.00,24,12,2013,,*64
$GPGGA,014604.00,4003.48349,N,08254.66602,W,2,09,0.87,00247,M,-033,M,,*5A
$GPGLL,4003.48349,N,08254.66602,W,014604.00,A,D*73
$GPVTG,000.0,T,006.7,M,000.00,N,000.00,K,D*27
$GPGSA,A,3,25,01,29,31,32,14,20,16,23,,,,1.51,0.87,1.23*07
$GPGSV,3,1,10,25,22,043,35,01,06,256,44,29,12,076,32,31,66,027,37*71
$GPGSV,3,2,10,32,61,254,33,14,33,105,42,20,36,299,34,16,24,193,46*71
$GPGSV,3,3,10,46,43,203,45,23,12,302,48,,,,,,,,*72
$GPGST,014604.00,,163.04,162.98,088.6,012.77,012.77,012.78*40
$GPRMC,014604.00,A,4003.48349,N,08254.66602,W,000.00,000.0,241213,06.7,W,D*3B
$PTNLRTF,V,A,179180,09,3,4003.48349,N,08254.66602,W,00247,+000.000,+000.000,+000.000,0,1*57
$PTNLRBA,1,1*57
$GPZDA,014605.00,24,12,2013,,*65
$GPGGA,014605.00,4003.48348,N,08254.66602,W,2,09,0.87,00247,M,-033,M,,*5A
$GPGLL,4003.48348,N,08254.66602,W,014605.00,A,D*73
$GPVTG,000.0,T,006.7,M,000.00,N,000.00,K,D*27
$GPGSA,A,3,25,01,29,31,32,14,20,16,23,,,,1.51,0.87,1.23*07
$GPGSV,3,1,10,25,22,043,36,01,06,256,43,29,12,076,32,31,66,027,37*75
$GPGSV,3,2,10,32,61,254,33,14,33,105,42,20,36,299,34,16,24,193,45*72
$GPGSV,3,3,10,46,43,203,44,23,12,302,48,,,,,,,,*73
$GPGST,014605.00,,154.81,154.75,088.6,012.44,012.44,012.46*43
$GPRMC,014605.00,A,4003.48348,N,08254.66602,W,000.00,000.0,241213,06.7,W,D*3B
$PTNLRTF,V,A,179181,09,3,4003.48348,N,08254.66602,W,00247,+000.000,+000.000,+000.000,0,1*57
$PTNLRBA,1,1*57
$GPZDA,014607.00,24,12,2013,,*67
$GPGGA,014607.00,4003.48348,N,08254.66601,W,2,09,0.87,00247,M,-033,M,,*5B
$GPGLL,4003.48348,N,08254.66601,W,014607.00,A,D*72
$GPVTG,000.0,T,006.7,M,000.00,N,000.00,K,D*27
$GPGSA,A,3,25,01,29,31,32,14,20,16,23,,,,1.51,0.87,1.23*07
$GPGSV,3,1,10,25,22,043,35,01,06,256,44,29,12,076,31,31,66,027,37*72
$GPGSV,3,2,10,32,61,254,35,14,33,105,42,20,36,299,34,16,24,193,46*77
$GPGSV,3,3,10,46,43,203,44,23,12,302,47,,,,,,,,*7C
$GPGST,014607.00,,142.37,142.31,088.6,011.93,011.93,011.95*41
$GPRMC,014607.00,A,4003.48348,N,08254.66601,W,000.00,000.0,241213,06.7,W,D*3A
$PTNLRTF,V,A,179183,09,3,4003.48348,N,08254.66601,W,00247,+000.000,+000.000,+000.000,0,1*56
$PTNLRBA,1,1*57
$GPZDA,014608.00,24,12,2013,,*68
$GPGGA,014608.00,4003.48348,N,08254.66601,W,2,09,0.87,00247,M,-033,M,,*54
$GPGLL,4003.48348,N,08254.66601,W,014608.00,A,D*7D
$GPVTG,000.0,T,006.7,M,000.00,N,000.00,K,D*27
$GPGSA,A,3,25,01,29,31,32,14,20,16,23,,,,1.51,0.87,1.23*07
$GPGSV,3,1,10,25,22,043,36,01,06,256,44,29,12,076,32,31,66,027,38*7D
$GPGSV,3,2,10,32,61,254,34,14,33,105,42,20,36,299,35,16,24,193,46*77
$GPGSV,3,3,10,46,43,203,45,23,12,302,47,,,,,,,,*7D
$GPGST,014608.00,,135.39,135.33,088.6,011.64,011.63,011.65*4A
$GPRMC,014608.00,A,4003.48348,N,08254.66601,W,000.00,000.0,241213,06.7,W,D*35
$PTNLRTF,V,A,179184,09,3,4003.48348,N,08254.66601,W,00247,+000.000,+000.000,+000.000,0,1*51
$PTNLRBA,1,1*57
$GPZDA,014610.00,24,12,2013,,*61
$GPGGA,014610.00,4003.48346,N,08254.66599,W,2,09,0.87,00247,M,-033,M,,*51
$GPGLL,4003.48346,N,08254.66599,W,014610.00,A,D*78
$GPVTG,000.0,T,006.7,M,000.00,N,000.00,K,D*27
$GPGSA,A,3,25,01,29,31,32,14,20,16,23,,,,1.51,0.87,1.23*07
$GPGSV,3,1,10,25,22,043,36,01,06,256,45,29,12,076,31,31,66,027,40*70
$GPGSV,3,2,10,32,61,254,33,14,33,105,42,20,36,299,36,16,24,193,46*73
$GPGSV,3,3,10,46,43,203,44,23,12,302,48,,,,,,,,*73
$GPGST,014610.00,,126.20,126.14,088.5,011.23,011.23,011.25*4E
$GPRMC,014610.00,A,4003.48346,N,08254.66599,W,000.00,000.0,241213,06.7,W,D*30
$PTNLRTF,V,A,179186,09,3,4003.48346,N,08254.66599,W,00247,+000.000,+000.000,+000.000,0,1*5F
$PTNLRBA,1,1*57
$GPZDA,014611.00,24,12,2013,,*60
$GPGGA,014611.00,4003.48346,N,08254.66598,W,2,09,0.87,00247,M,-033,M,,*51
$GPGLL,4003.48346,N,08254.66598,W,014611.00,A,D*78
$GPVTG,000.0,T,006.7,M,000.00,N,000.00,K,D*27
$GPGSA,A,3,25,01,29,31,32,14,20,16,23,,,,1.51,0.87,1.23*07
$GPGSV,3,1,10,25,22,043,36,01,06,256,43,29,12,076,32,31,66,027,39*7B
$GPGSV,3,2,10,32,61,254,34,14,33,105,41,20,36,299,36,16,24,193,45*74
$GPGSV,3,3,10,46,43,203,45,23,12,302,49,,,,,,,,*73
$GPGST,014611.00,,120.97,120.91,088.5,011.00,011.00,011.01*48
$GPRMC,014611.00,A,4003.48346,N,08254.66598,W,000.00,000.0,241213,06.7,W,D*30
$PTNLRTF,V,A,179188,09,3,4003.48346,N,08254.66598,W,00247,+000.000,+000.000,+000.000,0,1*50
$PTNLRBA,1,1*57
$GPZDA,014613.00,24,12,2013,,*62
$GPGGA,014613.00,4003.48346,N,08254.66599,W,2,09,0.87,00247,M,-033,M,,*52
$GPGLL,4003.48346,N,08254.66599,W,014613.00,A,D*7B
$GPVTG,000.0,T,006.7,M,000.00,N,000.00,K,D*27
$GPGSA,A,3,25,01,29,31,32,14,20,16,23,,,,1.51,0.87,1.23*07
$GPGSV,3,1,10,25,22,043,36,01,06,256,44,29,12,076,33,31,66,027,39*7D
$GPGSV,3,2,10,32,61,254,34,14,33,105,42,20,36,299,35,16,24,193,44*75
$GPGSV,3,3,10,46,43,203,44,23,12,302,48,,,,,,,,*73
$GPGST,014613.00,,115.82,115.77,088.5,010.76,010.76,010.78*49
$GPRMC,014613.00,A,4003.48346,N,08254.66599,W,000.00,000.0,241213,06.7,W,D*33
$PTNLRTF,V,A,179189,09,3,4003.48346,N,08254.66599,W,00247,+000.000,+000.000,+000.000,0,1*50
$PTNLRBA,1,1*57
$GPZDA,014614.00,24,12,2013,,*65
$GPGGA,014614.00,4003.48346,N,08254.66599,W,2,09,0.87,00247,M,-033,M,,*55
$GPGLL,4003.48346,N,08254.66599,W,014614.00,A,D*7C
$GPVTG,000.0,T,006.7,M,000.00,N,000.00,K,D*27
$GPGSA,A,3,25,01,29,31,32,14,20,16,23,,,,1.51,0.87,1.23*07
$GPGSV,3,1,10,25,22,043,37,01,06,256,44,29,12,076,30,31,66,027,39*7F
$GPGSV,3,2,10,32,61,254,34,14,33,105,42,20,36,299,34,16,24,193,45*75
$GPGSV,3,3,10,46,43,203,44,23,12,302,48,,,,,,,,*73
$GPGST,014614.00,,116.89,116.83,088.5,010.81,010.81,010.83*4A
$GPRMC,014614.00,A,4003.48346,N,08254.66599,W,000.00,000.0,241213,06.7,W,D*34
$PTNLRTF,V,A,179190,09,3,4003.48346,N,08254.66599,W,00247,+000.000,+000.000,+000.000,0,1*58
$PTNLRBA,1,1*57
$GPZDA,014616.00,24,12,2013,,*67
$GPGGA,014616.00,4003.48345,N,08254.66606,W,2,09,0.87,00247,M,-033,M,,*51
$GPGLL,4003.48345,N,08254.66606,W,014616.00,A,D*78
$GPVTG,256.4,T,263.1,M,000.17,N,000.31,K,D*21
$GPGSA,A,3,25,01,29,31,32,14,20,16,23,,,,1.51,0.87,1.23*07
$GPGSV,3,1,10,25,22,043,37,01,06,256,44,29,12,076,27,31,66,027,38*78
$GPGSV,3,2,10,32,61,254,35,14,33,105,42,20,36,299,35,16,24,193,44*74
$GPGSV,3,3,10,46,43,203,44,23,12,302,49,,,,,,,,*72
$GPGST,014616.00,,114.11,114.06,088.7,010.68,010.68,010.70*4A
$GPRMC,014616.00,A,4003.48345,N,08254.66606,W,000.17,256.4,241213,06.7,W,D*33
$PTNLRTF,V,A,179192,09,3,4003.48345,N,08254.66606,W,00247,-000.083,-000.020,+000.312,0,1*55
$PTNLRBA,1,1*57
$GPZDA,014617.00,24,12,2013,,*66
$GPGGA,014617.00,4003.48342,N,08254.66608,W,2,09,0.87,00247,M,-033,M,,*59
$GPGLL,4003.48342,N,08254.66608,W,014617.00,A,D*70
$GPVTG,226.7,T,233.4,M,000.11,N,000.21,K,D*22
$GPGSA,A,3,25,01,29,31,32,14,20,16,23,,,,1.51,0.87,1.23*07
$GPGSV,3,1,10,25,22,043,37,01,05,256,44,29,12,076,29,31,66,027,39*74
$GPGSV,3,2,10,32,61,254,34,14,33,105,42,20,36,299,35,16,24,193,44*75
$GPGSV,3,3,10,46,43,203,44,23,13,302,49,,,,,,,,*73
$GPGST,014617.00,,108.40,108.35,089.8,010.41,010.41,010.43*41
$GPRMC,014617.00,A,4003.48342,N,08254.66608,W,000.11,226.7,241213,06.7,W,D*39
$PTNLRTF,V,A,179193,09,3,4003.48342,N,08254.66608,W,00247,-000.043,-000.040,-000.064,0,1*53
$PTNLRBA,1,1*57
$GPZDA,014619.00,24,12,2013,,*68
$GPGGA,014619.00,4003.48344,N,08254.66606,W,2,09,0.87,00247,M,-033,M,,*5F
$GPGLL,4003.48344,N,08254.66606,W,014619.00,A,D*76
$GPVTG,000.0,T,006.7,M,000.00,N,000.00,K,D*27
$GPGSA,A,3,25,01,29,31,32,14,20,16,23,,,,1.51,0.87,1.23*07
$GPGSV,3,1,10,25,22,043,36,01,05,256,43,29,12,076,27,31,66,027,38*7D
$GPGSV,3,2,10,32,61,254,34,14,33,105,42,20,36,299,36,16,24,193,44*76
$GPGSV,3,3,10,46,43,203,44,23,13,302,48,,,,,,,,*72
$GPGST,014619.00,,099.38,099.33,089.1,009.97,009.97,009.99*40
$GPRMC,014619.00,A,4003.48344,N,08254.66606,W,000.00,000.0,241213,06.7,W,D*3E
$PTNLRTF,V,A,179195,09,3,4003.48344,N,08254.66606,W,00247,+000.000,+000.000,+000.000,0,1*5A
$PTNLRBA,1,1*57
$GPZDA,014620.00,24,12,2013,,*62
$GPGGA,014620.00,4003.48344,N,08254.66606,W,2,09,0.87,00247,M,-033,M,,*55
$GPGLL,4003.48344,N,08254.66606,W,014620.00,A,D*7C
$GPVTG,000.0,T,006.7,M,000.00,N,000.00,K,D*27
$GPGSA,A,3,25,01,29,31,32,14,20,16,23,,,,1.51,0.87,1.23*07
$GPGSV,3,1,10,25,22,043,36,01,05,256,44,29,12,076,25,31,66,027,38*78
$GPGSV,3,2,10,32,61,254,34,14,33,105,42,20,36,299,36,16,24,193,45*77
$GPGSV,3,3,10,46,43,203,44,23,13,302,48,,,,,,,,*72
$GPGST,014620.00,,093.68,093.62,089.1,009.68,009.68,009.70*4C
$GPRMC,014620.00,A,4003.48344,N,08254.66606,W,000.00,000.0,241213,06.7,W,D*34
$PTNLRTF,V,A,179196,09,3,4003.48344,N,08254.66606,W,00247,+000.000,+000.000,+000.000,0,1*59
$PTNLRBA,1,1*57
$GPZDA,014622.00,24,12,2013,,*60
$GPGGA,014622.00,4003.48343,N,08254.66605,W,2,08,0.94,00247,M,-033,M,,*50
$GPGLL,4003.48343,N,08254.66605,W,014622.00,A,D*7A
$GPVTG,000.0,T,006.7,M,000.00,N,000.00,K,D*27
$GPGSA,A,3,25,01,31,32,14,20,16,23,,,,,1.67,0.94,1.38*01
$GPGSV,3,1,10,25,22,043,37,01,05,256,43,29,12,076,25,31,66,027,37*71
$GPGSV,3,2,10,32,61,254,33,14,33,105,41,20,36,299,38,16,24,193,44*7C
$GPGSV,3,3,10,46,43,203,45,23,13,302,48,,,,,,,,*73
$GPGST,014622.00,,087.45,087.40,089.1,009.35,009.35,009.37*42
$GPRMC,014622.00,A,4003.48343,N,08254.66605,W,000.00,000.0,241213,06.7,W,D*32
$PTNLRTF,V,A,179198,08,3,4003.48343,N,08254.66605,W,00247,+000.000,+000.000,+000.000,0,1*52
$PTNLRBA,1,1*57
$GPZDA,014623.00,24,12,2013,,*61
$GPGGA,014623.00,4003.48342,N,08254.66605,W,2,09,0.87,00247,M,-033,M,,*53
$GPGLL,4003.48342,N,08254.66605,W,014623.00,A,D*7A
$GPVTG,000.0,T,006.7,M,000.00,N,000.00,K,D*27
$GPGSA,A,3,25,01,29,31,32,14,20,16,23,,,,1.51,0.87,1.23*07
$GPGSV,3,1,10,25,22,043,38,01,05,256,43,29,12,076,21,31,66,027,37*7A
$GPGSV,3,2,10,32,61,254,34,14,33,105,40,20,36,299,37,16,24,193,44*75
$GPGSV,3,3,10,46,43,203,45,23,13,302,47,,,,,,,,*7C
$GPGST,014623.00,,145.66,145.61,089.0,012.07,012.07,012.08*46
$GPRMC,014623.00,A,4003.48342,N,08254.66605,W,000.00,000.0,241213,06.7,W,D*32
$PTNLRTF,V,A,179199,09,3,4003.48342,N,08254.66605,W,00247,+000.000,+000.000,+000.000,0,1*53
$PTNLRBA,1,1*57
$GPZDA,014625.00,24,12,2013,,*67
$GPGGA,014625.00,4003.48341,N,08254.66604,W,2,09,0.87,00247,M,-033,M,,*57
$GPGLL,4003.48341,N,08254.66604,W,014625.00,A,D*7E
$GPVTG,000.0,T,006.7,M,000.00,N,000.00,K,D*27
$GPGSA,A,3,25,01,29,31,32,14,20,16,23,,,,1.51,0.87,1.23*07
$GPGSV,3,1,10,25,22,043,38,01,05,256,43,29,12,076,27,31,66,027,39*72
$GPGSV,3,2,10,32,61,254,34,14,33,105,41,20,36,299,37,16,24,193,45*75
$GPGSV,3,3,10,46,43,203,45,23,13,302,48,,,,,,,,*73
$GPGST,014625.00,,128.00,127.95,089.0,011.31,011.31,011.33*4F
$GPRMC,014625.00,A,4003.48341,N,08254.66604,W,000.00,000.0,241213,06.7,W,D*36
$PTNLRTF,V,A,179201,09,3,4003.48341,N,08254.66604,W,00247,+000.000,+000.000,+000.000,0,1*53
$PTNLRBA,1,1*57
