$GPZDA,025412.00,07,02,2014,,*64
$GPGGA,025412.00,3917.26440,N,08203.79814,W,1,11,0.90,00292,M,-033,M,,*51
$GPGLL,3917.26440,N,08203.79814,W,025412.00,A,A*79
$GPVTG,000.0,T,007.2,M,000.0,N,000.0,K,A*26
$GPGSA,A,3,09,08,07,23,13,19,16,11,03,06,27,,1.56,0.90,1.28*08
$GPGSV,3,1,11,09,08,306,30,08,14,304,37,07,45,313,37,23,39,193,37*75
$GPGSV,3,2,11,13,60,238,37,19,61,154,33,16,38,053,39,11,14,166,33*7A
$GPGSV,3,3,11,03,72,089,27,06,47,057,39,27,57,067,47,,,,*43
$GPGST,025412.00,,197.42,197.32,045.1,014.05,014.05,014.08*43
$GPRMC,025412.00,A,3917.26440,N,08203.79814,W,000.0,000.0,070214,08,11,3,3917.26440,N,08203.79814,$GPZDA,025413.00,07,02,2014,,*65
$GPGGA,025413.00,3917.26441,N,08203.79813,W,1,11,0.90,00292,M,-033,M,,*56
$GPGLL,3917.26441,N,08203.79813,W,025413.00,A,A*7E
$GPVTG,000.0,T,007.2,M,000.0,N,000.0,K,A*26
$GPGSA,A,3,09,08,07,23,13,19,16,11,03,06,27,,1.56,0.90,1.28*08
$GPGSV,3,1,11,09,08,306,32,08,14,304,37,07,45,313,36,23,39,193,38*79
$GPGSV,3,2,11,13,60,238,38,19,61,154,32,16,38,053,39,11,14,166,34*73
$GPGSV,3,3,11,03,72,089,24,06,47,057,39,27,57,067,47,,,,*40
$GPGST,025413.00,,201.74,201.65,045.1,014.20,014.20,014.23*4C
$GPRMC,025413.00,A,3917.26441,N,08203.79813,W,000.0,000.0,070214,07.2,W,A*05
$PTNLRTF,V,A,442469,11,3,3917.26441,N,08203.79813,W,00292,+000.000,+000.000,+000.000,0,1*57
$PTNLRBA,1,1*57
$GPZDA,025415.00,07,02,2014,,*63
$GPGGA,025415.00,3917.26441,N,08203.79810,W,1,11,0.90,00292,M,-033,M,,*53
$GPGLL,3917.26441,N,08203.79810,W,025415.00,A,A*7B
$GPVTG,000.0,T,007.2,M,000.0,N,000.0,K,A*26
$GPGSA,A,3,09,08,07,23,13,19,16,11,03,06,27,,1.56,0.90,1.28*08
$GPGSV,3,1,11,09,08,306,31,08,14,304,39,07,45,313,35,23,39,193,35*7A
$GPGSV,3,2,11,13,60,238,38,19,61,154,31,16,38,053,39,11,14,166,34*70
$GPGSV,3,3,11,03,72,089,26,06,47,057,37,27,57,067,46,,,,*4D
$GPGST,025415.00,,205.31,205.22,045.1,014.33,014.33,014.35*4F
$GPRMC,025415.00,A,3917.26441,N,08203.79810,W,000.0,000.0,070214,07.2,W,A*00
$PTNLRTF,V,A,442471,11,3,3917.26441,N,08203.79810,W,00292,+000.000,+000.000,+000.000,0,1*5D
$PTNLRBA,1,1*57
$GPZDA,025416.00,07,02,2014,,*60
$GPGGA,025416.00,3917.26432,N,08203.79798,W,1,11,0.90,00292,M,-033,M,,*5B
$GPGLL,3917.26432,N,08203.79798,W,025416.00,A,A*73
$GPVTG,137.2,T,144.4,M,000.4,N,000.7,K,A*22
$GPGSA,A,3,09,08,07,23,13,19,16,11,03,06,27,,1.56,0.90,1.28*08
$GPGSV,3,1,11,09,08,306,31,08,14,304,39,07,45,313,35,23,39,193,36*79
$GPGSV,3,2,11,13,60,238,39,19,61,154,30,16,38,053,40,11,14,166,34*7E
$GPGSV,3,3,11,03,72,089,21,06,47,057,38,27,57,067,46,,,,*45
$GPGST,025416.00,,205.77,205.67,046.5,014.34,014.34,014.37*4A
$GPRMC,025416.00,A,3917.26432,N,08203.79798,W,000.4,137.2,070214,07.2,W,A*0B
$PTNLRTF,V,A,442472,11,3,3917.26432,N,08203.79798,W,00292,+000.133,-000.144,+000.015,0,1*57
$PTNLRBA,1,1*57
$GPZDA,025418.00,07,02,2014,,*6E
$GPGGA,025418.00,3917.26429,N,08203.79793,W,1,11,0.90,00292,M,-033,M,,*54
$GPGLL,3917.26429,N,08203.79793,W,025418.00,A,A*7C
$GPVTG,000.0,T,007.2,M,000.0,N,000.0,K,A*26
$GPGSA,A,3,09,08,07,23,13,19,16,11,03,06,27,,1.56,0.90,1.28*08
$GPGSV,3,1,11,09,08,306,28,08,14,304,38,07,45,313,37,23,39,193,36*72
$GPGSV,3,2,11,13,60,238,38,19,61,154,32,16,38,053,40,11,14,166,34*7D
$GPGSV,3,3,11,03,72,089,19,06,47,057,39,27,57,067,47,,,,*4E
$GPGST,025418.00,,194.21,194.11,046.5,013.93,013.93,013.96*4A
$GPRMC,025418.00,A,3917.26429,N,08203.79793,W,000.0,000.0,070214,07.2,W,A*07
$PTNLRTF,V,A,442474,11,3,3917.26429,N,08203.79793,W,00292,+000.000,+000.000,+000.000,0,1*52
$PTNLRBA,1,1*57
$GPZDA,025419.00,07,02,2014,,*6F
$GPGGA,025419.00,3917.26428,N,08203.79791,W,1,11,0.90,00292,M,-033,M,,*56
$GPGLL,3917.26428,N,08203.79791,W,025419.00,A,A*7E
$GPVTG,000.0,T,007.2,M,000.0,N,000.0,K,A*26
$GPGSA,A,3,09,08,07,23,13,19,16,11,03,06,27,,1.56,0.90,1.28*08
$GPGSV,3,1,11,09,08,306,29,08,14,304,38,07,45,313,37,23,39,193,36*73
$GPGSV,3,2,11,13,60,238,38,19,61,154,32,16,38,053,41,11,14,166,34*7C
$GPGSV,3,3,11,03,72,089,24,06,47,057,38,27,57,067,46,,,,*40
$GPGST,025419.00,,190.07,189.98,046.5,013.79,013.78,013.81*41
$GPRMC,025419.00,A,3917.26428,N,08203.79791,W,000.0,000.0,070214,07.2,W,A*05
$PTNLRTF,V,A,442475,11,3,3917.26428,N,08203.79791,W,00292,+000.000,+000.000,+000.000,0,1*50
$PTNLRBA,1,1*57
$GPZDA,025421.00,07,02,2014,,*64
$GPGGA,025421.00,3917.26431,N,08203.79793,W,1,11,0.90,00293,M,-033,M,,*56
$GPGLL,3917.26431,N,08203.79793,W,025421.00,A,A*7F
$GPVTG,092.4,T,099.6,M,000.2,N,000.4,K,A*2C
$GPGSA,A,3,09,08,07,23,13,19,16,11,03,06,27,,1.56,0.90,1.28*08
$GPGSV,3,1,11,09,08,306,29,08,14,304,38,07,45,313,37,23,39,193,36*73
$GPGSV,3,2,11,13,60,238,38,19,61,154,31,16,38,053,40,11,14,166,34*7E
$GPGSV,3,3,11,03,72,089,26,06,47,057,38,27,57,067,46,,,,*42
$GPGST,025421.00,,196.98,196.87,046.9,014.03,014.03,014.06*4F
$GPRMC,025421.00,A,3917.26431,N,08203.79793,W,000.2,092.4,070214,07.2,W,A*09
$PTNLRTF,V,A,442477,11,3,3917.26431,N,08203.79793,W,00293,+000.097,-000.004,+000.046,0,1*57
$PTNLRBA,1,1*57
$GPZDA,025422.00,07,02,2014,,*67
$GPGGA,025422.00,3917.26429,N,08203.79801,W,1,10,0.97,00293,M,-033,M,,*5E
$GPGLL,3917.26429,N,08203.79801,W,025422.00,A,A*71
$GPVTG,000.0,T,007.2,M,000.0,N,000.0,K,A*26
$GPGSA,A,3,09,08,07,23,13,19,16,11,03,27,,,1.61,0.97,1.28*0D
$GPGSV,3,1,11,09,08,306,30,08,14,304,37,07,45,313,36,23,39,193,35*76
$GPGSV,3,2,11,13,60,238,38,19,61,154,32,16,38,053,39,11,14,166,33*74
$GPGSV,3,3,11,03,72,089,28,06,47,057,38,27,57,067,46,,,,*4C
$GPGST,025422.00,,192.14,192.04,044.3,013.86,013.86,013.89*4B
$GPRMC,025422.00,A,3917.26429,N,08203.79801,W,000.0,000.0,070214,07.2,W,A*0A
$PTNLRTF,V,A,442478,10,3,3917.26429,N,08203.79801,W,00293,+000.000,+000.000,+000.000,0,1*5A
$PTNLRBA,1,1*57
$GPZDA,025424.00,07,02,2014,,*61
$GPGGA,025424.00,3917.26429,N,08203.79803,W,1,11,0.90,00293,M,-033,M,,*5C
$GPGLL,3917.26429,N,08203.79803,W,025424.00,A,A*75
$GPVTG,000.0,T,007.2,M,000.0,N,000.0,K,A*26
$GPGSA,A,3,09,08,07,23,13,19,16,11,03,06,27,,1.56,0.90,1.28*08
$GPGSV,3,1,11,09,08,306,31,08,14,304,37,07,45,313,36,23,39,193,35*77
$GPGSV,3,2,11,13,60,238,38,19,61,154,32,16,38,053,40,11,14,166,34*7D
$GPGSV,3,3,11,03,72,089,26,06,47,057,39,27,57,067,46,,,,*43
$GPGST,025424.00,,186.14,186.04,044.7,013.64,013.64,013.67*49
$GPRMC,025424.00,A,3917.26429,N,08203.79803,W,000.0,000.0,070214,07.2,W,A*0E
$PTNLRTF,V,A,442480,11,3,3917.26429,N,08203.79803,W,00293,+000.000,+000.000,+000.000,0,1*5E
$PTNLRBA,1,1*57
$GPZDA,025425.00,07,02,2014,,*60
$GPGGA,025425.00,3917.26429,N,08203.79802,W,1,11,0.90,00293,M,-033,M,,*5C
$GPGLL,3917.26429,N,08203.79802,W,025425.00,A,A*75
$GPVTG,000.0,T,007.2,M,000.0,N,000.0,K,A*26
$GPGSA,A,3,09,08,07,23,13,19,16,11,03,06,27,,1.56,0.90,1.28*08
$GPGSV,3,1,11,09,08,306,28,08,14,304,37,07,45,313,37,23,39,193,36*7D
$GPGSV,3,2,11,13,60,238,37,19,61,154,32,16,38,053,40,11,14,166,34*72
$GPGSV,3,3,11,03,72,089,28,06,47,057,39,27,57,067,46,,,,*4D
$GPGST,025425.00,,175.01,174.91,044.9,013.23,013.23,013.26*4A
$GPRMC,025425.00,A,3917.26429,N,08203.79802,W,000.0,000.0,070214,07.2,W,A*0E
$PTNLRTF,V,A,442481,11,3,3917.26429,N,08203.79802,W,00293,+000.000,+000.000,+000.000,0,1*5E
$PTNLRBA,1,1*57
$GPZDA,025427.00,07,02,2014,,*62
$GPGGA,025427.00,3917.26428,N,08203.79797,W,1,11,0.90,00293,M,-033,M,,*5C
$GPGLL,3917.26428,N,08203.79797,W,025427.00,A,A*75
$GPVTG,000.0,T,007.2,M,000.0,N,000.0,K,A*26
$GPGSA,A,3,09,08,07,23,13,19,16,11,03,06,27,,1.56,0.90,1.28*08
$GPGSV,3,1,11,09,08,306,29,08,14,304,36,07,45,313,37,23,39,193,36*7D
$GPGSV,3,2,11,13,60,238,39,19,61,154,34,16,38,053,40,11,14,166,34*7A
$GPGSV,3,3,11,03,72,089,26,06,47,057,39,27,57,067,46,,,,*43
$GPGST,025427.00,,157.27,157.18,045.1,012.54,012.54,012.57*42
$GPRMC,025427.00,A,3917.26428,N,08203.79797,W,000.0,000.0,070214,07.2,W,A*0E
$PTNLRTF,V,A,442483,11,3,3917.26428,N,08203.79797,W,00293,+000.000,+000.000,+000.000,0,1*5E
$PTNLRBA,1,1*57
$GPZDA,025428.00,07,02,2014,,*6D
$GPGGA,025428.00,3917.26427,N,08203.79794,W,1,11,0.90,00293,M,-033,M,,*5F
$GPGLL,3917.26427,N,08203.79794,W,025428.00,A,A*76
$GPVTG,000.0,T,007.2,M,000.0,N,000.0,K,A*26
$GPGSA,A,3,09,08,07,23,13,19,16,11,03,06,27,,1.56,0.90,1.28*08
$GPGSV,3,1,11,09,08,306,29,08,14,304,36,07,45,313,37,23,39,193,36*7D
$GPGSV,3,2,11,13,60,238,39,19,61,154,34,16,38,053,39,11,14,166,34*74
$GPGSV,3,3,11,03,72,089,25,06,47,057,38,27,57,067,46,,,,*41
$GPGST,025428.00,,149.16,149.07,045.1,012.21,012.21,012.24*45
$GPRMC,025428.00,A,3917.26427,N,08203.79794,W,000.0,000.0,070214,07.2,W,A*0D
$PTNLRTF,V,A,442484,11,3,3917.26427,N,08203.79794,W,00293,+000.000,+000.000,+000.000,0,1*55
$PTNLRBA,1,1*57
$GPZDA,025430.00,07,02,2014,,*64
$GPGGA,025430.00,3917.26427,N,08203.79791,W,1,11,0.90,00293,M,-033,M,,*53
$GPGLL,3917.26427,N,08203.79791,W,025430.00,A,A*7A
$GPVTG,000.0,T,007.2,M,000.0,N,000.0,K,A*26
$GPGSA,A,3,09,08,07,23,13,19,16,11,03,06,27,,1.56,0.90,1.28*08
$GPGSV,3,1,11,09,08,306,28,08,14,304,36,07,45,313,37,23,39,193,37*7D
$GPGSV,3,2,11,13,60,238,39,19,61,154,34,16,38,053,39,11,14,166,34*74
$GPGSV,3,3,11,03,72,089,22,06,47,057,39,27,57,067,47,,,,*46
$GPGST,025430.00,,144.86,144.78,045.3,012.03,012.03,012.06*4F
$GPRMC,025430.00,A,3917.26427,N,08203.79791,W,000.0,000.0,070214,07.2,W,A*01
$PTNLRTF,V,A,442486,11,3,3917.26427,N,08203.79791,W,00293,+000.000,+000.000,+000.000,0,1*52
$PTNLRBA,1,1*57
$GPZDA,025431.00,07,02,2014,,*65
$GPGGA,025431.00,3917.26428,N,08203.79790,W,1,11,0.90,00293,M,-033,M,,*5C
$GPGLL,3917.26428,N,08203.79790,W,025431.00,A,A*75
$GPVTG,000.0,T,007.2,M,000.0,N,000.0,K,A*26
$GPGSA,A,3,09,08,07,23,13,19,16,11,03,06,27,,1.56,0.90,1.28*08
$GPGSV,3,1,11,09,08,306,29,08,14,304,35,07,45,313,36,23,39,193,37*7E
$GPGSV,3,2,11,13,60,238,39,19,61,154,33,16,38,053,39,11,14,166,34*73
$GPGSV,3,3,11,03,72,089,22,06,47,057,39,27,57,067,46,,,,*47
$GPGST,025431.00,,137.26,137.18,045.5,011.71,011.71,011.75*43
$GPRMC,025431.00,A,3917.26428,N,08203.79790,W,000.0,000.0,070214,07.2,W,A*0E
$PTNLRTF,V,A,442487,11,3,3917.26428,N,08203.79790,W,00293,+000.000,+000.000,+000.000,0,1*5D
$PTNLRBA,1,1*57
$GPZDA,025433.00,07,02,2014,,*67
$GPGGA,025433.00,3917.26430,N,08203.79791,W,1,11,0.90,00293,M,-033,M,,*56
$GPGLL,3917.26430,N,08203.79791,W,025433.00,A,A*7F
$GPVTG,000.0,T,007.2,M,000.0,N,000.0,K,A*26
$GPGSA,A,3,09,08,07,23,13,19,16,11,03,06,27,,1.56,0.90,1.28*08
$GPGSV,3,1,11,09,08,306,30,08,14,304,36,07,45,313,36,23,39,193,37*75
$GPGSV,3,2,11,13,60,238,39,19,61,154,31,16,38,053,39,11,14,166,34*71
$GPGSV,3,3,11,03,72,089,19,06,47,057,39,27,57,067,47,,,,*4E
$GPGST,025433.00,,130.95,130.87,045.7,011.44,011.44,011.47*4C
$GPRMC,025433.00,A,3917.26430,N,08203.79791,W,000.0,000.0,070214,07.2,W,A*04
$PTNLRTF,V,A,442489,11,3,3917.26430,N,08203.79791,W,00293,+000.000,+000.000,+000.000,0,1*5B
$PTNLRBA,1,1*57
